# LAS format log file from PETREL
# Project units are specified as depth units
#==================================================================
~Version information
VERS.   2.0:
WRAP.   NO:
#==================================================================
~Well
STRT .m      1789.0235596 :
STOP .m      2947.0235596 :
STEP .m     0.10000000 :
NULL .        -999.250000 :
COMP.           : COMPANY
WELL.  EKL-  2   : WELL
FLD.            : FIELD
LOC.            : LOCATION
SRVC.           : SERVICE COMPANY
DATE.  2020-12-04 16:30:02   : Log Export Date {yyyy-MM-dd HH:mm:ss}
PROV.           : PROVINCE
UWI.   11000074112601   : UNIQUE WELL ID
API.            : API NUMBER
#==================================================================
~Curve
DEPT .m                   : DEPTH
DENS .g/cm3               : DENS
DEN .g/cm3                : DEN
GR .gAPI                  : GR
PORNET_NOV14 .m3/m3       : PORNET_NOV14
CALI .in                  : CALI
CAL .in                   : CAL
RESD .ohm.m               : RESD
RES_DEP .ohm.m            : RES_DEP
SHNET ._                  : SHNET
SH ._                     : SH
SH_CAP ._                 : SH_CAP
VCL_2014 ._               : VCL_2014
PERMNET_NOV14 .mD         : PERMNET_NOV14
PERMNET_2015 .mD          : PERMNET_2015
Facies ._                 : Facies
NET_NOV14 .m              : NET_NOV14
~Parameter
#==================================================================
~Ascii
# ...
 2939.7235596 2.6933805943 2.6933805943 81.845314026  -999.250000 6.2363457680 6.2363457680 3.8936533928 3.8936533928  -999.250000  -999.250000  -999.250000  -999.250000  -999.250000  -999.250000 3.0000000000  -999.250000
 2939.8235596 2.7112689018 2.7112689018 83.792800903  -999.250000 6.2151174545 6.2151174545 4.4039778709 4.4039778709  -999.250000  -999.250000  -999.250000  -999.250000  -999.250000  -999.250000 3.0000000000  -999.250000
 2939.9235596 2.7158565521 2.7158565521 82.931655884  -999.250000 6.1830048561 6.1830048561 4.8738708496 4.8738708496  -999.250000  -999.250000  -999.250000  -999.250000  -999.250000  -999.250000 3.0000000000  -999.250000
 2940.0235596 2.6829977036 2.6829977036 79.350761414  -999.250000 6.1804208755 6.1804208755 5.2038846016 5.2038846016  -999.250000  -999.250000  -999.250000  -999.250000  -999.250000  -999.250000 3.0000000000  -999.250000
 2940.1235596 2.6453144550 2.6453144550 75.249069214  -999.250000 6.1918187141 6.1918187141 5.4146447182 5.4146447182  -999.250000  -999.250000  -999.250000  -999.250000  -999.250000  -999.250000 3.0000000000  -999.250000
 2940.2235596 2.6334991455 2.6334991455 72.446853638  -999.250000 6.2174186707 6.2174186707 5.3778858185 5.3778858185  -999.250000  -999.250000  -999.250000  -999.250000  -999.250000  -999.250000 3.0000000000  -999.250000
 2940.3235596 2.6221456528 2.6221456528 72.366851807  -999.250000 6.2134494781 6.2134494781 5.2732100487 5.2732100487  -999.250000  -999.250000  -999.250000  -999.250000  -999.250000  -999.250000 3.0000000000  -999.250000
 2940.4235596 2.6128816605 2.6128816605 73.463470459  -999.250000 6.2031922340 6.2031922340 5.1494565010 5.1494565010  -999.250000  -999.250000  -999.250000  -999.250000  -999.250000  -999.250000 3.0000000000  -999.250000
 2940.5235596 2.6122264862 2.6122264862 74.702102661  -999.250000 6.2208871841 6.2208871841 5.0688471794 5.0688471794  -999.250000  -999.250000  -999.250000  -999.250000  -999.250000  -999.250000 3.0000000000  -999.250000
 2940.6235596 2.6145780087 2.6145780087 76.142250061  -999.250000 6.2575049400 6.2575049400 5.0285401344 5.0285401344  -999.250000  -999.250000  -999.250000  -999.250000  -999.250000  -999.250000 3.0000000000  -999.250000
 2940.7235596 2.6169674397 2.6169674397 77.982727051  -999.250000 6.3021306992 6.3021306992 5.0157003403 5.0157003403  -999.250000  -999.250000  -999.250000  -999.250000  -999.250000  -999.250000 3.0000000000  -999.250000
 2940.8235596 2.6090903282 2.6090903282 81.771530151  -999.250000 6.3336386681 6.3336386681 5.0439262390 5.0439262390  -999.250000  -999.250000  -999.250000  -999.250000  -999.250000  -999.250000 3.0000000000  -999.250000
 2940.9235596 2.6119830608 2.6119830608 84.694366455  -999.250000 6.3795056343 6.3795056343 5.0976800919 5.0976800919  -999.250000  -999.250000  -999.250000  -999.250000  -999.250000  -999.250000 3.0000000000  -999.250000
 2941.0235596 2.6231563091 2.6231563091 86.876251221  -999.250000 6.4281201363 6.4281201363 5.1728920937 5.1728920937  -999.250000  -999.250000  -999.250000  -999.250000  -999.250000  -999.250000 3.0000000000  -999.250000
 2941.1235596 2.6487562656 2.6487562656 87.081047058  -999.250000 6.4058022499 6.4058022499 5.3022046089 5.3022046089  -999.250000  -999.250000  -999.250000  -999.250000  -999.250000  -999.250000 3.0000000000  -999.250000
 2941.2235596 2.6713931561 2.6713931561 87.604301453  -999.250000 6.3717436790 6.3717436790 5.4438972473 5.4438972473  -999.250000  -999.250000  -999.250000  -999.250000  -999.250000  -999.250000 3.0000000000  -999.250000
 2941.3235596 2.6910457611 2.6910457611 88.246162415  -999.250000 6.3297476768 6.3297476768 5.5944919586 5.5944919586  -999.250000  -999.250000  -999.250000  -999.250000  -999.250000  -999.250000 3.0000000000  -999.250000
 2941.4235596 2.6923587322 2.6923587322 85.271972656  -999.250000 6.3225274086 6.3225274086 5.7231478691 5.7231478691  -999.250000  -999.250000  -999.250000  -999.250000  -999.250000  -999.250000 3.0000000000  -999.250000
 2941.5235596 2.6946787834 2.6946787834 81.867019653  -999.250000 6.3226928711 6.3226928711 5.8447537422 5.8447537422  -999.250000  -999.250000  -999.250000  -999.250000  -999.250000  -999.250000 3.0000000000  -999.250000
 2941.6235596 2.6979606152 2.6979606152 78.050651550  -999.250000 6.3299136162 6.3299136162 5.9596257210 5.9596257210  -999.250000  -999.250000  -999.250000  -999.250000  -999.250000  -999.250000 3.0000000000  -999.250000
 2941.7235596 2.6992971897 2.6992971897 75.972419739  -999.250000 6.3585367203 6.3585367203 5.9927792549 5.9927792549  -999.250000  -999.250000  -999.250000  -999.250000  -999.250000  -999.250000 3.0000000000  -999.250000
 2941.8235596 2.6951284409 2.6951284409 74.398750305  -999.250000 6.3986630440 6.3986630440 5.9941673279 5.9941673279  -999.250000  -999.250000  -999.250000  -999.250000  -999.250000  -999.250000 3.0000000000  -999.250000
 2941.9235596 2.6846425533 2.6846425533 73.382286072  -999.250000 6.4517469406 6.4517469406 5.9600887299 5.9600887299  -999.250000  -999.250000  -999.250000  -999.250000  -999.250000  -999.250000 3.0000000000  -999.250000
 2942.0235596 2.6815352440 2.6815352440 74.432830811  -999.250000 6.4839606285 6.4839606285 5.7454156876 5.7454156876  -999.250000  -999.250000  -999.250000  -999.250000  -999.250000  -999.250000 3.0000000000  -999.250000
 2942.1235596 2.6835439205 2.6835439205 76.267906189  -999.250000 6.4788293839 6.4788293839 5.5718379021 5.5718379021  -999.250000  -999.250000  -999.250000  -999.250000  -999.250000  -999.250000 3.0000000000  -999.250000
 2942.2235596 2.6920771599 2.6920771599 79.017608643  -999.250000 6.4230341911 6.4230341911 5.4727201462 5.4727201462  -999.250000  -999.250000  -999.250000  -999.250000  -999.250000  -999.250000 3.0000000000  -999.250000
 2942.3235596 2.6859750748 2.6859750748 79.204940796  -999.250000 6.3853874207 6.3853874207 5.4110689163 5.4110689163  -999.250000  -999.250000  -999.250000  -999.250000  -999.250000  -999.250000 3.0000000000  -999.250000
 2942.4235596 2.6764125824 2.6764125824 79.138832092  -999.250000 6.3615512848 6.3615512848 5.3607549667 5.3607549667  -999.250000  -999.250000  -999.250000  -999.250000  -999.250000  -999.250000 3.0000000000  -999.250000
 2942.5235596 2.6639606953 2.6639606953 79.170944214  -999.250000 6.3576192856 6.3576192856 5.3220887184 5.3220887184  -999.250000  -999.250000  -999.250000  -999.250000  -999.250000  -999.250000 3.0000000000  -999.250000
 2942.6235596 2.6658711433 2.6658711433 78.090370178  -999.250000 6.3525757790 6.3525757790 5.2994084358 5.2994084358  -999.250000  -999.250000  -999.250000  -999.250000  -999.250000  -999.250000 3.0000000000  -999.250000
 2942.7235596 2.6666958332 2.6666958332 76.878494263  -999.250000 6.3418784142 6.3418784142 5.2901887894 5.2901887894  -999.250000  -999.250000  -999.250000  -999.250000  -999.250000  -999.250000 3.0000000000  -999.250000
 2942.8235596 2.6594755650 2.6594755650 75.830207825  -999.250000 6.3195605278 6.3195605278 5.3033175468 5.3033175468  -999.250000  -999.250000  -999.250000  -999.250000  -999.250000  -999.250000 3.0000000000  -999.250000
 2942.9235596 2.6658341885 2.6658341885 75.650466919  -999.250000 6.3113441467 6.3113441467 5.3629279137 5.3629279137  -999.250000  -999.250000  -999.250000  -999.250000  -999.250000  -999.250000 3.0000000000  -999.250000
 2943.0235596 2.6781818867 2.6781818867 76.042411804  -999.250000 6.3163981438 6.3163981438 5.4434108734 5.4434108734  -999.250000  -999.250000  -999.250000  -999.250000  -999.250000  -999.250000 3.0000000000  -999.250000
 2943.1235596 2.6972177029 2.6972177029 77.366386414  -999.250000 6.3472495079 6.3472495079 5.5477800369 5.5477800369  -999.250000  -999.250000  -999.250000  -999.250000  -999.250000  -999.250000 3.0000000000  -999.250000
 2943.2235596 2.7039628029 2.7039628029 77.452163696  -999.250000 6.4016184807 6.4016184807 5.6647830009 5.6647830009  -999.250000  -999.250000  -999.250000  -999.250000  -999.250000  -999.250000 3.0000000000  -999.250000
 2943.3235596 2.7071704865 2.7071704865 77.006233215  -999.250000 6.4542431831 6.4542431831 5.7793374062 5.7793374062  -999.250000  -999.250000  -999.250000  -999.250000  -999.250000  -999.250000 3.0000000000  -999.250000
