# LAS format log file from PETREL
# Project units are specified as depth units
#==================================================================
~Version information
VERS.   2.0:
WRAP.   NO:
#==================================================================
~Well
STRT .m      1789.0235596 :
STOP .m      2947.0235596 :
STEP .m     0.10000000 :
NULL .        -999.250000 :
COMP.           : COMPANY
WELL.  EKL-  2   : WELL
FLD.            : FIELD
LOC.            : LOCATION
SRVC.           : SERVICE COMPANY
DATE.  2020-12-04 16:30:02   : Log Export Date {yyyy-MM-dd HH:mm:ss}
PROV.           : PROVINCE
UWI.   11000074112601   : UNIQUE WELL ID
API.            : API NUMBER
#==================================================================
~Curve
DEPT .m                   : DEPTH
DENS .g/cm3               : DENS
DEN .g/cm3                : DEN
GR .gAPI                  : GR
PORNET_NOV14 .m3/m3       : PORNET_NOV14
CALI .in                  : CALI
CAL .in                   : CAL
RESD .ohm.m               : RESD
RES_DEP .ohm.m            : RES_DEP
SHNET ._                  : SHNET
SH ._                     : SH
SH_CAP ._                 : SH_CAP
VCL_2014 ._               : VCL_2014
PERMNET_NOV14 .mD         : PERMNET_NOV14
PERMNET_2015 .mD          : PERMNET_2015
Facies ._                 : Facies
NET_NOV14 .m              : NET_NOV14
~Parameter
#==================================================================
~Ascii
# ...
 2906.4235596 2.4419379234 2.4419379234 17.279726028 0.1150966287 6.3028759956 6.3028759956 24.996379852 24.996379852 0.8922162652 0.8042187095 0.7938184142 0.0955486670 3.2684450150 25.957704544 2.0000000000 1.0000000000
 2906.5235596 2.4399685860 2.4399685860 16.699459076 0.1149509326 6.2989373207 6.2989373207 24.468624115 24.468624115 0.8938403726 0.8042175174 0.7938091755 0.0938434377 3.2420377731 13.368053436 2.0000000000 1.0000000000
 2906.6235596 2.4416677952 2.4416677952 16.377649307 0.1140122861 6.2963328362 6.2963328362 23.299896240 23.299896240 0.8917641044 0.8048095703 0.7934049964 0.0918861032 3.0798296928 3.6157369614 2.0000000000 1.0000000000
 2906.7235596 2.4469192028 2.4469192028 16.306100845 0.1130042970 6.2950201035 6.2950201035 21.510522842 21.510522842 0.8861049414 0.8028620481 0.7926185131 0.0896846503 2.9155931473 0.9993796945 2.0000000000 1.0000000000
 2906.8235596 2.4463548660 2.4463548660 16.526330948 0.1119016409 6.2930641174 6.2930641174 20.124040604 20.124040604 0.8782179952 0.8019623160 0.7917588949 0.0904247388 2.7440860271 3.2800092697 2.0000000000 1.0000000000
 2906.9235596 2.4487102032 2.4487102032 16.826564789 0.1104824170 6.2919998169 6.2919998169 19.020170212 19.020170212 0.8705334067 0.8021362424 0.7907578349 0.0919938833 2.5409593582 14.077793121 2.0000000000 1.0000000000
 2907.0235596 2.4546177387 2.4546177387 17.215816498 0.1036733389 6.2919998169 6.2919998169 18.242324829 18.242324829 0.8631286621 0.7999985218 0.7895911336 0.0944869891 1.8897864819 11.834712029 2.0000000000 1.0000000000
 2907.1235596 2.4930644035 2.4930644035 17.694702148 0.0937942788 6.2919998169 6.2919998169 18.693592072 18.693592072 0.8407087922 0.7918490171 0.7821261883 0.0978802443 1.1141781807 3.4034504890 2.0000000000 1.0000000000
 2907.2235596 2.5221366882 2.5221366882 18.175735474 0.0832876861 6.2803745270 6.2803745270 19.580255508 19.580255508 0.8184646368 0.7763498425 0.7739278078 0.1014571190 1.2490345240 2.5800552368 2.0000000000 1.0000000000
 2907.3235596 2.5346086025 2.5346086025 18.650976181 0.0760703832 6.2521491051 6.2521491051 20.967248917 20.967248917 0.7979546189 0.7705126405 0.7653041482 0.1052072793 1.1574574709 1.8694539070 2.0000000000 1.0000000000
 2907.4235596 2.5435690880 2.5435690880 18.886823654 0.0710701570 6.2245459557 6.2245459557 22.473379135 22.473379135 0.7919871807 0.7660772204 0.7605414987 0.1079562306 0.9166936874 1.2219196558 2.0000000000 1.0000000000
 2907.5235596 2.5535216331 2.5535216331 19.047746658 0.0658581853 6.2043819427 6.2043819427 24.833997726 24.833997726 0.7897995710 0.7625446320 0.7561529279 0.1100552455 0.7350538969 0.3990843594 2.0000000000 1.0000000000
 2907.6235596 2.5659935474 2.5659935474 19.129798889 0.0614378527 6.1971616745 6.1971616745 28.670715332 28.670715332 0.7910467982 0.7575188875 0.7515697479 0.1112325788 0.5999968052 0.0711573958 2.0000000000 1.0000000000
 2907.7235596 2.5707540512 2.5707540512 19.028432846 0.0577699095 6.2020587921 6.2020587921 33.252666473 33.252666473 0.8012667894 0.7536066771 0.7480047941 0.1113045141 0.5059192181 0.1930011362 2.0000000000 1.0000000000
 2907.8235596 2.5715494156 2.5715494156 18.885683060 0.0581720024 6.2148737907 6.2148737907 33.923416138 33.923416138 0.8053387403 0.7521523237 0.7457869649 0.1108974442 0.5150693655 2.0071001053 2.0000000000 1.0000000000
 2907.9235596 2.5669546127 2.5669546127 18.729457855 0.0606173277 6.2398176193 6.2398176193 25.805589676 25.805589676 0.7923530340 0.7534372807 0.7460663319 0.1099114567 0.5802870393 1.9924833775 2.0000000000 1.0000000000
 2908.0235596 2.5566394329 2.5566394329 19.607055664 0.0651091933 6.2668414116 6.2668414116 19.110570908 19.110570908 0.7554032803 0.7561916709 0.7491728663 0.1130392253 0.7016628981 0.1461913586 2.0000000000 1.0000000000
 2908.1235596 2.5411298275 2.5411298275 21.053518295 0.0754154325 6.2949271202 6.2949271202 13.664099693 13.664099693 0.7179030776 0.7610023618 0.7543420792 0.1196778491 0.5823054314 7.5607128143 2.0000000000 1.0000000000
 2908.2235596 2.5155708790 2.5155708790 23.309923172 0.0895607322 6.3244180679 6.3244180679 10.598980904 10.598980904 0.6960012317 0.7699843049 0.7631054521 0.1329321861 1.0701489449 8.3858432770 2.0000000000 1.0000000000
 2908.3235596 2.4758391380 2.4758391380 24.639533997 0.1081914604 6.3402900696 6.3402900696 8.7205915451 8.7205915451 0.7048897743 0.7818131447 0.7763907313 0.1453345865 2.3026719093 0.9276963472 2.0000000000 1.0000000000
 2908.4235596 2.4343726635 2.4343726635 25.298345566 0.1266656220 6.3477034569 6.3477034569 7.4822182655 7.4822182655 0.7266918421 0.7984929681 0.7910405993 0.1550668478 7.6230459213 2.5414090157 2.0000000000 1.0000000000
 2908.5235596 2.4041779041 2.4041779041 24.712171555 0.1430261582 6.3417959213 6.3417959213 7.0594906807 7.0594906807 0.7565263510 0.8106628060 0.8049781919 0.1563518941 15.245508194 21.036296844 2.0000000000 1.0000000000
 2908.6235596 2.3771812916 2.3771812916 23.460306168 0.1562814116 6.3386292458 6.3386292458 6.7907347679 6.7907347679 0.7793426514 0.8207480311 0.8157261014 0.1510706097 25.798316956 63.430561066 2.0000000000 1.0000000000
 2908.7235596 2.3510227203 2.3510227203 22.187620163 0.1695607901 6.3391489983 6.3391489983 6.6230950356 6.6230950356 0.7987211943 0.8292061687 0.8249952793 0.1434310824 39.858200073 70.480857849 2.0000000000 1.0000000000
 2908.8235596 2.3221869469 2.3221869469 22.208591461 0.1802317947 6.3516011238 6.3516011238 6.6178522110 6.6178522110 0.8163119555 0.8380830288 0.8338528872 0.1382325143 52.741447449 64.849014282 2.0000000000 1.0000000000
 2908.9235596 2.3141226768 2.3141226768 22.490663528 0.1861699820 6.3479342461 6.3479342461 6.7195830345 6.7195830345 0.8282961249 0.8455464840 0.8394809961 0.1376270205 62.622428894 45.002319336 2.0000000000 1.0000000000
 2909.0235596 2.3171617985 2.3171617985 22.757144928 0.1861469299 6.3296351433 6.3296351433 6.8861403465 6.8861403465 0.8363385201 0.8444766998 0.8427641392 0.1390671134 62.364257813 65.111511230 2.0000000000 1.0000000000
 2909.1235596 2.3184747696 2.3184747696 21.898559570 0.1846611053 6.2699017525 6.2699017525 7.0981607437 7.0981607437 0.8381284475 0.8437920213 0.8419163823 0.1372122318 59.665542603 69.617431641 2.0000000000 1.0000000000
 2909.2235596 2.3221499920 2.3221499920 21.181331635 0.1825999469 6.2408809662 6.2408809662 7.2207999229 7.2207999229 0.8389368653 0.8431909680 0.8407403827 0.1332347989 56.095035553 20.786231995 2.0000000000 1.0000000000
 2909.3235596 2.3271501064 2.3271501064 20.529478073 0.1804721951 6.2333502769 6.2333502769 7.2690839767 7.2690839767 0.8388806581 0.8414935470 0.8393408656 0.1277880073 52.675933838 65.986618042 2.0000000000 1.0000000000
 2909.4235596 2.3291163445 2.3291163445 19.528087616 0.1790008545 6.2379379272 6.2379379272 7.1393227577 7.1393227577 0.8362885118 0.8403972387 0.8378853798 0.1216951236 50.344196320 105.51900482 2.0000000000 1.0000000000
 2909.5235596 2.3274703026 2.3274703026 18.887554169 0.1794540584 6.2432522774 6.2432522774 7.0593171120 7.0593171120 0.8349186182 0.8398502469 0.8373631239 0.1163303554 50.994522095 54.819442749 2.0000000000 1.0000000000
 2909.6235596 2.3231956959 2.3231956959 18.559680939 0.1789528430 6.2492313385 6.2492313385 7.0220317841 7.0220317841 0.8345291018 0.8412371278 0.8375795484 0.1116948053 50.223091125 32.022533417 2.0000000000 1.0000000000
 2909.7235596 2.3304162025 2.3304162025 18.880008698 0.1776715219 6.2577648163 6.2577648163 7.0601034164 7.0601034164 0.8335154057 0.8406206965 0.8369652033 0.1118978932 48.366588593 46.783470154 2.0000000000 1.0000000000
 2909.8235596 2.3366448879 2.3366448879 19.177194595 0.1747618914 6.2666287422 6.2666287422 7.1130528450 7.1130528450 0.8315834999 0.8382987380 0.8356624246 0.1131802276 44.371231079 164.11524963 2.0000000000 1.0000000000
 2909.9235596 2.3418960571 2.3418960571 19.451574326 0.1732492745 6.2758183479 6.2758183479 7.1806631088 7.1806631088 0.8287466168 0.8365675211 0.8336810470 0.1155261099 42.351501465 132.12298584 2.0000000000 1.0000000000
 2910.0235596 2.3413565159 2.3413565159 19.773567200 0.1727497876 6.2760000229 6.2760000229 7.2778711319 7.2778711319 0.8287747502 0.8357627988 0.8330129385 0.1179030016 41.706005096 53.076156616 2.0000000000 1.0000000000
