# LAS format log file from PETREL
# Project units are specified as depth units
#==================================================================
~Version information
VERS.   2.0:
WRAP.   NO:
#==================================================================
~Well
STRT .m      1789.0235596 :
STOP .m      2947.0235596 :
STEP .m     0.10000000 :
NULL .        -999.250000 :
COMP.           : COMPANY
WELL.  EKL-  2   : WELL
FLD.            : FIELD
LOC.            : LOCATION
SRVC.           : SERVICE COMPANY
DATE.  2020-12-04 16:30:02   : Log Export Date {yyyy-MM-dd HH:mm:ss}
PROV.           : PROVINCE
UWI.   11000074112601   : UNIQUE WELL ID
API.            : API NUMBER
#==================================================================
~Curve
DEPT .m                   : DEPTH
DENS .g/cm3               : DENS
DEN .g/cm3                : DEN
GR .gAPI                  : GR
PORNET_NOV14 .m3/m3       : PORNET_NOV14
CALI .in                  : CALI
CAL .in                   : CAL
RESD .ohm.m               : RESD
RES_DEP .ohm.m            : RES_DEP
SHNET ._                  : SHNET
SH ._                     : SH
SH_CAP ._                 : SH_CAP
VCL_2014 ._               : VCL_2014
PERMNET_NOV14 .mD         : PERMNET_NOV14
PERMNET_2015 .mD          : PERMNET_2015
Facies ._                 : Facies
NET_NOV14 .m              : NET_NOV14
~Parameter
#==================================================================
~Ascii
# ...
 2773.2235596 2.6459567547 2.6459567547 87.467742920  -999.250000 10.248575211 10.248575211 3.9836065769 3.9836065769  -999.250000 0.0000000000  -999.250000  -999.250000  -999.250000  -999.250000 3.0000000000  -999.250000
 2773.3235596 2.6393926144 2.6393926144 88.056915283  -999.250000 10.254281998 10.254281998 3.7722425461 3.7722425461  -999.250000 0.0000000000  -999.250000  -999.250000  -999.250000  -999.250000 3.0000000000  -999.250000
 2773.4235596 2.6353657246 2.6353657246 88.646087646  -999.250000 10.259986877 10.259986877 3.6420683861 3.6420683861  -999.250000 0.0000000000  -999.250000  -999.250000  -999.250000  -999.250000 3.0000000000  -999.250000
 2773.5235596 2.6340529919 2.6340529919 89.235267639  -999.250000 10.265692711 10.265692711 3.5987451077 3.5987451077  -999.250000 0.0000000000  -999.250000  -999.250000  -999.250000  -999.250000 3.0000000000  -999.250000
 2773.6235596 2.6321101189 2.6321101189 88.852668762  -999.250000 10.271398544 10.271398544 3.6549570560 3.6549570560  -999.250000 0.0000000000  -999.250000  -999.250000  -999.250000  -999.250000 3.0000000000  -999.250000
 2773.7235596 2.6307141781 2.6307141781 87.826286316  -999.250000 10.277100563 10.277100563 3.7373204231 3.7373204231  -999.250000 0.0000000000  -999.250000  -999.250000  -999.250000  -999.250000 3.0000000000  -999.250000
 2773.8235596 2.6300587654 2.6300587654 86.020774841  -999.250000 10.282796860 10.282796860 3.8480763435 3.8480763435  -999.250000 0.0000000000  -999.250000  -999.250000  -999.250000  -999.250000 3.0000000000  -999.250000
 2773.9235596 2.6401591301 2.6401591301 83.654464722  -999.250000 10.288501740 10.288501740 3.9721407890 3.9721407890  -999.250000 0.0000000000  -999.250000  -999.250000  -999.250000  -999.250000 3.0000000000  -999.250000
 2774.0235596 2.6470000744 2.6470000744 81.947746277  -999.250000 10.315622330 10.315622330 4.1013250351 4.1013250351  -999.250000 0.0000000000  -999.250000  -999.250000  -999.250000  -999.250000 3.0000000000  -999.250000
 2774.1235596 2.6470000744 2.6470000744 81.373382568  -999.250000 10.376668930 10.376668930 4.2365460396 4.2365460396  -999.250000 0.0000000000  -999.250000  -999.250000  -999.250000  -999.250000 3.0000000000  -999.250000
 2774.2235596 2.6458663940 2.6458663940 80.323455811  -999.250000 10.403138161 10.403138161 4.3853702545 4.3853702545  -999.250000 0.0000000000  -999.250000  -999.250000  -999.250000  -999.250000 3.0000000000  -999.250000
 2774.3235596 2.6443302631 2.6443302631 79.360443115  -999.250000 10.417222977 10.417222977 4.5108957291 4.5108957291  -999.250000 0.0000000000  -999.250000  -999.250000  -999.250000  -999.250000 3.0000000000  -999.250000
 2774.4235596 2.6423609257 2.6423609257 78.711914063  -999.250000 10.417880058 10.417880058 4.5870389938 4.5870389938  -999.250000 0.0000000000  -999.250000  -999.250000  -999.250000  -999.250000 3.0000000000  -999.250000
 2774.5235596 2.6441407204 2.6441407204 79.937957764  -999.250000 10.413183212 10.413183212 4.5967183113 4.5967183113  -999.250000 0.0000000000  -999.250000  -999.250000  -999.250000  -999.250000 3.0000000000  -999.250000
 2774.6235596 2.6467633247 2.6467633247 81.782814026  -999.250000 10.407473564 10.407473564 4.6701097488 4.6701097488  -999.250000 0.0000000000  -999.250000  -999.250000  -999.250000  -999.250000 3.0000000000  -999.250000
 2774.7235596 2.6493892670 2.6493892670 84.110443115  -999.250000 10.402221680 10.402221680 4.9352993965 4.9352993965  -999.250000 0.0000000000  -999.250000  -999.250000  -999.250000  -999.250000 3.0000000000  -999.250000
 2774.8235596 2.6500000954 2.6500000954 88.852233887  -999.250000 10.396970749 10.396970749 5.1098256111 5.1098256111  -999.250000 0.0000000000  -999.250000  -999.250000  -999.250000  -999.250000 3.0000000000  -999.250000
 2774.9235596 2.6488792896 2.6488792896 94.341728210  -999.250000 10.392199516 10.392199516 5.2490167618 5.2490167618  -999.250000 0.0000000000  -999.250000  -999.250000  -999.250000  -999.250000 3.0000000000  -999.250000
 2775.0235596 2.6442844868 2.6442844868 99.879867554  -999.250000 10.388916969 10.388916969 5.3638887405 5.3638887405  -999.250000 0.0000000000  -999.250000  -999.250000  -999.250000  -999.250000 3.0000000000  -999.250000
 2775.1235596 2.6359176636 2.6359176636 104.16181183  -999.250000 10.387999535 10.387999535 5.5064854622 5.5064854622  -999.250000 0.0000000000  -999.250000  -999.250000  -999.250000  -999.250000 3.0000000000  -999.250000
 2775.2235596 2.6281278133 2.6281278133 107.52671051  -999.250000 10.390554428 10.390554428 5.6090531349 5.6090531349  -999.250000 0.0000000000  -999.250000  -999.250000  -999.250000  -999.250000 3.0000000000  -999.250000
 2775.3235596 2.6287841797 2.6287841797 109.11325836  -999.250000 10.403682709 10.403682709 5.5014019012 5.5014019012  -999.250000 0.0000000000  -999.250000  -999.250000  -999.250000  -999.250000 3.0000000000  -999.250000
 2775.4235596 2.6267971992 2.6267971992 110.20198059  -999.250000 10.407999992 10.407999992 5.3822965622 5.3822965622  -999.250000 0.0000000000  -999.250000  -999.250000  -999.250000  -999.250000 3.0000000000  -999.250000
 2775.5235596 2.6242909431 2.6242909431 110.78732300  -999.250000 10.245308876 10.245308876 5.2744488716 5.2744488716  -999.250000 0.0000000000  -999.250000  -999.250000  -999.250000  -999.250000 3.0000000000  -999.250000
 2775.6235596 2.6262602806 2.6262602806 109.87557220  -999.250000 9.1438522339 9.1438522339 5.2639465332 5.2639465332  -999.250000 0.0000000000  -999.250000  -999.250000  -999.250000  -999.250000 3.0000000000  -999.250000
 2775.7235596 2.6257727146 2.6257727146 107.36302185  -999.250000 8.2235088348 8.2235088348 5.3234138489 5.3234138489  -999.250000 0.0000000000  -999.250000  -999.250000  -999.250000  -999.250000 3.0000000000  -999.250000
 2775.8235596 2.6232895851 2.6232895851 103.91201782  -999.250000 7.4870271683 7.4870271683 5.4360542297 5.4360542297  -999.250000 0.0000000000  -999.250000  -999.250000  -999.250000  -999.250000 3.0000000000  -999.250000
 2775.9235596 2.6160690784 2.6160690784 100.69036102  -999.250000 7.4364833832 7.4364833832 5.6500439644 5.6500439644  -999.250000 0.0000000000  -999.250000  -999.250000  -999.250000  -999.250000 3.0000000000  -999.250000
 2776.0235596 2.6024327278 2.6024327278 97.430580139  -999.250000 7.4033002853 7.4033002853 5.8791298866 5.8791298866  -999.250000 0.0000000000  -999.250000  -999.250000  -999.250000  -999.250000 3.0000000000  -999.250000
 2776.1235596 2.5853042603 2.5853042603 94.077018738  -999.250000 7.3832559586 7.3832559586 6.1195788383 6.1195788383  -999.250000 0.0000000000 0.0000000000 0.6580415368  -999.250000  -999.250000 3.0000000000 0.0000000000
 2776.2235596 2.5912120342 2.5912120342 89.515632629  -999.250000 7.3688149452 7.3688149452 6.3637633324 6.3637633324  -999.250000 0.0000000000 0.0000000000 0.6350215077  -999.250000  -999.250000 3.0000000000 0.0000000000
 2776.3235596 2.5950398445 2.5950398445 83.226951599  -999.250000 7.3453617096 7.3453617096 6.5975489616 6.5975489616  -999.250000 0.0000000000 0.0000000000 0.5927585959  -999.250000  -999.250000 3.0000000000 0.0000000000
 2776.4235596 2.5969908237 2.5969908237 75.396316528  -999.250000 7.3138604164 7.3138604164 6.8219213486 6.8219213486  -999.250000 0.0000000000 0.0013086424 0.5332406163  -999.250000  -999.250000 3.0000000000 0.0000000000
 2776.5235596 2.5950248241 2.5950248241 67.918655396  -999.250000 7.2837138176 7.2837138176 7.0204954147 7.0204954147  -999.250000 0.0000000000 0.2834244072 0.4611830413  -999.250000  -999.250000 3.0000000000 0.1230942905
 2776.6235596 2.6081418991 2.6081418991 63.346279144  -999.250000 7.2639145851 7.2639145851 7.1089153290 7.1089153290  -999.250000 0.0000000000 0.5448862314 0.4045063555  -999.250000  -999.250000 2.0000000000 0.7792622447
 2776.7235596 2.6376802921 2.6376802921 61.936965942  -999.250000 7.2553815842 7.2553815842 7.0774078369 7.0774078369  -999.250000 0.0000000000 0.7838614583 0.3645753264  -999.250000  -999.250000 2.0000000000 0.5645697713
 2776.8235596 2.6527957916 2.6527957916 66.269226074  -999.250000 7.2336792946 7.2336792946 6.1090373993 6.1090373993  -999.250000 0.0000000000 0.7875109315 0.3790732026  -999.250000  -999.250000 2.0000000000 0.0000000000
