# LAS format log file from PETREL
# Project units are specified as depth units
#==================================================================
~Version information
VERS.   2.0:
WRAP.   NO:
#==================================================================
~Well
STRT .m      1789.0235596 :
STOP .m      2947.0235596 :
STEP .m     0.10000000 :
NULL .        -999.250000 :
COMP.           : COMPANY
WELL.  EKL-  2   : WELL
FLD.            : FIELD
LOC.            : LOCATION
SRVC.           : SERVICE COMPANY
DATE.  2020-12-04 16:30:02   : Log Export Date {yyyy-MM-dd HH:mm:ss}
PROV.           : PROVINCE
UWI.   11000074112601   : UNIQUE WELL ID
API.            : API NUMBER
#==================================================================
~Curve
DEPT .m                   : DEPTH
DENS .g/cm3               : DENS
DEN .g/cm3                : DEN
GR .gAPI                  : GR
PORNET_NOV14 .m3/m3       : PORNET_NOV14
CALI .in                  : CALI
CAL .in                   : CAL
RESD .ohm.m               : RESD
RES_DEP .ohm.m            : RES_DEP
SHNET ._                  : SHNET
SH ._                     : SH
SH_CAP ._                 : SH_CAP
VCL_2014 ._               : VCL_2014
PERMNET_NOV14 .mD         : PERMNET_NOV14
PERMNET_2015 .mD          : PERMNET_2015
Facies ._                 : Facies
NET_NOV14 .m              : NET_NOV14
~Parameter
#==================================================================
~Ascii
# ...
 2884.2235596 2.4408361912 2.4408361912 24.520111084 0.1228502095 6.2918362617 6.2918362617 6.9684004784 6.9684004784 0.7255378366 0.8155015707 0.8112819791 0.1269225776 5.6618456841 0.6099323034 2.0000000000 1.0000000000
 2884.3235596 2.4349172115 2.4349172115 23.902210236 0.1256173104 6.2859172821 6.2859172821 7.0545372963 7.0545372963 0.7334150076 0.8174768090 0.8123971224 0.1227718964 6.6240777969 0.7327021360 2.0000000000 1.0000000000
 2884.4235596 2.4270403385 2.4270403385 23.541185379 0.1282363385 6.2780404091 6.2780404091 7.1057372093 7.1057372093 0.7438384891 0.8197893500 0.8146457672 0.1190952137 7.5636763573 1.2225944996 2.0000000000 1.0000000000
 2884.5235596 2.4258773327 2.4258773327 23.315076828 0.1283837855 6.2720818520 6.2720818520 7.1617331505 7.1617331505 0.7502026558 0.8224104643 0.8158270717 0.1164534688 7.6200027466 2.7348799706 2.0000000000 1.0000000000
 2884.6235596 2.4317851067 2.4317851067 23.231056213 0.1243453398 6.2681431770 6.2681431770 7.2227792740 7.2227792740 0.7522919178 0.8203696609 0.8158842921 0.1149016544 6.3065237999 2.3077433109 2.0000000000 1.0000000000
 2884.7235596 2.4490783215 2.4490783215 23.272277832 0.1187086031 6.2698974609 6.2698974609 7.2515664101 7.2515664101 0.7379090190 0.8163586855 0.8116045594 0.1148591191 4.5161705017 1.5486105680 2.0000000000 1.0000000000
 2884.8235596 2.4572663307 2.4572663307 23.271995544 0.1156624779 6.2712888718 6.2712888718 7.1375536919 7.1375536919 0.7241537571 0.8101794124 0.8081262112 0.1148882955 3.8401427269 4.3491435051 2.0000000000 1.0000000000
 2884.9235596 2.4533278942 2.4533278942 23.212919235 0.1173268259 6.2719449997 6.2719449997 6.8434820175 6.8434820175 0.7119875550 0.8111464977 0.8058751225 0.1149362102 4.2459363937 13.845588684 2.0000000000 1.0000000000
 2885.0235596 2.4403831959 2.4403831959 22.964075089 0.1216961741 6.2738022804 6.2738022804 6.5167975426 6.5167975426 0.7147163153 0.8139128685 0.8086367846 0.1138296798 5.2987833023 24.697183609 2.0000000000 1.0000000000
 2885.1235596 2.4319999218 2.4319999218 22.779678345 0.1248155311 6.2757697105 6.2757697105 6.1877145767 6.1877145767 0.7167679071 0.8186168075 0.8114592433 0.1126661226 6.2979474068 11.260993004 2.0000000000 1.0000000000
 2885.2235596 2.4319999218 2.4319999218 22.722570419 0.1276787817 6.2777390480 6.2777390480 5.8595094681 5.8595094681 0.7156562209 0.8190312386 0.8136670589 0.1115770712 7.3470458984 7.4034056664 2.0000000000 1.0000000000
 2885.3235596 2.4234590530 2.4234590530 22.877845764 0.1305825561 6.2825551033 6.2825551033 5.5654678345 5.5654678345 0.7127783298 0.8202428818 0.8155595660 0.1120502055 8.6036262512 12.349190712 2.0000000000 1.0000000000
 2885.4235596 2.4109034538 2.4109034538 23.084095001 0.1377024353 6.2887096405 6.2887096405 5.3089370728 5.3089370728 0.7139009833 0.8235181570 0.8184566498 0.1131480858 12.997258186 49.292964935 2.0000000000 1.0000000000
 2885.5235596 2.3931803703 2.3931803703 23.325653076 0.1439979374 6.2965865135 6.2965865135 5.1139831543 5.1139831543 0.7231675386 0.8289423585 0.8233613968 0.1149820983 18.106550217 59.079154968 2.0000000000 1.0000000000
 2885.6235596 2.3856978416 2.3856978416 23.310920715 0.1495338827 6.3033776283 6.3033776283 5.0865287781 5.0865287781 0.7329365015 0.8333523870 0.8273257613 0.1158974618 23.834104538 44.618095398 2.0000000000 1.0000000000
 2885.7235596 2.3837409019 2.3837409019 23.228889465 0.1491381377 6.3099341393 6.3099341393 5.1591529846 5.1591529846 0.7408981323 0.8349962831 0.8298841119 0.1162272915 23.317718506 49.388725281 2.0000000000 1.0000000000
 2885.8235596 2.3896486759 2.3896486759 23.119926453 0.1477737129 6.3164982796 6.3164982796 5.3836450577 5.3836450577 0.7442710996 0.8337404728 0.8295690417 0.1156364605 21.731391907 38.300743103 2.0000000000 1.0000000000
 2885.9235596 2.3945438862 2.3945438862 23.615930557 0.1453581601 6.3149623871 6.3149623871 5.5337185860 5.5337185860 0.7450651526 0.8319039941 0.8281968832 0.1174877286 18.984081268 10.004752159 2.0000000000 1.0000000000
 2886.0235596 2.3976745605 2.3976745605 24.290239334 0.1449195147 6.3090720177 6.3090720177 5.6828646660 5.6828646660 0.7459788918 0.8303602338 0.8268586993 0.1207693741 18.517892838 9.6540489197 2.0000000000 1.0000000000
 2886.1235596 2.3963618279 2.3963618279 24.961090088 0.1444534808 6.2972569466 6.2972569466 5.8961977959 5.8961977959 0.7495778799 0.8302793503 0.8265753984 0.1261941493 18.048595428 23.030664444 2.0000000000 1.0000000000
 2886.2235596 2.3993229866 2.3993229866 25.462638855 0.1438303739 6.2830815315 6.2830815315 6.1933093071 6.1933093071 0.7546598911 0.8302050829 0.8261536360 0.1308906227 17.435602188 52.775756836 2.0000000000 1.0000000000
 2886.3235596 2.4045636654 2.4045636654 25.889739990 0.1411112249 6.2694363594 6.2694363594 6.4993433952 6.4993433952 0.7592271566 0.8286532760 0.8253620863 0.1350977272 15.144737244 60.524795532 2.0000000000 1.0000000000
 2886.4235596 2.4124403000 2.4124403000 26.276365280 0.1369495690 6.2615594864 6.2615594864 6.7126770020 6.7126770020 0.7594370246 0.8263131380 0.8232902288 0.1384477913 12.261281967 47.881221771 2.0000000000 1.0000000000
 2886.5235596 2.4265208244 2.4265208244 26.706859589 0.1308128238 6.2541255951 6.2541255951 6.8373885155 6.8373885155 0.7518075705 0.8230565786 0.8196665645 0.1418567449 8.7000932693 6.0671577454 2.0000000000 1.0000000000
 2886.6235596 2.4424927235 2.4424927235 27.048400879 0.1243400201 6.2480001450 6.2480001450 6.9128718376 6.9128718376 0.7397550344 0.8172101378 0.8152419329 0.1448666006 6.2695803642 14.186257362 2.0000000000 1.0000000000
 2886.7235596 2.4523389339 2.4523389339 26.774023056 0.1193851605 6.2480001450 6.2480001450 6.9516000748 6.9516000748 0.7240681648 0.8129335046 0.8105155826 0.1454846114 4.6281967163 20.566101074 2.0000000000 1.0000000000
 2886.8235596 2.4535260201 2.4535260201 25.432506561 0.1175441518 6.2496495247 6.2496495247 7.0212535858 7.0212535858 0.7171939611 0.8101260066 0.8078870773 0.1399548799 4.1834816933 7.3556237221 2.0000000000 1.0000000000
 2886.9235596 2.4502747059 2.4502747059 23.597291946 0.1168369800 6.2522058487 6.2522058487 7.1052851677 7.1052851677 0.7159823179 0.8114530444 0.8066059947 0.1307158619 4.0192089081 2.3337333202 2.0000000000 1.0000000000
 2887.0235596 2.4528961182 2.4528961182 22.941276550 0.1163813546 6.2541718483 6.2541718483 7.1557478905 7.1557478905 0.7185851336 0.8113698959 0.8062285781 0.1208755672 3.9186928272 0.3671428263 2.0000000000 1.0000000000
 2887.1235596 2.4532399178 2.4532399178 22.505033493 0.1158968434 6.2603197098 6.2603197098 7.0595898628 7.0595898628 0.7178991437 0.8105251789 0.8058341146 0.1147441268 3.8148450851 1.2601113319 2.0000000000 1.0000000000
 2887.2235596 2.4522180557 2.4522180557 22.242835999 0.1151657104 6.2692184448 6.2692184448 6.8765487671 6.8765487671 0.7148507237 0.8109346628 0.8054138422 0.1114476323 3.6661624908 14.217947960 2.0000000000 1.0000000000
 2887.3235596 2.4561567307 2.4561567307 22.221830368 0.1145084202 6.2731566429 6.2731566429 7.0308055878 7.0308055878 0.7123205066 0.8102979660 0.8047654629 0.1104792282 3.5338144302 22.877777100 2.0000000000 1.0000000000
 2887.4235596 2.4566030502 2.4566030502 22.259840012 0.1143277735 6.2788410187 6.2788410187 7.0715723038 7.0715723038 0.7113981247 0.8089636564 0.8043637872 0.1102544814 3.4973590374 6.0426130295 2.0000000000 1.0000000000
 2887.5235596 2.4538264275 2.4538264275 22.351739883 0.1186805964 6.2860836983 6.2860836983 7.0115833282 7.0115833282 0.7119975090 0.8098366857 0.8042182922 0.1106956974 4.5699019432 1.0429083109 2.0000000000 1.0000000000
 2887.6235596 2.4335103035 2.4335103035 22.672208786 0.1264431179 6.2959141731 6.2959141731 6.8457775116 6.8457775116 0.7250364423 0.8138728738 0.8086206317 0.1124984026 7.4856462479 4.8565421104 2.0000000000 1.0000000000
 2887.7235596 2.4055745602 2.4055745602 23.059144974 0.1409899592 6.3063859940 6.3063859940 6.7878808975 6.7878808975 0.7460792065 0.8208257556 0.8157729506 0.1149863303 16.318756104 26.009435654 2.0000000000 1.0000000000
 2887.8235596 2.3694720268 2.3694720268 23.517318726 0.1542764455 6.3175449371 6.3175449371 6.8456449509 6.8456449509 0.7757008076 0.8325681686 0.8258727789 0.1182087138 27.372003555 46.609455109 2.0000000000 1.0000000000
