# LAS format log file from PETREL
# Project units are specified as depth units
#==================================================================
~Version information
VERS.   2.0:
WRAP.   NO:
#==================================================================
~Well
STRT .m      1789.0235596 :
STOP .m      2947.0235596 :
STEP .m     0.10000000 :
NULL .        -999.250000 :
COMP.           : COMPANY
WELL.  EKL-  2   : WELL
FLD.            : FIELD
LOC.            : LOCATION
SRVC.           : SERVICE COMPANY
DATE.  2020-12-04 16:30:02   : Log Export Date {yyyy-MM-dd HH:mm:ss}
PROV.           : PROVINCE
UWI.   11000074112601   : UNIQUE WELL ID
API.            : API NUMBER
#==================================================================
~Curve
DEPT .m                   : DEPTH
DENS .g/cm3               : DENS
DEN .g/cm3                : DEN
GR .gAPI                  : GR
PORNET_NOV14 .m3/m3       : PORNET_NOV14
CALI .in                  : CALI
CAL .in                   : CAL
RESD .ohm.m               : RESD
RES_DEP .ohm.m            : RES_DEP
SHNET ._                  : SHNET
SH ._                     : SH
SH_CAP ._                 : SH_CAP
VCL_2014 ._               : VCL_2014
PERMNET_NOV14 .mD         : PERMNET_NOV14
PERMNET_2015 .mD          : PERMNET_2015
Facies ._                 : Facies
NET_NOV14 .m              : NET_NOV14
~Parameter
#==================================================================
~Ascii
# ...
 2828.7235596 2.4773192406 2.4773192406 37.580432892 0.1079322100 6.4629998207 6.4629998207 5.2640724182 5.2640724182 0.6037985682 0.8254905343 0.8218116760 0.1433322728 3.5004177094 3.3122825623 2.0000000000 1.0000000000
 2828.8235596 2.4674887657 2.4674887657 43.892860413 0.1107107326 6.4629998207 6.4629998207 5.2680044174 5.2680044174 0.6091391444 0.8274819851 0.8242006898 0.1818393171 4.0391206741 17.215160370 2.0000000000 1.0000000000
 2828.9235596 2.4762749672 2.4762749672 49.850074768 0.1125833094 6.4629998207 6.4629998207 5.1689944267 5.1689944267 0.6011097431 0.8285658956 0.8257537484 0.2318908572 4.4590163231 47.442310333 2.0000000000 1.0000000000
 2829.0235596 2.4925456047 2.4925456047 55.577484131 0.1075035110 6.4629998207 6.4629998207 5.0824494362 5.0824494362 0.5798152089 0.8235211968 0.8258684874 0.2848803103 3.4714391232 19.515087128 2.0000000000 1.0000000000
 2829.1235596 2.5128943920 2.5128943920 60.924602509 0.0886849239 6.4629998207 6.4629998207 5.1605625153 5.1605625153 0.5281615257 0.8170276880 0.8219680190 0.3344777524  -999.250000  -999.250000 2.0000000000 0.7325487733
 2829.2235596 2.5355403423 2.5355403423 66.669609070 0.0506401733 6.4643783569 6.4643783569 5.3374581337 5.3374581337 0.4933122098 0.6987457871 0.6184859276 0.3844999075  -999.250000  -999.250000 2.0000000000 0.0763807744
 2829.3235596 2.5545372963 2.5545372963 71.297027588  -999.250000 6.4668097496 6.4668097496 5.4792470932 5.4792470932  -999.250000 0.1660708040 0.3364553750 0.4290031195  -999.250000  -999.250000 3.0000000000 0.0000000000
 2829.4235596 2.5519158840 2.5519158840 69.914878845  -999.250000 6.4713973999 6.4713973999 5.2597017288 5.2597017288  -999.250000 0.0000000000 0.0871119276 0.4469095469  -999.250000  -999.250000 3.0000000000 0.2359551787
 2829.5235596 2.5398960114 2.5398960114 67.433250427  -999.250000 6.4764165878 6.4764165878 5.0275416374 5.0275416374  -999.250000 0.0000000000 0.1865476519 0.4400111139  -999.250000  -999.250000 3.0000000000 0.8921231627
 2829.6235596 2.5245826244 2.5245826244 64.559547424 0.0774815902 6.4811668396 6.4811668396 4.7985439301 4.7985439301 0.4190188348 0.0000000000 0.4684932828 0.4198514521 1.1949977875 3.4504168034 2.0000000000 1.0000000000
 2829.7235596 2.5213005543 2.5213005543 63.046520233 0.0988661870 6.4824795723 6.4824795723 4.6377234459 4.6377234459 0.4193322361 0.3401015401 0.7177030444 0.4000896215 2.1134462357 5.9755959511 2.0000000000 1.0000000000
 2829.8235596 2.5104885101 2.5104885101 57.530723572 0.1008280069 6.4829998016 6.4829998016 4.4832439423 4.4832439423 0.4341174364 0.8115657568 0.8172643781 0.3652290702 2.3476738930 4.9742183685 2.0000000000 1.0000000000
 2829.9235596 2.4948945045 2.4948945045 49.424480438 0.1033228412 6.4828944206 6.4828944206 4.3285236359 4.3285236359 0.4591835439 0.8169724941 0.8186503649 0.3184417486 2.6978943348 3.6281399727 2.0000000000 1.0000000000
 2830.0235596 2.4811320305 2.4811320305 41.736454010 0.1062874869 6.4815840721 6.4815840721 4.1233959198 4.1233959198 0.4932169616 0.8218974471 0.8204622865 0.2485527247 3.1726791859 2.8093011379 2.0000000000 1.0000000000
 2830.1235596 2.4677209854 2.4677209854 37.091793060 0.1101630852 6.4802722931 6.4802722931 3.8856952190 3.8856952190 0.5183780789 0.8264691830 0.8227331042 0.1941591799 3.9080677032 3.7231099606 2.0000000000 1.0000000000
 2830.2235596 2.4550201893 2.4550201893 35.002803802 0.1131665409 6.4790000916 6.4790000916 3.6255428791 3.6255428791 0.5357892513 0.8307421207 0.8253473043 0.1534400880 4.5938816071 5.0590114594 2.0000000000 1.0000000000
 2830.3235596 2.4556767941 2.4556767941 36.351070404 0.1156304106 6.4790000916 6.4790000916 3.4817888737 3.4817888737 0.5338232517 0.8325634599 0.8271648884 0.1509145498 5.2209830284 9.4961776733 2.0000000000 1.0000000000
 2830.4235596 2.4550006390 2.4550006390 38.393337250 0.1172483265 6.4803328514 6.4803328514 3.3810143471 3.3810143471 0.5293605924 0.8323355913 0.8285990357 0.1590835303 5.6979737282 24.676004410 2.0000000000 1.0000000000
 2830.5235596 2.4530313015 2.4530313015 41.108905792 0.1148300767 6.4829583168 6.4829583168 3.3219375610 3.3219375610 0.5224757791 0.8329419494 0.8296610117 0.1776281148 5.0628652573 16.506425858 2.0000000000 1.0000000000
 2830.6235596 2.4749639034 2.4749639034 42.721763611 0.1100600362 6.4901056290 6.4901056290 3.4508447647 3.4508447647 0.4948500693 0.8295848370 0.8267888427 0.1964625418 3.9116055965 1.0460625887 2.0000000000 1.0000000000
 2830.7235596 2.4927365780 2.4927365780 44.354614258 0.1025486961 6.4825267792 6.4825267792 3.5998954773 3.5998954773 0.4618248940 0.8221979141 0.8227959871 0.2133572847 2.6598632336 1.0891282558 2.0000000000 1.0000000000
 2830.8235596 2.5051884651 2.5051884651 46.031677246 0.0989775062 6.4576230049 6.4576230049 3.7689781189 3.7689781189 0.4228703678 0.8178198338 0.8175655603 0.2279758900 2.1116228104 1.0714062452 2.0000000000 1.0000000000
 2830.9235596 2.5072271824 2.5072271824 50.190292358 0.0971287042 6.4357504845 6.4357504845 4.0972423553 4.0972423553 0.4221040905 0.8152309060 0.8162810206 0.2546518445 1.9175360203 1.3527237177 2.0000000000 1.0000000000
 2831.0235596 2.5201513767 2.5201513767 55.000438690 0.0918969661 6.4251604080 6.4251604080 4.6472315788 4.6472315788 0.4164385796 0.8147439957 0.8141105771 0.2889057696 1.4626697302 4.0832290649 2.0000000000 1.0000000000
 2831.1235596 2.5496897697 2.5496897697 60.495246887  -999.250000 6.4304118156 6.4304118156 5.4985957146 5.4985957146 0.3999527097 0.8049837947 0.8102790117 0.3327997029  -999.250000  -999.250000 2.0000000000 0.6091891527
 2831.2235596 2.5908854008 2.5908854008 64.661743164  -999.250000 6.4455714226 6.4455714226 6.2829318047 6.2829318047 0.3755035400 0.5891401172 0.5559512377 0.3746047318  -999.250000  -999.250000 2.0000000000 0.0000000000
 2831.3235596 2.6230165958 2.6230165958 68.213226318  -999.250000 6.4622106552 6.4622106552 7.0695834160 7.0695834160  -999.250000 0.0648911670 0.2848386467 0.4117923081  -999.250000  -999.250000 3.0000000000 0.0000000000
 2831.4235596 2.6367790699 2.6367790699 70.984741211  -999.250000 6.4792499542 6.4792499542 7.8750209808 7.8750209808  -999.250000 0.0000000000 0.0395792201 0.4413891733  -999.250000  -999.250000 3.0000000000 0.0000000000
 2831.5235596 2.6384494305 2.6384494305 72.819213867  -999.250000 6.4919085503 6.4919085503 8.0793151855 8.0793151855  -999.250000 0.0000000000 0.0000000000 0.4623326957  -999.250000  -999.250000 3.0000000000 0.0000000000
 2831.6235596 2.6380000114 2.6380000114 72.948577881  -999.250000 6.5037240982 6.5037240982 7.9206957817 7.9206957817  -999.250000 0.0000000000 0.0000000000 0.4729541242  -999.250000  -999.250000 3.0000000000 0.0000000000
 2831.7235596 2.6380000114 2.6380000114 69.764984131  -999.250000 6.5155396461 6.5155396461 7.2249007225 7.2249007225  -999.250000 0.0000000000 0.0000000000 0.4647663236  -999.250000  -999.250000 3.0000000000 0.0000000000
 2831.8235596 2.6270861626 2.6270861626 65.359039307  -999.250000 6.5226774216 6.5226774216 6.6917753220 6.6917753220  -999.250000 0.1541922390 0.2168611139 0.4351024926  -999.250000  -999.250000 3.0000000000 0.0000000000
 2831.9235596 2.6071531773 2.6071531773 59.796955109  -999.250000 6.5266485214 6.5266485214 6.2125496864 6.2125496864 0.0309582129 0.6622947454 0.4825056493 0.3941507936  -999.250000  -999.250000 2.0000000000 0.6401546597
 2832.0235596 2.5704529285 2.5704529285 51.958847046 0.0659972355 6.5253376961 6.5253376961 5.7636280060 5.7636280060 0.1463402361 0.7849677205 0.7256327868 0.3378213048 0.3781271875 0.2426186204 2.0000000000 1.0000000000
 2832.1235596 2.5444304943 2.5444304943 44.410156250 0.0759377927 6.5220761299 6.5220761299 5.2586154938 5.2586154938 0.2725728154 0.7974377871 0.7939059138 0.2734477520 0.6072800756 0.4911737144 2.0000000000 1.0000000000
 2832.2235596 2.5163624287 2.5163624287 37.852542877 0.0905769765 6.5161252022 6.5161252022 4.8274374008 4.8274374008 0.3957690597 0.8054748178 0.8022057414 0.2108428478 1.5550239086 0.3498392403 2.0000000000 1.0000000000
 2832.3235596 2.4677882195 2.4677882195 34.471374512 0.1046909690 6.5029969215 6.5029969215 4.7289757729 4.7289757729 0.4947116673 0.8196452260 0.8129591346 0.1644979864 3.2237179279 0.7082000375 2.0000000000 1.0000000000
