# LAS format log file from PETREL
# Project units are specified as depth units
#==================================================================
~Version information
VERS.   2.0:
WRAP.   NO:
#==================================================================
~Well
STRT .m      1789.0235596 :
STOP .m      2947.0235596 :
STEP .m     0.10000000 :
NULL .        -999.250000 :
COMP.           : COMPANY
WELL.  EKL-  2   : WELL
FLD.            : FIELD
LOC.            : LOCATION
SRVC.           : SERVICE COMPANY
DATE.  2020-12-04 16:30:02   : Log Export Date {yyyy-MM-dd HH:mm:ss}
PROV.           : PROVINCE
UWI.   11000074112601   : UNIQUE WELL ID
API.            : API NUMBER
#==================================================================
~Curve
DEPT .m                   : DEPTH
DENS .g/cm3               : DENS
DEN .g/cm3                : DEN
GR .gAPI                  : GR
PORNET_NOV14 .m3/m3       : PORNET_NOV14
CALI .in                  : CALI
CAL .in                   : CAL
RESD .ohm.m               : RESD
RES_DEP .ohm.m            : RES_DEP
SHNET ._                  : SHNET
SH ._                     : SH
SH_CAP ._                 : SH_CAP
VCL_2014 ._               : VCL_2014
PERMNET_NOV14 .mD         : PERMNET_NOV14
PERMNET_2015 .mD          : PERMNET_2015
Facies ._                 : Facies
NET_NOV14 .m              : NET_NOV14
~Parameter
#==================================================================
~Ascii
# ...
 2917.5235596 2.5606794357 2.5606794357 49.724868774 0.0789512917 6.0904045105 6.0904045105 4.2569317818 4.2569317818  -999.250000  -999.250000 0.7596214414 0.3443529308 0.4401890934 0.9934621453 2.0000000000 1.0000000000
 2917.6235596 2.5681138039 2.5681138039 46.558895111 0.0738015026 6.1635928154 6.1635928154 4.2832732201 4.2832732201  -999.250000  -999.250000 0.7550967336 0.3368084431 0.3273962438 0.0487536006 2.0000000000 1.0000000000
 2917.7235596 2.5672950745 2.5672950745 42.378349304 0.0759258047 6.2502889633 6.2502889633 4.2941613197 4.2941613197  -999.250000  -999.250000 0.7522364259 0.3182281256 0.3678869009 2.0798656940 2.0000000000 1.0000000000
 2917.8235596 2.5449771881 2.5449771881 38.389343262 0.0812164322 6.3218379021 6.3218379021 4.2908787727 4.2908787727  -999.250000  -999.250000 0.7542104125 0.2878853679 0.5185198784 2.3584237099 2.0000000000 1.0000000000
 2917.9235596 2.5255429745 2.5255429745 36.859134674 0.0901932269 6.3501315117 6.3501315117 4.2794265747 4.2794265747  -999.250000  -999.250000 0.7602556348 0.2679475546 0.8021818399 0.2594739795 2.0000000000 1.0000000000
 2918.0235596 2.5177030563 2.5177030563 37.507205963 0.0882157162 6.3604106903 6.3604106903 4.2729249001 4.2729249001  -999.250000  -999.250000 0.7656697631 0.2592936158 0.7172236443 0.2426134348 2.0000000000 1.0000000000
 2918.1235596 2.5498158932 2.5498158932 43.003051758 0.0820400119 6.3623762131 6.3623762131 4.2965178490 4.2965178490  -999.250000  -999.250000 0.7630468607 0.2789855897 0.5451661348 0.2930632830 2.0000000000 1.0000000000
 2918.2235596 2.5779294968 2.5779294968 49.977375031 0.0709106848 6.3876528740 6.3876528740 4.3949918747 4.3949918747  -999.250000  -999.250000 0.7556319237 0.3189323545 0.2905814946 0.1498854607 2.0000000000 1.0000000000
 2918.3235596 2.6080577374 2.6080577374 57.479484558  -999.250000 6.4178953171 6.4178953171 4.5302314758 4.5302314758  -999.250000  -999.250000 0.7053734064 0.3688344955  -999.250000  -999.250000 2.0000000000 0.4307114780
 2918.4235596 2.6586015224 2.6586015224 64.144020081  -999.250000 6.4172387123 6.4172387123 4.6759548187 4.6759548187  -999.250000  -999.250000 0.4409526587 0.4216289818  -999.250000  -999.250000 2.0000000000 0.0000000000
 2918.5235596 2.6778349876 2.6778349876 70.846542358  -999.250000 6.4011363983 6.4011363983 4.6409144402 4.6409144402  -999.250000  -999.250000 0.2007987350 0.4723530114  -999.250000  -999.250000 3.0000000000 0.0000000000
 2918.6235596 2.6779673100 2.6779673100 77.816619873  -999.250000 6.3787789345 6.3787789345 4.4924054146 4.4924054146  -999.250000  -999.250000 0.0000000000 0.5228886008  -999.250000  -999.250000 3.0000000000 0.0000000000
 2918.7235596 2.6687922478 2.6687922478 86.724929810  -999.250000 6.3768124580 6.3768124580 4.2649955750 4.2649955750  -999.250000  -999.250000 0.0000000000 0.5812824368  -999.250000  -999.250000 3.0000000000 0.0000000000
 2918.8235596 2.6661553383 2.6661553383 93.339889526  -999.250000 6.3783106804 6.3783106804 4.0666389465 4.0666389465  -999.250000  -999.250000 0.0000000000 0.6350164413  -999.250000  -999.250000 3.0000000000 0.0000000000
 2918.9235596 2.6683320999 2.6683320999 98.021591187  -999.250000 6.3841166496 6.3841166496 3.8925290108 3.8925290108  -999.250000  -999.250000 0.0000000000 0.6833581924  -999.250000  -999.250000 3.0000000000 0.0000000000
 2919.0235596 2.6735835075 2.6735835075 97.999267578  -999.250000 6.4175939560 6.4175939560 3.7743749619 3.7743749619  -999.250000  -999.250000 0.0000000000 0.7004521489  -999.250000  -999.250000 3.0000000000 0.0000000000
 2919.1235596 2.6809606552 2.6809606552 96.500823975  -999.250000 6.4595746994 6.4595746994 3.6594102383 3.6594102383  -999.250000  -999.250000 0.0000000000 0.7024002075  -999.250000  -999.250000 3.0000000000 0.0000000000
 2919.2235596 2.6899249554 2.6899249554 93.774429321  -999.250000 6.5083966255 6.5083966255 3.5473062992 3.5473062992  -999.250000  -999.250000 0.0000000000 0.6914029717  -999.250000  -999.250000 3.0000000000 0.0000000000
 2919.3235596 2.6853375435 2.6853375435 92.883796692  -999.250000 6.5326447487 6.5326447487 3.4437594414 3.4437594414  -999.250000  -999.250000 0.0000000000 0.6784434319  -999.250000  -999.250000 3.0000000000 0.0000000000
 2919.4235596 2.6875073910 2.6875073910 93.844673157  -999.250000 6.5536928177 6.5536928177 3.2847547531 3.2847547531  -999.250000  -999.250000 0.0000000000 0.6759387255  -999.250000  -999.250000 3.0000000000 0.0000000000
 2919.5235596 2.6966972351 2.6966972351 96.728935242  -999.250000 6.5714159012 6.5714159012 3.0681395531 3.0681395531  -999.250000  -999.250000 0.0000000000 0.6842946410  -999.250000  -999.250000 3.0000000000 0.0000000000
 2919.6235596 2.7039825916 2.7039825916 100.36540985  -999.250000 6.6488075256 6.6488075256 2.9099233150 2.9099233150  -999.250000  -999.250000 0.0000000000 0.7081379890  -999.250000  -999.250000 3.0000000000 0.0000000000
 2919.7235596 2.7050881386 2.7050881386 100.94590759  -999.250000 6.7026090622 6.7026090622 2.7889311314 2.7889311314  -999.250000  -999.250000 0.0000000000 0.7215188146  -999.250000  -999.250000 3.0000000000 0.0000000000
 2919.8235596 2.6985239983 2.6985239983 97.661231995  -999.250000 6.7242703438 6.7242703438 2.7121312618 2.7121312618  -999.250000  -999.250000 0.0000000000 0.7211149335  -999.250000  -999.250000 3.0000000000 0.0000000000
 2919.9235596 2.6931679249 2.6931679249 93.707916260  -999.250000 6.7181477547 6.7181477547 2.6637196541 2.6637196541  -999.250000  -999.250000 0.0000000000 0.6961783767  -999.250000  -999.250000 3.0000000000 0.0000000000
 2920.0235596 2.6848001480 2.6848001480 88.218444824  -999.250000 6.7038998604 6.7038998604 2.6661598682 2.6661598682  -999.250000  -999.250000 0.0000000000 0.6622896194  -999.250000  -999.250000 3.0000000000 0.0000000000
 2920.1235596 2.6716928482 2.6716928482 80.481262207  -999.250000 6.6809625626 6.6809625626 2.7421817780 2.7421817780  -999.250000  -999.250000 0.0000000000 0.6180246472  -999.250000  -999.250000 3.0000000000 0.0000000000
 2920.2235596 2.6745731831 2.6745731831 74.771156311  -999.250000 6.6557064056 6.6557064056 2.8497495651 2.8497495651  -999.250000  -999.250000 0.0000000000 0.5706242919  -999.250000  -999.250000 3.0000000000 0.0000000000
 2920.3235596 2.6713867188 2.6713867188 69.025772095  -999.250000 6.6262292862 6.6262292862 2.9818356037 2.9818356037  -999.250000  -999.250000 0.0000000000 0.5242283344  -999.250000  -999.250000 3.0000000000 0.0000000000
 2920.4235596 2.6523506641 2.6523506641 62.649402618  -999.250000 6.5894708633 6.5894708633 3.1511893272 3.1511893272  -999.250000  -999.250000 0.0000000000 0.4805924296  -999.250000  -999.250000 3.0000000000 0.0000000000
 2920.5235596 2.6257426739 2.6257426739 55.236194611  -999.250000 6.4921345711 6.4921345711 3.2999904156 3.2999904156  -999.250000  -999.250000 0.2122629434 0.4301953018  -999.250000  -999.250000 3.0000000000 0.0049840570
 2920.6235596 2.6038334370 2.6038334370 50.637947083  -999.250000 6.3862438202 6.3862438202 3.3996212482 3.3996212482  -999.250000  -999.250000 0.4604533613 0.3890240788  -999.250000  -999.250000 2.0000000000 0.6611520648
 2920.7235596 2.5966246128 2.5966246128 53.106689453  -999.250000 6.2905611992 6.2905611992 3.3950338364 3.3950338364  -999.250000  -999.250000 0.6867240667 0.3726866245  -999.250000  -999.250000 2.0000000000 0.6826800108
 2920.8235596 2.6127972603 2.6127972603 56.913291931  -999.250000 6.2700171471 6.2700171471 3.2424688339 3.2424688339  -999.250000  -999.250000 0.5376415253 0.3884249330  -999.250000  -999.250000 2.0000000000 0.0265120063
 2920.9235596 2.6314842701 2.6314842701 59.451946259  -999.250000 6.2728137970 6.2728137970 3.0623595715 3.0623595715  -999.250000  -999.250000 0.3511733711 0.4084431827  -999.250000  -999.250000 3.0000000000 0.0000000000
 2921.0235596 2.6373918056 2.6373918056 57.051452637  -999.250000 6.2800345421 6.2800345421 2.9284517765 2.9284517765  -999.250000  -999.250000 0.3787144721 0.4134077430  -999.250000  -999.250000 3.0000000000 0.2858239412
 2921.1235596 2.6342227459 2.6342227459 51.726333618  -999.250000 6.2743563652 6.2743563652 2.8413612843 2.8413612843  -999.250000  -999.250000 0.5464131236 0.3904317021  -999.250000  -999.250000 2.0000000000 0.9419919252
