# LAS format log file from PETREL
# Project units are specified as depth units
#==================================================================
~Version information
VERS.   2.0:
WRAP.   NO:
#==================================================================
~Well
STRT .m      1789.0235596 :
STOP .m      2947.0235596 :
STEP .m     0.10000000 :
NULL .        -999.250000 :
COMP.           : COMPANY
WELL.  EKL-  2   : WELL
FLD.            : FIELD
LOC.            : LOCATION
SRVC.           : SERVICE COMPANY
DATE.  2020-12-04 16:30:02   : Log Export Date {yyyy-MM-dd HH:mm:ss}
PROV.           : PROVINCE
UWI.   11000074112601   : UNIQUE WELL ID
API.            : API NUMBER
#==================================================================
~Curve
DEPT .m                   : DEPTH
DENS .g/cm3               : DENS
DEN .g/cm3                : DEN
GR .gAPI                  : GR
PORNET_NOV14 .m3/m3       : PORNET_NOV14
CALI .in                  : CALI
CAL .in                   : CAL
RESD .ohm.m               : RESD
RES_DEP .ohm.m            : RES_DEP
SHNET ._                  : SHNET
SH ._                     : SH
SH_CAP ._                 : SH_CAP
VCL_2014 ._               : VCL_2014
PERMNET_NOV14 .mD         : PERMNET_NOV14
PERMNET_2015 .mD          : PERMNET_2015
Facies ._                 : Facies
NET_NOV14 .m              : NET_NOV14
~Parameter
#==================================================================
~Ascii
# ...
 2895.3235596 2.4431865215 2.4431865215 23.855070114 0.1227518916 6.3627133369 6.3627133369 5.9093785286 5.9093785286 0.6952804327 0.8102589846 0.8068644404 0.1376839727 5.2826957703 6.5150399208 2.0000000000 1.0000000000
 2895.4235596 2.4438428879 2.4438428879 23.668647766 0.1195574030 6.3476157188 6.3476157188 6.3826503754 6.3826503754 0.7012706995 0.8097855449 0.8059063554 0.1331725866 4.5249409676 2.9352908134 2.0000000000 1.0000000000
 2895.5235596 2.4594502449 2.4594502449 24.117914200 0.1141296551 6.3340320587 6.3340320587 6.7083182335 6.7083182335 0.6980621219 0.8075783849 0.8025457263 0.1337184757 3.3159852028 5.1662797928 2.0000000000 1.0000000000
 2895.6235596 2.4768478870 2.4768478870 25.038978577 0.1080309749 6.3226137161 6.3226137161 7.0593738556 7.0593738556 0.6911432147 0.8002343178 0.7982938290 0.1376844645 2.4467248917 2.5562541485 2.0000000000 1.0000000000
 2895.7235596 2.4847249985 2.4847249985 26.846076965 0.1043182835 6.3167061806 6.3167061806 7.6448917389 7.6448917389 0.6815710664 0.7961632609 0.7936028838 0.1476119608 1.9379001856 0.9132042527 2.0000000000 1.0000000000
 2895.8235596 2.4869999886 2.4869999886 29.989234924 0.1039614528 6.3098649979 6.3098649979 8.3685903549 8.3685903549 0.6875008941 0.7938511968 0.7920128107 0.1660089493 1.8995590210 1.0079990625 2.0000000000 1.0000000000
 2895.9235596 2.4900808334 2.4900808334 33.551742554 0.1015614569 6.3042464256 6.3042464256 9.2085456848 9.2085456848 0.6984970570 0.7937930226 0.7913467884 0.1885994673 1.6765928268 2.3392386436 2.0000000000 1.0000000000
 2896.0235596 2.5064911842 2.5064911842 36.581073761 0.0965174511 6.3055596352 6.3055596352 10.308689117 10.308689117 0.7041746974 0.7894082665 0.7892305851 0.2144520581 1.3263562918 3.1186938286 2.0000000000 1.0000000000
 2896.1235596 2.5276730061 2.5276730061 38.204021454 0.0874049589 6.3086123466 6.3086123466 11.462083817 11.462083817 0.6928319335 0.7826281786 0.7836725116 0.2329142243 0.7972902060 2.7212753296 2.0000000000 1.0000000000
 2896.2235596 2.5463645458 2.5463645458 38.661251068 0.0836966261 6.3119997978 6.3119997978 12.476365089 12.476365089 0.6757870317 0.7733373046 0.7770755291 0.2447123230 0.6357173920 15.404927254 2.0000000000 1.0000000000
 2896.3235596 2.5345489979 2.5345489979 36.286357880 0.0830987766 6.3119997978 6.3119997978 12.457328796 12.457328796 0.6767844558 0.7730851173 0.7748378515 0.2382774055 0.6167104244 20.953439713 2.0000000000 1.0000000000
 2896.4235596 2.5239448547 2.5239448547 33.316028595 0.0869715288 6.3119997978 6.3119997978 12.033395767 12.033395767 0.6881378293 0.7775886059 0.7758669257 0.2221403718 0.7575838566 6.6710543633 2.0000000000 1.0000000000
 2896.5235596 2.5141587257 2.5141587257 30.030080795 0.0902929679 6.3124203682 6.3124203682 11.380079269 11.380079269 0.7051418424 0.7813463807 0.7788866758 0.1998487860 0.9093853235 1.9465836287 2.0000000000 1.0000000000
 2896.6235596 2.5049688816 2.5049688816 27.311229706 0.0941630453 6.3170151711 6.3170151711 10.965884209 10.965884209 0.7138838768 0.7849143744 0.7813661695 0.1767569184 1.1315770149 0.4567620158 2.0000000000 1.0000000000
 2896.7235596 2.4901852608 2.4901852608 24.336185455 0.0998384133 6.3212370872 6.3212370872 10.770964622 10.770964622 0.7286858559 0.7886416316 0.7849231958 0.1538969725 1.5315908194 1.1725950241 2.0000000000 1.0000000000
 2896.8235596 2.4709165096 2.4709165096 21.262529373 0.1086521074 6.3252339363 6.3252339363 10.750617981 10.750617981 0.7484922409 0.7956440449 0.7894350886 0.1315374672 2.6402606964 1.5434626341 2.0000000000 1.0000000000
 2896.9235596 2.4466681480 2.4466681480 20.244752884 0.1198664084 6.3304772377 6.3304772377 10.898729324 10.898729324 0.7768000960 0.8035402298 0.7968499660 0.1161087304 5.1597323418 4.0603346825 2.0000000000 1.0000000000
 2897.0235596 2.4149076939 2.4149076939 20.009386063 0.1357076764 6.3353838921 6.3353838921 10.979194641 10.979194641 0.8051546812 0.8122898340 0.8063163161 0.1079052016 11.672259331 14.247152328 2.0000000000 1.0000000000
 2897.1235596 2.3761794567 2.3761794567 20.499725342 0.1490366906 6.3399786949 6.3399786949 10.996917725 10.996917725 0.8335524797 0.8252893090 0.8176854253 0.1064032689 21.162389755 35.875087738 2.0000000000 1.0000000000
 2897.2235596 2.3642394543 2.3642394543 20.620912552 0.1592287719 6.3249726295 6.3249726295 10.902261734 10.902261734 0.8498181701 0.8335985541 0.8262107968 0.1087600514 30.086811066 60.658954620 2.0000000000 1.0000000000
 2897.3235596 2.3614075184 2.3614075184 20.417593002 0.1599256843 6.3052282333 6.3052282333 10.945552826 10.945552826 0.8590875864 0.8373485804 0.8309053183 0.1091793478 30.696969986 77.842147827 2.0000000000 1.0000000000
 2897.4235596 2.3686280251 2.3686280251 19.853078842 0.1573162675 6.2802848816 6.2802848816 11.143788338 11.143788338 0.8605915904 0.8350840807 0.8313279152 0.1074105203 28.531221390 49.918056488 2.0000000000 1.0000000000
 2897.5235596 2.3777022362 2.3777022362 19.479011536 0.1533523649 6.2702975273 6.2702975273 11.511420250 11.511420250 0.8588654995 0.8324098587 0.8285120130 0.1041031182 25.244485855 8.8599624634 2.0000000000 1.0000000000
 2897.6235596 2.3818902969 2.3818902969 19.363870621 0.1519121379 6.2647223473 6.2647223473 11.790861130 11.790861130 0.8580422401 0.8293723464 0.8263485432 0.1020392627 24.183483124 37.502258301 2.0000000000 1.0000000000
 2897.7235596 2.3792645931 2.3792645931 19.588363647 0.1526069939 6.2640662193 6.2640662193 11.937240601 11.937240601 0.8586923480 0.8299275041 0.8253167272 0.1017885804 24.686811447 39.120613098 2.0000000000 1.0000000000
 2897.8235596 2.3748683929 2.3748683929 20.186468124 0.1543768346 6.2657709122 6.2657709122 11.437914848 11.437914848 0.8587093949 0.8309963942 0.8264390230 0.1049690470 25.975475311 25.563215256 2.0000000000 1.0000000000
 2897.9235596 2.3761928082 2.3761928082 20.836580276 0.1528150290 6.2687268257 6.2687268257 10.820307732 10.820307732 0.8554013968 0.8324397206 0.8268668652 0.1091331020 24.798086166 36.968757629 2.0000000000 1.0000000000
 2898.0235596 2.3873517513 2.3873517513 21.503492355 0.1489603519 6.2733216286 6.2733216286 10.126482010 10.126482010 0.8466869593 0.8293125033 0.8257395625 0.1142920926 21.236934662 57.194122314 2.0000000000 1.0000000000
 2898.1235596 2.4001710415 2.4001710415 22.389011383 0.1433005929 6.2790269852 6.2790269852 9.5961437225 9.5961437225 0.8322992325 0.8253369927 0.8221866488 0.1204318032 15.853260040 83.477401733 2.0000000000 1.0000000000
 2898.2235596 2.4126424789 2.4126424789 23.127130508 0.1376255900 6.2857851982 6.2857851982 9.1296567917 9.1296567917 0.8165783882 0.8208922744 0.8181807995 0.1262762249 11.919360161 85.828598022 2.0000000000 1.0000000000
 2898.3235596 2.4238014221 2.4238014221 23.482904434 0.1335128099 6.2943186760 6.2943186760 8.7364673615 8.7364673615 0.8001355529 0.8169214129 0.8141078353 0.1311605871 9.3420362473 64.363464355 2.0000000000 1.0000000000
 2898.4235596 2.4281084538 2.4281084538 25.196445465 0.1308914125 6.3033790588 6.3033790588 8.4502744675 8.4502744675 0.7874953151 0.8139584661 0.8117530942 0.1399984807 8.0597934723 20.161632538 2.0000000000 1.0000000000
 2898.5235596 2.4261467457 2.4261467457 28.456943512 0.1361178458 6.3125686646 6.3125686646 8.2211627960 8.2211627960 0.7797228098 0.8129911423 0.8114016056 0.1564817876 10.917754173 19.180444717 2.0000000000 1.0000000000
 2898.6235596 2.4123618603 2.4123618603 34.845783234 0.1398866624 6.3217587471 6.3217587471 8.0715017319 8.0715017319 0.7820912600 0.8164949417 0.8151266575 0.1901694983 13.145128250 14.656487465 2.0000000000 1.0000000000
 2898.7235596 2.4194226265 2.4194226265 38.905918121 0.1418548971 6.3314447403 6.3314447403 7.9297814369 7.9297814369 0.7797435522 0.8186417222 0.8170642853 0.2259759456 14.582714081 5.4052538872 2.0000000000 1.0000000000
 2898.8235596 2.4368617535 2.4368617535 41.810493469 0.1327369660 6.3412876129 6.3412876129 7.7737488747 7.7737488747 0.7691776156 0.8138540387 0.8164431453 0.2582471967 9.6360626221 8.8869848251 2.0000000000 1.0000000000
 2898.9235596 2.4663527012 2.4663527012 43.381393433 0.1227411479 6.3511176109 6.3511176109 7.5620675087 7.5620675087 0.7365247607 0.8047291636 0.8092850447 0.2766052783 5.4926376343 10.111497879 2.0000000000 1.0000000000
