# LAS format log file from PETREL
# Project units are specified as depth units
#==================================================================
~Version information
VERS.   2.0:
WRAP.   NO:
#==================================================================
~Well
STRT .m      1789.0235596 :
STOP .m      2947.0235596 :
STEP .m     0.10000000 :
NULL .        -999.250000 :
COMP.           : COMPANY
WELL.  EKL-  2   : WELL
FLD.            : FIELD
LOC.            : LOCATION
SRVC.           : SERVICE COMPANY
DATE.  2020-12-04 16:30:02   : Log Export Date {yyyy-MM-dd HH:mm:ss}
PROV.           : PROVINCE
UWI.   11000074112601   : UNIQUE WELL ID
API.            : API NUMBER
#==================================================================
~Curve
DEPT .m                   : DEPTH
DENS .g/cm3               : DENS
DEN .g/cm3                : DEN
GR .gAPI                  : GR
PORNET_NOV14 .m3/m3       : PORNET_NOV14
CALI .in                  : CALI
CAL .in                   : CAL
RESD .ohm.m               : RESD
RES_DEP .ohm.m            : RES_DEP
SHNET ._                  : SHNET
SH ._                     : SH
SH_CAP ._                 : SH_CAP
VCL_2014 ._               : VCL_2014
PERMNET_NOV14 .mD         : PERMNET_NOV14
PERMNET_2015 .mD          : PERMNET_2015
Facies ._                 : Facies
NET_NOV14 .m              : NET_NOV14
~Parameter
#==================================================================
~Ascii
# ...
 2817.6235596 2.4553723335 2.4553723335 49.129703522 0.1227890253 6.3462257385 6.3462257385 5.2068767548 5.2068767548 0.6494597793 0.8367877007 0.8388232589 0.2439813018 8.3523778915 17.667085648 2.0000000000 1.0000000000
 2817.7235596 2.4579980373 2.4579980373 50.296146393 0.1191308796 6.3390054703 6.3390054703 5.3329076767 5.3329076767 0.6415718794 0.8359192014 0.8361202478 0.2540833950 6.8492136002 11.376920700 2.0000000000 1.0000000000
 2817.8235596 2.4698066711 2.4698066711 50.134986877 0.1151630208 6.3914747238 6.3914747238 5.3231611252 5.3231611252 0.6284844279 0.8335226774 0.8337785006 0.2583518624 5.5317430496 3.4456408024 2.0000000000 1.0000000000
 2817.9235596 2.4797480106 2.4797480106 48.115367889 0.1089685336 6.4252467155 6.4252467155 5.3223724365 5.3223724365 0.6113035679 0.8296636939 0.8305433393 0.2508889139 4.0018262863 6.6027774811 2.0000000000 1.0000000000
 2818.0235596 2.4876248837 2.4876248837 44.049560547 0.1069476753 6.4383749962 6.4383749962 5.3315620422 5.3315620422 0.5896177292 0.8270182014 0.8263235688 0.2305075079 3.4963564873 4.9915089607 2.0000000000 1.0000000000
 2818.1235596 2.4736442566 2.4736442566 41.140281677 0.1085549518 6.4308862686 6.4308862686 5.1447520256 5.1447520256 0.5931147337 0.8278895020 0.8261832595 0.2000495046 3.9796192646 6.0702509880 2.0000000000 1.0000000000
 2818.2235596 2.4512815475 2.4512815475 39.169597626 0.1195601374 6.4234805107 6.4234805107 4.9600481987 4.9600481987 0.6117237806 0.8328037858 0.8293241262 0.1755749583 7.3955492973 39.985221863 2.0000000000 1.0000000000
 2818.3235596 2.4191174507 2.4191174507 38.383216858 0.1305925697 6.4175724983 6.4175724983 4.7913508415 4.7913508415 0.6489597559 0.8425586820 0.8366027474 0.1598229408 13.936385155 43.281875610 2.0000000000 1.0000000000
 2818.4235596 2.4011802673 2.4011802673 36.771675110 0.1410719454 6.4229278564 6.4229278564 4.7003087997 4.7003087997 0.6814951301 0.8504868150 0.8437473774 0.1479459256 22.281238556 27.776060104 2.0000000000 1.0000000000
 2818.5235596 2.3887572289 2.3887572289 35.293113708 0.1456103325 6.4312362671 6.4312362671 4.6370387077 4.6370387077 0.7057052255 0.8553879857 0.8492400646 0.1360998303 28.745916367 18.959531784 2.0000000000 1.0000000000
 2818.6235596 2.3828494549 2.3828494549 34.176559448 0.1485448778 6.4423952103 6.4423952103 4.6055307388 4.6055307388 0.7171356678 0.8574460745 0.8520569205 0.1236246228 33.269931793 23.791173935 2.0000000000 1.0000000000
 2818.7235596 2.3791899681 2.3791899681 33.372486115 0.1501550525 6.4456858635 6.4456858635 4.5796432495 4.5796432495 0.7222647667 0.8588700294 0.8533330560 0.1147918627 36.143558502 37.810523987 2.0000000000 1.0000000000
 2818.8235596 2.3780903816 2.3780903816 32.792926788 0.1497647017 6.4476542473 6.4476542473 4.5625638962 4.5625638962 0.7247280478 0.8597997427 0.8539229631 0.1079203635 35.434913635 18.348714828 2.0000000000 1.0000000000
 2818.9235596 2.3813672066 2.3813672066 32.558307648 0.1479754299 6.4496202469 6.4496202469 4.5612530708 4.5612530708 0.7239679098 0.8591176867 0.8536556363 0.1037548259 32.398189545 11.966255188 2.0000000000 1.0000000000
 2819.0235596 2.3899447918 2.3899447918 33.337661743 0.1448718756 6.4505295753 6.4505295753 4.5694742203 4.5694742203 0.7174819708 0.8575114608 0.8520274758 0.1062797606 27.174234390 17.871896744 2.0000000000 1.0000000000
 2819.1235596 2.3988606930 2.3988606930 34.881210327 0.1420754492 6.4493255615 6.4493255615 4.5850005150 4.5850005150 0.7092207074 0.8545753956 0.8501249552 0.1144426987 23.479221344 27.253894806 2.0000000000 1.0000000000
 2819.2235596 2.4054248333 2.4054248333 37.743160248 0.1381189227 6.4434175491 6.4434175491 4.6132259369 4.6132259369 0.6999357939 0.8523863554 0.8483521342 0.1328105032 19.180669785 23.369298935 2.0000000000 1.0000000000
 2819.3235596 2.4224653244 2.4224653244 40.375625610 0.1328385323 6.4295277596 6.4295277596 4.7686657906 4.7686657906 0.6861671209 0.8492236137 0.8453357816 0.1559399515 14.180169106 4.3458113670 2.0000000000 1.0000000000
 2819.4235596 2.4446666241 2.4446666241 42.894035339 0.1224219352 6.4123487473 6.4123487473 4.9686980247 4.9686980247 0.6663037539 0.8429355621 0.8410581946 0.1800698489 8.8375940323 1.5371605158 2.0000000000 1.0000000000
 2819.5235596 2.4728472233 2.4728472233 45.278232574 0.1090685353 6.3926877975 6.3926877975 5.1830005646 5.1830005646 0.6313413382 0.8345446587 0.8339778185 0.2025760859 4.5355029106 6.3774404526 2.0000000000 1.0000000000
 2819.6235596 2.5131888390 2.5131888390 47.984241486 0.0920775160 6.3977293968 6.3977293968 5.4899158478 5.4899158478 0.5541752577 0.8239923120 0.8234865665 0.2261178195 1.7009432316 20.457357407 2.0000000000 1.0000000000
 2819.7235596 2.5560228825 2.5560228825 51.222568512 0.0754193887 6.4124579430 6.4124579430 5.7983937263 5.7983937263 0.4484928548 0.8083559871 0.8115461469 0.2523794472 0.7882927656 9.2721176147 2.0000000000 1.0000000000
 2819.8235596 2.5881869793 2.5881869793 56.202751160  -999.250000 6.4255862236 6.4255862236 5.9500246048 5.9500246048 0.2936081886 0.7953052521 0.7993423939 0.2886167765  -999.250000  -999.250000 2.0000000000 0.7561708093
 2819.9235596 2.6011786461 2.6011786461 64.336807251  -999.250000 6.4295639992 6.4295639992 5.9094948769 5.9094948769 0.1886920631 0.6949589252 0.6083462834 0.3461278975  -999.250000  -999.250000 2.0000000000 0.1000028178
 2820.0235596 2.6020681858 2.6020681858 72.360130310  -999.250000 6.4291839600 6.4291839600 5.7560400963 5.7560400963  -999.250000 0.1793726683 0.3326244652 0.4089218676  -999.250000  -999.250000 3.0000000000 0.0000000000
 2820.1235596 2.5883054733 2.5883054733 69.924812317  -999.250000 6.4304947853 6.4304947853 5.5070028305 5.5070028305  -999.250000 0.0000000000 0.0925487280 0.4380922616  -999.250000  -999.250000 3.0000000000 0.2123331428
 2820.2235596 2.5471005440 2.5471005440 61.740348816  -999.250000 6.4370508194 6.4370508194 5.1935858727 5.1935858727  -999.250000 0.0681800693 0.1777827591 0.4079636335  -999.250000  -999.250000 3.0000000000 0.8685011268
 2820.3235596 2.4906525612 2.4906525612 50.264148712 0.0866691992 6.4468369484 6.4468369484 4.8506603241 4.8506603241 0.5351867676 0.6083455682 0.4640580118 0.3385790586 2.8677656651 2.6328618526 2.0000000000 1.0000000000
 2820.4235596 2.4538936615 2.4538936615 41.931018829 0.1182024702 6.4560265541 6.4560265541 4.6163215637 4.6163215637 0.5728244185 0.8300853372 0.7200229168 0.2486764640 6.9800829887 4.5983858109 2.0000000000 1.0000000000
 2820.5235596 2.4230961800 2.4230961800 37.051113129 0.1306372583 6.4622354507 6.4622354507 4.4740142822 4.4740142822 0.6188114285 0.8416831493 0.8353238702 0.1837926060 13.177423477 3.2661035061 2.0000000000 1.0000000000
 2820.6235596 2.3979420662 2.3979420662 34.950920105 0.1383625716 6.4662032127 6.4662032127 4.4127740860 4.4127740860 0.6698197722 0.8496996760 0.8432913423 0.1398206949 19.531408310 13.773292542 2.0000000000 1.0000000000
 2820.7235596 2.3966290951 2.3966290951 36.080604553 0.1434356421 6.4707980156 6.4707980156 4.5886917114 4.5886917114 0.6918742061 0.8534622192 0.8472163081 0.1359641999 24.908494949 27.492422104 2.0000000000 1.0000000000
 2820.8235596 2.3956587315 2.3956587315 37.494312286 0.1447899640 6.4712934494 6.4712934494 4.7852811813 4.7852811813 0.7073004246 0.8538205028 0.8495230675 0.1408856958 26.794538498 38.832408905 2.0000000000 1.0000000000
 2820.9235596 2.3950033188 2.3950033188 39.169414520 0.1436530948 6.4680166245 6.4680166245 5.0008945465 5.0008945465 0.7166268229 0.8539888263 0.8503406048 0.1538855433 25.257209778 23.307367325 2.0000000000 1.0000000000
 2821.0235596 2.4074077606 2.4074077606 40.714614868 0.1410140544 6.4425311089 6.4425311089 5.2240352631 5.2240352631 0.7171454430 0.8521525860 0.8489467502 0.1685394645 21.944997787 6.4613552094 2.0000000000 1.0000000000
 2821.1235596 2.4186418056 2.4186418056 42.048408508 0.1363070905 6.4175500870 6.4175500870 5.3769683838 5.3769683838 0.7130690217 0.8483640552 0.8467835188 0.1819138825 17.112911224 35.279888153 2.0000000000 1.0000000000
 2821.2235596 2.4284877777 2.4284877777 43.145927429 0.1323928684 6.3932633400 6.3932633400 5.4511427879 5.4511427879 0.7038915753 0.8452920914 0.8437703252 0.1938441992 13.776313782 26.023187637 2.0000000000 1.0000000000
