# LAS format log file from PETREL
# Project units are specified as depth units
#==================================================================
~Version information
VERS.   2.0:
WRAP.   NO:
#==================================================================
~Well
STRT .m      1789.0235596 :
STOP .m      2947.0235596 :
STEP .m     0.10000000 :
NULL .        -999.250000 :
COMP.           : COMPANY
WELL.  EKL-  2   : WELL
FLD.            : FIELD
LOC.            : LOCATION
SRVC.           : SERVICE COMPANY
DATE.  2020-12-04 16:30:02   : Log Export Date {yyyy-MM-dd HH:mm:ss}
PROV.           : PROVINCE
UWI.   11000074112601   : UNIQUE WELL ID
API.            : API NUMBER
#==================================================================
~Curve
DEPT .m                   : DEPTH
DENS .g/cm3               : DENS
DEN .g/cm3                : DEN
GR .gAPI                  : GR
PORNET_NOV14 .m3/m3       : PORNET_NOV14
CALI .in                  : CALI
CAL .in                   : CAL
RESD .ohm.m               : RESD
RES_DEP .ohm.m            : RES_DEP
SHNET ._                  : SHNET
SH ._                     : SH
SH_CAP ._                 : SH_CAP
VCL_2014 ._               : VCL_2014
PERMNET_NOV14 .mD         : PERMNET_NOV14
PERMNET_2015 .mD          : PERMNET_2015
Facies ._                 : Facies
NET_NOV14 .m              : NET_NOV14
~Parameter
#==================================================================
~Ascii
# ...
 2862.0235596 2.4840912819 2.4840912819 29.481721878 0.1022826880 6.3502268791 6.3502268791 3.4040079117 3.4040079117 0.4598592520 0.8121224046 0.8085537553 0.1346043795 2.1172759533 1.1613284349 2.0000000000 1.0000000000
 2862.1235596 2.4775424004 2.4775424004 29.142410278 0.1055622175 6.3419103622 6.3419103622 3.4082145691 3.4082145691 0.4549392164 0.8108962178 0.8079389334 0.1343523711 2.5293316841 0.6163647771 2.0000000000 1.0000000000
 2862.2235596 2.4611322880 2.4611322880 28.535886765 0.1111428365 6.3300952911 6.3300952911 3.3484814167 3.3484814167 0.4756978452 0.8165225387 0.8102656007 0.1315881759 3.5290739536 7.6190743446 2.0000000000 1.0000000000
 2862.3235596 2.4512331486 2.4512331486 29.524610519 0.1164857373 6.3195819855 6.3195819855 3.2555408478 3.2555408478 0.5043001771 0.8209668398 0.8149119616 0.1337726712 4.5432653427 14.250992775 2.0000000000 1.0000000000
 2862.4235596 2.4518337250 2.4518337250 30.625329971 0.1160736680 6.3106226921 6.3106226921 3.2305631638 3.2305631638 0.5162202120 0.8242462873 0.8172358274 0.1393299848 4.4405317307 3.9261538982 2.0000000000 1.0000000000
 2862.5235596 2.4642856121 2.4642856121 31.838403702 0.1152030006 6.3034133911 6.3034133911 3.2829921246 3.2829921246 0.5091427565 0.8201456666 0.8169035912 0.1486679614 4.2373576164 2.7855129242 2.0000000000 1.0000000000
 2862.6235596 2.4606685638 2.4606685638 32.612758636 0.1145364344 6.2999062538 6.2999062538 3.2983748913 3.2983748913 0.5038173199 0.8185194135 0.8161078095 0.1568334997 4.0867772102 5.6079983711 2.0000000000 1.0000000000
 2862.7235596 2.4566242695 2.4566242695 33.421493530 0.1169419438 6.2971744537 6.2971744537 3.2768330574 3.2768330574 0.5038310885 0.8200436234 0.8163255453 0.1644437164 4.6629891396 1.9514427185 2.0000000000 1.0000000000
 2862.8235596 2.4533421993 2.4533421993 34.314868927 0.1173791140 6.2952051163 6.2952051163 3.2072534561 3.2072534561 0.5110949874 0.8211445808 0.8179867864 0.1713833660 4.7576022148 0.4405881763 2.0000000000 1.0000000000
 2862.9235596 2.4600558281 2.4600558281 35.144741058 0.1163678020 6.2932357788 6.2932357788 3.2352788448 3.2352788448 0.5042696595 0.8206714392 0.8175803423 0.1785392463 4.5040884018 0.8153904080 2.0000000000 1.0000000000
 2863.0235596 2.4667079449 2.4667079449 35.677833557 0.1135548726 6.2919998169 6.2919998169 3.3385679722 3.3385679722 0.4975464940 0.8179549575 0.8164168596 0.1843381375 3.8823513985 6.7001166344 2.0000000000 1.0000000000
 2863.1235596 2.4712953568 2.4712953568 35.723056793 0.1109417304 6.2919998169 6.2919998169 3.5495939255 3.5495939255 0.4937599599 0.8162096143 0.8143827915 0.1878068298 3.3638916016 6.9244117737 2.0000000000 1.0000000000
 2863.2235596 2.4770004749 2.4770004749 36.186153412 0.1084592715 6.2919998169 6.2919998169 3.7464601994 3.7464601994 0.4963209033 0.8144217730 0.8125440478 0.1906000525 2.9269294739 2.7112791538 2.0000000000 1.0000000000
 2863.3235596 2.4839682579 2.4839682579 36.869663239 0.1050845310 6.2919998169 6.2919998169 3.8534057140 3.8534057140 0.4925136864 0.8123294115 0.8105172515 0.1945191324 2.4559280872 1.2621674538 2.0000000000 1.0000000000
 2863.4235596 2.4931578636 2.4931578636 37.856250763 0.1030321121 6.2919998169 6.2919998169 3.7772622108 3.7772622108 0.4729451239 0.8092474937 0.8080219626 0.2010548860 2.1777522564 3.7621231079 2.0000000000 1.0000000000
 2863.5235596 2.4923758507 2.4923758507 38.643920898 0.1022624299 6.2940993309 6.2940993309 3.7105658054 3.7105658054 0.4574209452 0.8073384166 0.8070408106 0.2080812007 2.0866308212 10.092957497 2.0000000000 1.0000000000
 2863.6235596 2.4832937717 2.4832937717 38.296039581 0.1086234897 6.2978124619 6.2978124619 3.6688938141 3.6688938141 0.4578749537 0.8084580302 0.8078796864 0.2101847976 3.0361297131 9.2343692780 2.0000000000 1.0000000000
 2863.7235596 2.4590065479 2.4590065479 35.101943970 0.1160764322 6.3043766022 6.3043766022 3.6866168976 3.6866168976 0.4975588620 0.8152593970 0.8124951124 0.1990607381 4.6670928001 11.810173035 2.0000000000 1.0000000000
 2863.8235596 2.4411611557 2.4411611557 33.243556976 0.1246734113 6.3084664345 6.3084664345 3.7339153290 3.7339153290 0.5467475653 0.8227713108 0.8181672096 0.1824850738 7.0789322853 18.565208435 2.0000000000 1.0000000000
 2863.9235596 2.4288511276 2.4288511276 32.710693359 0.1291578859 6.3121910095 6.3121910095 3.7388451099 3.7388451099 0.5897341967 0.8279743791 0.8234702945 0.1695658714 9.0719461441 183.58674622 2.0000000000 1.0000000000
 2864.0235596 2.4281947613 2.4281947613 35.200458527 0.1303672045 6.3174419403 6.3174419403 3.5662093163 3.5662093163 0.6009309292 0.8294646740 0.8263315558 0.1752181500 9.6072673798 214.53411865 2.0000000000 1.0000000000
 2864.1235596 2.4400041103 2.4400041103 37.556793213 0.1272991598 6.3240785599 6.3240785599 3.5514743328 3.5514743328 0.5883417130 0.8283716440 0.8256609440 0.1908058226 8.0999326706 38.238559723 2.0000000000 1.0000000000
 2864.2235596 2.4578976631 2.4578976631 38.869110107 0.1180322766 6.3315353394 6.3315353394 3.6197478771 3.6197478771 0.5625257492 0.8226486444 0.8226037025 0.2061048150 5.3228397369 9.6031579971 2.0000000000 1.0000000000
 2864.3235596 2.4795591831 2.4795591831 35.679611206 0.1090122536 6.3400688171 6.3400688171 3.7628452778 3.7628452778 0.5221458077 0.8156836629 0.8154577613 0.2009913176 3.0828266144 3.7561154366 2.0000000000 1.0000000000
 2864.4235596 2.4882907867 2.4882907867 32.666851044 0.1017983407 6.3464417458 6.3464417458 3.8588962555 3.8588962555 0.4938763678 0.8093057871 0.8095722198 0.1828663200 2.0643208027 5.0657496452 2.0000000000 1.0000000000
 2864.5235596 2.4894855022 2.4894855022 30.090532303 0.1004497558 6.3514285088 6.3514285088 3.9066817760 3.9066817760 0.4749806225 0.8085693121 0.8050011992 0.1595809460 1.8805003166 2.7429447174 2.0000000000 1.0000000000
 2864.6235596 2.4855470657 2.4855470657 29.803682327 0.0999781266 6.3547105789 6.3547105789 3.7970614433 3.7970614433 0.4762992263 0.8091697097 0.8047910333 0.1472634673 1.8329128027 0.6116250753 2.0000000000 1.0000000000
 2864.7235596 2.4887826443 2.4887826443 30.205139160 0.0989781991 6.3603839874 6.3603839874 3.7396519184 3.7396519184 0.4682339430 0.8100183606 0.8042313457 0.1440990865 1.7349416018 0.4005252123 2.0000000000 1.0000000000
 2864.8235596 2.4955604076 2.4955604076 30.981769562 0.0986176804 6.3675498962 6.3675498962 3.7194840908 3.7194840908 0.4550578296 0.8071898222 0.8034958839 0.1469103992 1.6997262239 0.3166136742 2.0000000000 1.0000000000
 2864.9235596 2.4903090000 2.4903090000 30.990961075 0.0984910727 6.3741135597 6.3741135597 3.7372071743 3.7372071743 0.4523878694 0.8071287870 0.8033118248 0.1503124386 1.6870687008 1.2472074032 2.0000000000 1.0000000000
 2865.0235596 2.4898359776 2.4898359776 30.425840378 0.0985439047 6.3810391426 6.3810391426 3.7677662373 3.7677662373 0.4542874396 0.8087301254 0.8032286763 0.1493923515 1.6909315586 4.8628344536 2.0000000000 1.0000000000
 2865.1235596 2.4929547310 2.4929547310 29.427623749 0.0979590714 6.3881583214 6.3881583214 3.8078811169 3.8078811169 0.4595940411 0.8075270057 0.8032029271 0.1450234652 1.6381405592 3.0859861374 2.0000000000 1.0000000000
 2865.2235596 2.4916419983 2.4916419983 28.922843933 0.0966435075 6.3927531242 6.3927531242 3.8334813118 3.8334813118 0.4598833919 0.8072117567 0.8025631905 0.1390557736 1.5295898914 0.2252073735 2.0000000000 1.0000000000
 2865.3235596 2.4977083206 2.4977083206 28.989614487 0.0935124233 6.3949999809 6.3949999809 3.8248686790 3.8248686790 0.4477500916 0.8075168133 0.8010232449 0.1365971863 1.2923030853 0.1203692108 2.0000000000 1.0000000000
 2865.4235596 2.5108363628 2.5108363628 29.603357315 0.0892150328 6.3949999809 6.3949999809 3.7835149765 3.7835149765 0.4237282872 0.8027638197 0.7986218333 0.1374967992 1.0371817350 0.1483362168 2.0000000000 1.0000000000
 2865.5235596 2.5194270611 2.5194270611 30.735042572 0.0855798125 6.3891658783 6.3891658783 3.7032668591 3.7032668591 0.3809061944 0.7988020182 0.7949482203 0.1448847353 0.8360845447 0.4684684575 2.0000000000 1.0000000000
 2865.6235596 2.5166883469 2.5166883469 30.563579559 0.0876053348 6.3820395470 6.3820395470 3.6505560875 3.6505560875 0.3628783524 0.7956337333 0.7936627865 0.1475346982 0.9334764481 1.9185004234 2.0000000000 1.0000000000
