# LAS format log file from PETREL
# Project units are specified as depth units
#==================================================================
~Version information
VERS.   2.0:
WRAP.   NO:
#==================================================================
~Well
STRT .m      1789.0235596 :
STOP .m      2947.0235596 :
STEP .m     0.10000000 :
NULL .        -999.250000 :
COMP.           : COMPANY
WELL.  EKL-  2   : WELL
FLD.            : FIELD
LOC.            : LOCATION
SRVC.           : SERVICE COMPANY
DATE.  2020-12-04 16:30:02   : Log Export Date {yyyy-MM-dd HH:mm:ss}
PROV.           : PROVINCE
UWI.   11000074112601   : UNIQUE WELL ID
API.            : API NUMBER
#==================================================================
~Curve
DEPT .m                   : DEPTH
DENS .g/cm3               : DENS
DEN .g/cm3                : DEN
GR .gAPI                  : GR
PORNET_NOV14 .m3/m3       : PORNET_NOV14
CALI .in                  : CALI
CAL .in                   : CAL
RESD .ohm.m               : RESD
RES_DEP .ohm.m            : RES_DEP
SHNET ._                  : SHNET
SH ._                     : SH
SH_CAP ._                 : SH_CAP
VCL_2014 ._               : VCL_2014
PERMNET_NOV14 .mD         : PERMNET_NOV14
PERMNET_2015 .mD          : PERMNET_2015
Facies ._                 : Facies
NET_NOV14 .m              : NET_NOV14
~Parameter
#==================================================================
~Ascii
# ...
 2873.1235596 2.4392590523 2.4392590523 26.459463120 0.1230651140 6.2560000420 6.2560000420 4.3224225044 4.3224225044 0.6403995156 0.8238372207 0.8197208643 0.1239133105 6.1080160141 5.7573599815 2.0000000000 1.0000000000
 2873.2235596 2.4471726418 2.4471726418 26.117622375 0.1201816648 6.2560000420 6.2560000420 4.3762345314 4.3762345314 0.6267769337 0.8202574849 0.8167563677 0.1244655475 5.2470612526 3.6908867359 2.0000000000 1.0000000000
 2873.3235596 2.4478290081 2.4478290081 25.503879547 0.1189329177 6.2560000420 6.2560000420 4.4760088921 4.4760088921 0.6211160421 0.8192437887 0.8147100210 0.1210227385 4.8706798553 4.2849230766 2.0000000000 1.0000000000
 2873.4235596 2.4450874329 2.4450874329 25.217306137 0.1196384877 6.2560000420 6.2560000420 4.5908312798 4.5908312798 0.6266359687 0.8193683028 0.8145153522 0.1179714203 5.0563468933 8.0522537231 2.0000000000 1.0000000000
 2873.5235596 2.4424254894 2.4424254894 25.125972748 0.1200743243 6.2560000420 6.2560000420 4.6916656494 4.6916656494 0.6352241635 0.8206607699 0.8149282336 0.1157623827 5.1745514870 5.9799971581 2.0000000000 1.0000000000
 2873.6235596 2.4443945885 2.4443945885 25.324865341 0.1194279641 6.2560000420 6.2560000420 4.7225170135 4.7225170135 0.6406546831 0.8204959631 0.8151786327 0.1161089689 5.0090322495 3.8330984116 2.0000000000 1.0000000000
 2873.7235596 2.4499931335 2.4499931335 25.576192856 0.1171891242 6.2560000420 6.2560000420 4.7605967522 4.7605967522 0.6373671889 0.8194222450 0.8141156435 0.1176444367 4.4255952835 2.2998871803 2.0000000000 1.0000000000
 2873.8235596 2.4566566944 2.4566566944 25.800075531 0.1145923436 6.2558903694 6.2558903694 4.8164534569 4.8164534569 0.6303820014 0.8169102073 0.8124185801 0.1195359677 3.8598389626 2.2532172203 2.0000000000 1.0000000000
 2873.9235596 2.4605951309 2.4605951309 25.770536423 0.1128311679 6.2552342415 6.2552342415 4.9451098442 4.9451098442 0.6242523789 0.8151491880 0.8104659915 0.1205702797 3.4855546951 2.9364008904 2.0000000000 1.0000000000
 2874.0235596 2.4598884583 2.4598884583 25.550550461 0.1127047837 6.2562670708 6.2562670708 4.9276585579 4.9276585579 0.6222098470 0.8141308427 0.8096815944 0.1200476959 3.4597463608 4.5760598183 2.0000000000 1.0000000000
 2874.1235596 2.4552688599 2.4552688599 25.249835968 0.1164098978 6.2581572533 6.2581572533 4.8415508270 4.8415508270 0.6241923571 0.8152203560 0.8099423647 0.1186362803 4.2987146378 2.9353942871 2.0000000000 1.0000000000
 2874.2235596 2.4408278465 2.4408278465 25.131683350 0.1209474653 6.2594704628 6.2594704628 4.8461456299 4.8461456299 0.6390892863 0.8186962605 0.8131208420 0.1170369387 5.4704480171 1.4920552969 2.0000000000 1.0000000000
 2874.3235596 2.4322638512 2.4322638512 25.220808029 0.1255636662 6.2619543076 6.2619543076 4.8335375786 4.8335375786 0.6544467807 0.8231987953 0.8163300753 0.1167971194 6.9922585487 2.0688729286 2.0000000000 1.0000000000
 2874.4235596 2.4281389713 2.4281389713 25.392734528 0.1269216388 6.2652778625 6.2652778625 4.7991433144 4.7991433144 0.6687937975 0.8246888518 0.8193507195 0.1173210740 7.4620323181 3.8300518990 2.0000000000 1.0000000000
 2874.5235596 2.4301080704 2.4301080704 24.807872772 0.1279361695 6.2692160606 6.2692160606 4.6311025620 4.6311025620 0.6657258272 0.8249034286 0.8196136951 0.1157886907 7.9067173004 7.2498254776 2.0000000000 1.0000000000
 2874.6235596 2.4241764545 2.4241764545 24.475122452 0.1306332797 6.2745914459 6.2745914459 4.4899964333 4.4899964333 0.6654362082 0.8244841695 0.8207303286 0.1136758998 9.1445674896 14.524945259 2.0000000000 1.0000000000
 2874.7235596 2.4115025997 2.4115025997 24.357637405 0.1375813782 6.2811865807 6.2811865807 4.3724765778 4.3724765778 0.6678559780 0.8285620809 0.8226463795 0.1111519039 14.107826233 18.429828644 2.0000000000 1.0000000000
 2874.8235596 2.3904974461 2.3904974461 24.511236191 0.1458694488 6.2890634537 6.2890634537 4.3081483841 4.3081483841 0.6871595383 0.8340383172 0.8283841610 0.1114813536 20.712867737 22.991975784 2.0000000000 1.0000000000
 2874.9235596 2.3750746250 2.3750746250 24.448444366 0.1533192396 6.2969403267 6.2969403267 4.2805972099 4.2805972099 0.7055115104 0.8406839371 0.8337115049 0.1113990992 28.367685318 34.782566071 2.0000000000 1.0000000000
 2875.0235596 2.3652284145 2.3652284145 24.169469833 0.1591089964 6.3048171997 6.3048171997 4.2897868156 4.2897868156 0.7229129076 0.8437057734 0.8386288881 0.1109055430 34.284008026 52.979381561 2.0000000000 1.0000000000
 2875.1235596 2.3547575474 2.3547575474 24.160440445 0.1631766558 6.3088407516 6.3088407516 4.4257140160 4.4257140160 0.7366918921 0.8468003273 0.8418676853 0.1099925637 38.406253815 71.202537537 2.0000000000 1.0000000000
 2875.2235596 2.3549199104 2.3549199104 24.319133759 0.1622220576 6.3121838570 6.3121838570 4.6115174294 4.6115174294 0.7465479374 0.8499718308 0.8433274627 0.1102304012 37.318412781 73.950500488 2.0000000000 1.0000000000
 2875.3235596 2.3680479527 2.3680479527 24.674251556 0.1552453637 6.3148097992 6.3148097992 4.8543896675 4.8543896675 0.7517320514 0.8461765647 0.8426696658 0.1118816659 30.218187332 61.123470306 2.0000000000 1.0000000000
 2875.4235596 2.3957879543 2.3957879543 25.353866577 0.1443058252 6.3119559288 6.3119559288 5.1070022583 5.1070022583 0.7386683822 0.8398334384 0.8361916542 0.1161688566 19.762937546 38.936397552 2.0000000000 1.0000000000
 2875.5235596 2.4265265465 2.4265265465 26.336540222 0.1293045729 6.3068170547 6.3068170547 5.3205928802 5.3205928802 0.7153934836 0.8305822015 0.8278584480 0.1223806888 10.040421486 13.322320938 2.0000000000 1.0000000000
 2875.6235596 2.4600033760 2.4600033760 27.728788376 0.1158089116 6.2989401817 6.2989401817 5.4755058289 5.4755058289 0.6791620851 0.8194048405 0.8174600005 0.1311272830 4.5368032455 3.4222147465 2.0000000000 1.0000000000
 2875.7235596 2.4818906784 2.4818906784 29.055587769 0.1037909612 6.2945370674 6.2945370674 5.5413241386 5.5413241386 0.6348897815 0.8096562028 0.8082877994 0.1418559104 2.1215291023 4.5706696510 2.0000000000 1.0000000000
 2875.8235596 2.4963970184 2.4963970184 29.409791946 0.0979723558 6.2924656868 6.2924656868 5.5301284790 5.5301284790 0.5949722528 0.8023948073 0.8009184003 0.1486112028 1.5808026791 6.0092668533 2.0000000000 1.0000000000
 2875.9235596 2.5003354549 2.5003354549 28.010980606 0.0972421318 6.2937784195 6.2937784195 5.4008154869 5.4008154869 0.5649588704 0.8001441360 0.7965260148 0.1476502270 1.4952526093 5.2428479195 2.0000000000 1.0000000000
 2876.0235596 2.4857211113 2.4857211113 27.669685364 0.1010257304 6.2950916290 6.2950916290 5.2218461037 5.2218461037 0.5692594647 0.8014169335 0.7979893684 0.1427972764 1.8365375996 2.6660261154 2.0000000000 1.0000000000
 2876.1235596 2.4604709148 2.4604709148 27.129333496 0.1156790778 6.2986268997 6.2986268997 5.1099958420 5.1099958420 0.5942362547 0.8079590201 0.8030705452 0.1368396580 4.6054759026 4.5709843636 2.0000000000 1.0000000000
 2876.2235596 2.4197733402 2.4197733402 25.658973694 0.1296655387 6.3071603775 6.3071603775 5.1716985703 5.1716985703 0.6500417590 0.8204312921 0.8136136532 0.1301742196 9.8877630234 5.1047291756 2.0000000000 1.0000000000
 2876.3235596 2.3976340294 2.3976340294 24.477317810 0.1429623365 6.3208236694 6.3208236694 5.7001080513 5.7001080513 0.7047771811 0.8317410946 0.8231391907 0.1208205149 17.769334793 4.2203769684 2.0000000000 1.0000000000
 2876.4235596 2.3872063160 2.3872063160 23.570053101 0.1446548849 6.3364124298 6.3364124298 6.4755096436 6.4755096436 0.7520219088 0.8371853828 0.8302136660 0.1119221896 19.315378189 2.6657359600 2.0000000000 1.0000000000
 2876.5235596 2.3957395554 2.3957395554 23.222154617 0.1413979530 6.3534789085 6.3534789085 7.5914072990 7.5914072990 0.7786281109 0.8363031149 0.8310610056 0.1064484492 16.997421265 1.4128642082 2.0000000000 1.0000000000
 2876.6235596 2.4173011780 2.4173011780 23.303710938 0.1324203461 6.3579998016 6.3579998016 8.9022474289 8.9022474289 0.7902911305 0.8320672512 0.8267097473 0.1048881933 10.098956108 0.5666595101 2.0000000000 1.0000000000
 2876.7235596 2.4417514801 2.4417514801 23.552801132 0.1219131351 6.3566102982 6.3566102982 10.335716248 10.335716248 0.7953757644 0.8233562112 0.8202019930 0.1052540019 6.1737194061 4.9862132072 2.0000000000 1.0000000000
