# LAS format log file from PETREL
# Project units are specified as depth units
#==================================================================
~Version information
VERS.   2.0:
WRAP.   NO:
#==================================================================
~Well
STRT .m      1789.0235596 :
STOP .m      2947.0235596 :
STEP .m     0.10000000 :
NULL .        -999.250000 :
COMP.           : COMPANY
WELL.  EKL-  2   : WELL
FLD.            : FIELD
LOC.            : LOCATION
SRVC.           : SERVICE COMPANY
DATE.  2020-12-04 16:30:02   : Log Export Date {yyyy-MM-dd HH:mm:ss}
PROV.           : PROVINCE
UWI.   11000074112601   : UNIQUE WELL ID
API.            : API NUMBER
#==================================================================
~Curve
DEPT .m                   : DEPTH
DENS .g/cm3               : DENS
DEN .g/cm3                : DEN
GR .gAPI                  : GR
PORNET_NOV14 .m3/m3       : PORNET_NOV14
CALI .in                  : CALI
CAL .in                   : CAL
RESD .ohm.m               : RESD
RES_DEP .ohm.m            : RES_DEP
SHNET ._                  : SHNET
SH ._                     : SH
SH_CAP ._                 : SH_CAP
VCL_2014 ._               : VCL_2014
PERMNET_NOV14 .mD         : PERMNET_NOV14
PERMNET_2015 .mD          : PERMNET_2015
Facies ._                 : Facies
NET_NOV14 .m              : NET_NOV14
~Parameter
#==================================================================
~Ascii
# ...
 2839.8235596 2.3661592007 2.3661592007 31.509893417 0.1536519676 6.3720002174 6.3720002174 5.8251614571 5.8251614571 0.7725132704 0.8550424576 0.8493576646 0.1186222136 35.526336670 168.96427917 2.0000000000 1.0000000000
 2839.9235596 2.3740236759 2.3740236759 30.863052368 0.1537501067 6.3720002174 6.3720002174 6.1292490959 6.1292490959 0.7771397829 0.8559729457 0.8503035903 0.1185984239 35.382472992 30.257129669 2.0000000000 1.0000000000
 2840.0235596 2.3841660023 2.3841660023 30.131973267 0.1481920332 6.3720002174 6.3720002174 6.4848508835 6.4848508835 0.7790995836 0.8536026478 0.8490332365 0.1154948026 28.399965286 30.758506775 2.0000000000 1.0000000000
 2840.1235596 2.3966376781 2.3966376781 29.314743042 0.1408570111 6.3720002174 6.3720002174 6.8931384087 6.8931384087 0.7783321142 0.8498039246 0.8454961777 0.1092413813 20.429315567 27.353946686 2.0000000000 1.0000000000
 2840.2235596 2.4065601826 2.4065601826 28.795787811 0.1334341466 6.3739123344 6.3739123344 7.2121977806 7.2121977806 0.7759144902 0.8463575840 0.8402210474 0.1037078947 12.975830078 20.733867645 2.0000000000 1.0000000000
 2840.3235596 2.4102373123 2.4102373123 28.032836914 0.1300808638 6.3752937317 6.3752937317 7.3802437782 7.3802437782 0.7748232484 0.8432888985 0.8362839222 0.0975789353 10.857201576 6.6571216583 2.0000000000 1.0000000000
 2840.4235596 2.4062988758 2.4062988758 26.957637787 0.1290920079 6.3759498596 6.3759498596 7.3651461601 7.3651461601 0.7754304409 0.8443050385 0.8340629935 0.0906882137 10.209780693 3.8783931732 2.0000000000 1.0000000000
 2840.5235596 2.4078195095 2.4078195095 26.348283768 0.1296738088 6.3753933907 6.3753933907 7.0346322060 7.0346322060 0.7720672488 0.8446971178 0.8341040611 0.0838618502 10.541246414 6.9140820503 2.0000000000 1.0000000000
 2840.6235596 2.4050614834 2.4050614834 26.035669327 0.1318441629 6.3742122650 6.3742122650 6.7025856972 6.7025856972 0.7685955167 0.8440563679 0.8347981572 0.0790502578 11.874165535 3.5167541504 2.0000000000 1.0000000000
 2840.7235596 2.3952312469 2.3952312469 26.109724045 0.1338749975 6.3722462654 6.3722462654 6.4070181847 6.4070181847 0.7654495835 0.8467245698 0.8361910582 0.0772449300 13.247773170 6.9275693893 2.0000000000 1.0000000000
 2840.8235596 2.3951482773 2.3951482773 25.642990112 0.1359443069 6.3720002174 6.3720002174 6.3292317390 6.3292317390 0.7650243640 0.8483956456 0.8374516964 0.0752067044 14.805564880 32.301994324 2.0000000000 1.0000000000
 2840.9235596 2.3900041580 2.3900041580 24.978908539 0.1401913464 6.3717694283 6.3717694283 6.2129826546 6.2129826546 0.7664502263 0.8479636312 0.8392060995 0.0717075616 18.811641693 327.60290527 2.0000000000 1.0000000000
 2841.0235596 2.3729374409 2.3729374409 24.093410492 0.1450296193 6.3711128235 6.3711128235 5.9681420326 5.9681420326 0.7705748677 0.8523082137 0.8419070244 0.0655725226 24.628822327 307.99337769 2.0000000000 1.0000000000
 2841.1235596 2.3656525612 2.3656525612 23.661676407 0.1503204405 6.3693695068 6.3693695068 5.6727619171 5.6727619171 0.7734692693 0.8561931849 0.8451840878 0.0604045913 31.932331085 18.810106277 2.0000000000 1.0000000000
 2841.2235596 2.3631970882 2.3631970882 23.452737808 0.1504873037 6.3674015999 6.3674015999 5.4135117531 5.4135117531 0.7734703422 0.8577103019 0.8475693464 0.0567038581 32.072021484 26.153047562 2.0000000000 1.0000000000
 2841.3235596 2.3671293259 2.3671293259 23.537279129 0.1473164409 6.3654351234 6.3654351234 5.2608132362 5.2608132362 0.7674452662 0.8570194840 0.8476434946 0.0558958575 27.852720261 21.266540527 2.0000000000 1.0000000000
 2841.4235596 2.3848650455 2.3848650455 24.801958084 0.1406380236 6.3624448776 6.3624448776 5.0087785721 5.0087785721 0.7491715550 0.8542711139 0.8442876935 0.0618607663 19.052640915 3.5283560753 2.0000000000 1.0000000000
 2841.5235596 2.4038469791 2.4038469791 26.851100922 0.1354709417 6.3589954376 6.3589954376 4.6740641594 4.6740641594 0.7235175967 0.8477083445 0.8402107358 0.0733771026 14.646280289 7.1589293480 2.0000000000 1.0000000000
 2841.6235596 2.4150059223 2.4150059223 30.210607529 0.1332223564 6.3550567627 6.3550567627 4.1804432869 4.1804432869 0.6864869595 0.8434934616 0.8368761539 0.0954773650 12.700229645 8.6013784409 2.0000000000 1.0000000000
 2841.7235596 2.4155986309 2.4155986309 32.541820526 0.1346215010 6.3530397415 6.3530397415 3.9298489094 3.9298489094 0.6612207294 0.8410868645 0.8366290331 0.1179812327 13.679016113 6.2252016068 2.0000000000 1.0000000000
 2841.8235596 2.4165542126 2.4165542126 34.554458618 0.1323902905 6.3520002365 6.3520002365 3.8207278252 3.8207278252 0.6414372325 0.8420821428 0.8369675279 0.1397296637 12.176225662 24.661771774 2.0000000000 1.0000000000
 2841.9235596 2.4336206913 2.4336206913 36.789535522 0.1267952770 6.3520002365 6.3520002365 3.9106557369 3.9106557369 0.6260967255 0.8384451270 0.8352279067 0.1580433846 9.4838066101 29.116598129 2.0000000000 1.0000000000
 2842.0235596 2.4591958523 2.4591958523 39.483978271 0.1164940298 6.3520002365 6.3520002365 4.0655617714 4.0655617714 0.5923584700 0.8321558833 0.8298682570 0.1792082787 5.2985377312 8.8677520752 2.0000000000 1.0000000000
 2842.1235596 2.4905724525 2.4905724525 42.502319336 0.1012974456 6.3520002365 6.3520002365 4.2717032433 4.2717032433 0.5420288444 0.8223354220 0.8221420646 0.2026374191 2.7662463188 3.4359419346 2.0000000000 1.0000000000
 2842.2235596 2.5319263935 2.5319263935 46.115856171 0.0851724595 6.3520002365 6.3520002365 4.5907182693 4.5907182693 0.4487095475 0.8092636466 0.8107094169 0.2311044931 1.1503643990 1.1516444683 2.0000000000 1.0000000000
 2842.3235596 2.5678572655 2.5678572655 49.204208374 0.0687010810 6.3520002365 6.3520002365 5.0240321159 5.0240321159 0.3261773586 0.7949179411 0.7986267805 0.2589267492 0.8032684326 0.5604860783 2.0000000000 1.0000000000
 2842.4235596 2.5972940922 2.5972940922 51.670467377 0.0595352985 6.3522210121 6.3522210121 5.4608211517 5.4608211517 0.1929604709 0.7824417949 0.7869009972 0.2845263183 0.5809185505 0.3292136788 2.0000000000 1.0000000000
 2842.5235596 2.5999197960 2.5999197960 51.594322205 0.0554935448 6.3541898727 6.3541898727 5.4056825638 5.4056825638 0.1078482717 0.7770822048 0.7809575796 0.2954444289 0.4058500528 0.1990541965 2.0000000000 1.0000000000
 2842.6235596 2.5874984264 2.5874984264 49.344108582 0.0598303378 6.3553857803 6.3553857803 5.1546301842 5.1546301842 0.1042213291 0.7769799829 0.7805009484 0.2895846963 0.2780199349 0.1210753918 2.0000000000 1.0000000000
 2842.7235596 2.5648880005 2.5648880005 45.674594879 0.0672750026 6.3559999466 6.3559999466 4.7571039200 4.7571039200 0.1590505689 0.7857704759 0.7840734720 0.2715321481 0.3740752637 1.2837865353 2.0000000000 1.0000000000
 2842.8235596 2.5471649170 2.5471649170 43.500560760 0.0747222528 6.3559999466 6.3559999466 4.2168784142 4.2168784142 0.2364023477 0.7932585478 0.7905512452 0.2465024292 0.5339657664 2.0711021423 2.0000000000 1.0000000000
 2842.9235596 2.5358140469 2.5358140469 41.724433899 0.0793816745 6.3574161530 6.3574161530 3.7839167118 3.7839167118 0.2788892984 0.7995563745 0.7954319715 0.2267718762 0.6864466071 0.6015934944 2.0000000000 1.0000000000
 2843.0235596 2.5297915936 2.5297915936 40.294666290 0.0836896524 6.3599686623 6.3599686623 3.4461562634 3.4461562634 0.2916418910 0.8016588688 0.7989413142 0.2116447836 0.8706176281 0.2112094313 2.0000000000 1.0000000000
 2843.1235596 2.5166635513 2.5166635513 39.265415192 0.0886390060 6.3579993248 6.3579993248 3.3299715519 3.3299715519 0.3073886931 0.8050988317 0.8020078540 0.2012772411 1.1548613310 0.3208284974 2.0000000000 1.0000000000
 2843.2235596 2.4999957085 2.4999957085 38.513545990 0.0966987014 6.3579683304 6.3579683304 3.2587366104 3.2587366104 0.3407320678 0.8097460270 0.8064260483 0.1929933429 1.7918652296 0.7825021744 2.0000000000 1.0000000000
 2843.3235596 2.4796795845 2.4796795845 38.047588348 0.1036760733 6.3599343300 6.3599343300 3.2338330746 3.2338330746 0.3922128975 0.8167254925 0.8122374415 0.1868571341 2.6217961311 20.258195877 2.0000000000 1.0000000000
 2843.4235596 2.4720211029 2.4720211029 37.868309021 0.1091065854 6.3638067245 6.3638067245 3.3998618126 3.3998618126 0.4432560205 0.8215126991 0.8168539405 0.1842186302 3.3954350948 40.518341064 2.0000000000 1.0000000000
