# LAS format log file from PETREL
# Project units are specified as depth units
#==================================================================
~Version information
VERS.   2.0:
WRAP.   NO:
#==================================================================
~Well
STRT .m      1789.0235596 :
STOP .m      2947.0235596 :
STEP .m     0.10000000 :
NULL .        -999.250000 :
COMP.           : COMPANY
WELL.  EKL-  2   : WELL
FLD.            : FIELD
LOC.            : LOCATION
SRVC.           : SERVICE COMPANY
DATE.  2020-12-04 16:30:02   : Log Export Date {yyyy-MM-dd HH:mm:ss}
PROV.           : PROVINCE
UWI.   11000074112601   : UNIQUE WELL ID
API.            : API NUMBER
#==================================================================
~Curve
DEPT .m                   : DEPTH
DENS .g/cm3               : DENS
DEN .g/cm3                : DEN
GR .gAPI                  : GR
PORNET_NOV14 .m3/m3       : PORNET_NOV14
CALI .in                  : CALI
CAL .in                   : CAL
RESD .ohm.m               : RESD
RES_DEP .ohm.m            : RES_DEP
SHNET ._                  : SHNET
SH ._                     : SH
SH_CAP ._                 : SH_CAP
VCL_2014 ._               : VCL_2014
PERMNET_NOV14 .mD         : PERMNET_NOV14
PERMNET_2015 .mD          : PERMNET_2015
Facies ._                 : Facies
NET_NOV14 .m              : NET_NOV14
~Parameter
#==================================================================
~Ascii
# ...
 2850.9235596 2.4983048439 2.4983048439 33.493179321 0.0931714550 6.3145427704 6.3145427704 4.0297851563 4.0297851563 0.4281718135 0.8106951118 0.8061452508 0.1507731378 1.3779070377 1.3367997408 2.0000000000 1.0000000000
 2851.0235596 2.5075759888 2.5075759888 33.911075592 0.0904447436 6.3175201416 6.3175201416 4.3684029579 4.3684029579 0.4411634505 0.8097525835 0.8044932485 0.1553824991 1.1825500727 1.0045716763 2.0000000000 1.0000000000
 2851.1235596 2.5150780678 2.5150780678 34.147979736 0.0896400735 6.3203206062 6.3203206062 4.6554112434 4.6554112434 0.4533812404 0.8052939773 0.8027969599 0.1589181125 1.1309283972 50.359268188 2.0000000000 1.0000000000
 2851.2235596 2.5072138309 2.5072138309 34.066059113 0.0901693180 6.3216309547 6.3216309547 4.8657822609 4.8657822609 0.4681961834 0.8062932491 0.8022404313 0.1600098759 1.1665852070 57.611728668 2.0000000000 1.0000000000
 2851.3235596 2.5040566921 2.5040566921 34.102424622 0.0923533514 6.3229432106 6.3229432106 4.8283147812 4.8283147812 0.4851447344 0.8085154891 0.8032220602 0.1604468077 1.3092905283 5.1203808784 2.0000000000 1.0000000000
 2851.4235596 2.5060729980 2.5060729980 34.143646240 0.0890398696 6.3242559433 6.3242559433 4.6310086250 4.6310086250 0.4891657829 0.8089400530 0.8039192557 0.1605656594 1.1064504385 1.4315669537 2.0000000000 1.0000000000
 2851.5235596 2.5218269825 2.5218269825 34.013679504 0.0860024989 6.3255691528 6.3255691528 4.1748037338 4.1748037338 0.4363933206 0.8050523400 0.8009561300 0.1604306400 0.9275370836 1.8459230661 2.0000000000 1.0000000000
 2851.6235596 2.5212686062 2.5212686062 33.452102661 0.0843749940 6.3268818855 6.3268818855 3.8288149834 3.8288149834 0.3912717700 0.8009728789 0.7991458178 0.1577827632 0.8479822874 0.4566501677 2.0000000000 1.0000000000
 2851.7235596 2.5102062225 2.5102062225 32.549446106 0.0910667479 6.3280000687 6.3280000687 3.5470235348 3.5470235348 0.3612351716 0.8040074110 0.7989628315 0.1529463679 1.2828365564 1.0845669508 2.0000000000 1.0000000000
 2851.8235596 2.4846062660 2.4846062660 30.899234772 0.0995271355 6.3280000687 6.3280000687 3.3245003223 3.3245003223 0.3964052498 0.8109039068 0.8048938513 0.1425920874 2.0347566605 1.4705722332 2.0000000000 1.0000000000
 2851.9235596 2.4655828476 2.4655828476 29.584362030 0.1087223068 6.3296375275 6.3296375275 3.1627969742 3.1627969742 0.4375507236 0.8192752600 0.8112388849 0.1315988153 3.2507874966 0.6826915741 2.0000000000 1.0000000000
 2852.0235596 2.4520647526 2.4520647526 28.555557251 0.1128813773 6.3322591782 6.3322591782 3.0433797836 3.0433797836 0.4787428379 0.8243163228 0.8173840642 0.1208125204 3.9942080975 1.3094023466 2.0000000000 1.0000000000
 2852.1235596 2.4527213573 2.4527213573 28.298244476 0.1146327108 6.3348851204 6.3348851204 2.9764258862 2.9764258862 0.4876511693 0.8261237741 0.8194410205 0.1154100671 4.3612132072 1.8920812607 2.0000000000 1.0000000000
 2852.2235596 2.4560217857 2.4560217857 28.771827698 0.1133326441 6.3359999657 6.3359999657 3.0401647091 3.0401647091 0.4899320602 0.8257350922 0.8197677135 0.1152471825 4.0617728233 1.5121750832 2.0000000000 1.0000000000
 2852.3235596 2.4624676704 2.4624676704 29.835906982 0.1070619076 6.3356585503 6.3356585503 3.2074971199 3.2074971199 0.4858422279 0.8239448071 0.8185715675 0.1194396093 3.0403745174 1.3551598787 2.0000000000 1.0000000000
 2852.4235596 2.4906933308 2.4906933308 31.834018707 0.0984279215 6.3290948868 6.3290948868 3.5055072308 3.5055072308 0.4547533393 0.8176614046 0.8128842711 0.1325566620 1.8903086185 1.2789319754 2.0000000000 1.0000000000
 2852.5235596 2.5150847435 2.5150847435 33.479537964 0.0872304440 6.3176865578 6.3176865578 3.8150429726 3.8150429726 0.4121603370 0.8079876900 0.8058246374 0.1461259872 1.0641286373 1.2359431982 2.0000000000 1.0000000000
 2852.6235596 2.5360000134 2.5360000134 34.807407379 0.0808328837 6.3019895554 6.3019895554 4.1347012520 4.1347012520 0.3594210446 0.8003867865 0.7975541949 0.1600774080 0.7069324255 0.8079940677 2.0000000000 1.0000000000
 2852.7235596 2.5360000134 2.5360000134 34.959697723 0.0776126459 6.2980508804 6.2980508804 4.3959527016 4.3959527016 0.3491517603 0.7966747284 0.7941545844 0.1661167890 0.5845137835 0.3130871654 2.0000000000 1.0000000000
 2852.8235596 2.5325396061 2.5325396061 35.260154724 0.0797275081 6.2947416306 6.2947416306 4.6679000854 4.6679000854 0.3609744608 0.7966337204 0.7931377292 0.1706054807 0.6556823254 0.2038809359 2.0000000000 1.0000000000
 2852.9235596 2.5253190994 2.5253190994 35.721607208 0.0821681768 6.2921156883 6.2921156883 4.9514694214 4.9514694214 0.3968023956 0.7992066145 0.7947099209 0.1734092087 0.7503970861 0.5299411416 2.0000000000 1.0000000000
 2853.0235596 2.5218629837 2.5218629837 35.514881134 0.0842082351 6.2919998169 6.2919998169 5.2576251030 5.2576251030 0.4381070435 0.8011256456 0.7966343164 0.1743555665 0.8334066868 0.9996351004 2.0000000000 1.0000000000
 2853.1235596 2.5228335857 2.5228335857 34.803646088 0.0827611163 6.2937002182 6.2937002182 5.2098460197 5.2098460197 0.4538533986 0.8022727370 0.7972428799 0.1718941033 0.7706991434 0.9946071506 2.0000000000 1.0000000000
 2853.2235596 2.5293872356 2.5293872356 33.470645905 0.0788648948 6.2976322174 6.2976322174 4.6960434914 4.6960434914 0.4357140362 0.8000526428 0.7961025238 0.1650715470 0.8740922213 1.1138217449 2.0000000000 1.0000000000
 2853.3235596 2.5401155949 2.5401155949 31.548408508 0.0739056244 6.3069257736 6.3069257736 4.2213621140 4.2213621140 0.3664182723 0.7969053984 0.7921741009 0.1517201364 1.0607970953 2.4426958561 2.0000000000 1.0000000000
 2853.4235596 2.5424740314 2.5424740314 29.824882507 0.0735705793 6.3165202141 6.3165202141 3.8543100357 3.8543100357 0.3118999004 0.7927456498 0.7894599438 0.1378929913 1.0450981855 14.998993874 2.0000000000 1.0000000000
 2853.5235596 2.5306587219 2.5306587219 28.519281387 0.0756117627 6.3257102966 6.3257102966 3.6541049480 3.6541049480 0.2896804810 0.7961712480 0.7891647220 0.1243842691 1.1536816359 49.308670044 2.0000000000 1.0000000000
 2853.6235596 2.5239217281 2.5239217281 27.975437164 0.0795648694 6.3315143585 6.3315143585 3.5611097813 3.5611097813 0.3059765697 0.7996668220 0.7916460037 0.1165909544 1.3398174047 95.177955627 2.0000000000 1.0000000000
 2853.7235596 2.5138211250 2.5138211250 27.723260880 0.0857483000 6.3350000381 6.3350000381 3.4809885025 3.4809885025 0.3327637315 0.8017706275 0.7951439619 0.1116501838 1.1501979828 31.082897186 2.0000000000 1.0000000000
 2853.8235596 2.4954416752 2.4954416752 27.801372528 0.0906935558 6.3350000381 6.3350000381 3.3917167187 3.3917167187 0.3678466380 0.8075809479 0.7997541428 0.1104989648 1.1918824911 0.2877679765 2.0000000000 1.0000000000
 2853.9235596 2.4930653572 2.4930653572 27.434629440 0.0944940299 6.3334021568 6.3334021568 3.3377151489 3.3377151489 0.3899621069 0.8118105531 0.8028982282 0.1089274064 1.4474245310 0.2808589339 2.0000000000 1.0000000000
 2854.0235596 2.4973893166 2.4973893166 26.907932281 0.0884979516 6.3327531815 6.3327531815 3.3336217403 3.3336217403 0.3980107903 0.8113123178 0.8035842776 0.1063864231 1.6527529955 0.1520284563 2.0000000000 1.0000000000
 2854.1235596 2.5092048645 2.5092048645 26.238393784 0.0829806700 6.3353786469 6.3353786469 3.4333961010 3.4333961010 0.3785172999 0.8078410029 0.7989995480 0.1016762853 1.6061927080 1.4903216362 2.0000000000 1.0000000000
 2854.2235596 2.5190157890 2.5190157890 26.366641998 0.0780484080 6.3334941864 6.3334941864 3.6093409061 3.6093409061 0.3584263921 0.8038575053 0.7950451970 0.0999613479 1.2776499987 4.4730730057 2.0000000000 1.0000000000
 2854.3235596 2.5220618248 2.5220618248 26.927366257 0.0822166055 6.3305273056 6.3305273056 3.7534384727 3.7534384727 0.3483951092 0.8005003929 0.7930262685 0.1009851992 1.0104845762 1.9872143269 2.0000000000 1.0000000000
 2854.4235596 2.5056514740 2.5056514740 28.074769974 0.0879467130 6.3285579681 6.3285579681 3.7219307423 3.7219307423 0.3708073199 0.8040599227 0.7965181470 0.1077430174 1.0509725809 0.9390209913 2.0000000000 1.0000000000
 2854.5235596 2.4934864044 2.4934864044 29.009540558 0.0951173529 6.3261218071 6.3261218071 3.6223671436 3.6223671436 0.4041083753 0.8093982935 0.8013145924 0.1157063842 1.5054786205 2.2586441040 2.0000000000 1.0000000000
