# LAS format log file from PETREL
# Project units are specified as depth units
#==================================================================
~Version information
VERS.   2.0:
WRAP.   NO:
#==================================================================
~Well
STRT .m      1789.0235596 :
STOP .m      2947.0235596 :
STEP .m     0.10000000 :
NULL .        -999.250000 :
COMP.           : COMPANY
WELL.  EKL-  2   : WELL
FLD.            : FIELD
LOC.            : LOCATION
SRVC.           : SERVICE COMPANY
DATE.  2020-12-04 16:30:02   : Log Export Date {yyyy-MM-dd HH:mm:ss}
PROV.           : PROVINCE
UWI.   11000074112601   : UNIQUE WELL ID
API.            : API NUMBER
#==================================================================
~Curve
DEPT .m                   : DEPTH
DENS .g/cm3               : DENS
DEN .g/cm3                : DEN
GR .gAPI                  : GR
PORNET_NOV14 .m3/m3       : PORNET_NOV14
CALI .in                  : CALI
CAL .in                   : CAL
RESD .ohm.m               : RESD
RES_DEP .ohm.m            : RES_DEP
SHNET ._                  : SHNET
SH ._                     : SH
SH_CAP ._                 : SH_CAP
VCL_2014 ._               : VCL_2014
PERMNET_NOV14 .mD         : PERMNET_NOV14
PERMNET_2015 .mD          : PERMNET_2015
Facies ._                 : Facies
NET_NOV14 .m              : NET_NOV14
~Parameter
#==================================================================
~Ascii
# ...
 2928.6235596 2.6804788113 2.6804788113 125.06148529  -999.250000 6.6491174698 6.6491174698 1.9929730892 1.9929730892  -999.250000  -999.250000  -999.250000  -999.250000  -999.250000  -999.250000 3.0000000000  -999.250000
 2928.7235596 2.6551730633 2.6551730633 123.24597931  -999.250000 6.7919363976 6.7919363976 2.0875914097 2.0875914097  -999.250000  -999.250000  -999.250000  -999.250000  -999.250000  -999.250000 3.0000000000  -999.250000
 2928.8235596 2.6290833950 2.6290833950 119.94909668  -999.250000 6.9830603600 6.9830603600 2.2258789539 2.2258789539  -999.250000  -999.250000  -999.250000  -999.250000  -999.250000  -999.250000 3.0000000000  -999.250000
 2928.9235596 2.6553397179 2.6553397179 111.78860474  -999.250000 7.0020961761 7.0020961761 2.5028843880 2.5028843880  -999.250000  -999.250000  -999.250000  -999.250000  -999.250000  -999.250000 3.0000000000  -999.250000
 2929.0235596 2.6900985241 2.6900985241 100.49387360  -999.250000 6.9877524376 6.9877524376 3.0529110432 3.0529110432  -999.250000  -999.250000  -999.250000  -999.250000  -999.250000  -999.250000 3.0000000000  -999.250000
 2929.1235596 2.7340781689 2.7340781689 85.800132751  -999.250000 6.9372086525 6.9372086525 3.8990240097 3.8990240097  -999.250000  -999.250000  -999.250000  -999.250000  -999.250000  -999.250000 3.0000000000  -999.250000
 2929.2235596 2.7454006672 2.7454006672 80.799163818  -999.250000 6.9042906761 6.9042906761 4.8228087425 4.8228087425  -999.250000  -999.250000  -999.250000  -999.250000  -999.250000  -999.250000 3.0000000000  -999.250000
 2929.3235596 2.7476096153 2.7476096153 79.088455200  -999.250000 6.8851523399 6.8851523399 5.7047300339 5.7047300339  -999.250000  -999.250000  -999.250000  -999.250000  -999.250000  -999.250000 3.0000000000  -999.250000
 2929.4235596 2.7397327423 2.7397327423 81.145645142  -999.250000 6.8831830025 6.8831830025 6.5265560150 6.5265560150  -999.250000  -999.250000  -999.250000  -999.250000  -999.250000  -999.250000 3.0000000000  -999.250000
 2929.5235596 2.7157812119 2.7157812119 82.712265015  -999.250000 6.7561898232 6.7561898232 6.9887886047 6.9887886047  -999.250000  -999.250000  -999.250000  -999.250000  -999.250000  -999.250000 3.0000000000  -999.250000
 2929.6235596 2.6984894276 2.6984894276 84.910850525  -999.250000 6.6226687431 6.6226687431 6.9332752228 6.9332752228  -999.250000  -999.250000  -999.250000  -999.250000  -999.250000  -999.250000 3.0000000000  -999.250000
 2929.7235596 2.6945509911 2.6945509911 88.206031799  -999.250000 6.4992632866 6.4992632866 6.1048855782 6.1048855782  -999.250000  -999.250000  -999.250000  -999.250000  -999.250000  -999.250000 3.0000000000  -999.250000
 2929.8235596 2.6877896786 2.6877896786 91.083412170  -999.250000 6.5090999603 6.5090999603 5.5034584999 5.5034584999  -999.250000  -999.250000  -999.250000  -999.250000  -999.250000  -999.250000 3.0000000000  -999.250000
 2929.9235596 2.6843237877 2.6843237877 92.945236206  -999.250000 6.5286765099 6.5286765099 5.0255198479 5.0255198479  -999.250000  -999.250000  -999.250000  -999.250000  -999.250000  -999.250000 3.0000000000  -999.250000
 2930.0235596 2.6882560253 2.6882560253 92.939994812  -999.250000 6.5247440338 6.5247440338 4.7181558609 4.7181558609  -999.250000  -999.250000  -999.250000  -999.250000  -999.250000  -999.250000 3.0000000000  -999.250000
 2930.1235596 2.7097561359 2.7097561359 91.099143982  -999.250000 6.4691824913 6.4691824913 4.5296082497 4.5296082497  -999.250000  -999.250000  -999.250000  -999.250000  -999.250000  -999.250000 3.0000000000  -999.250000
 2930.2235596 2.7295088768 2.7295088768 89.580841064  -999.250000 6.4055328369 6.4055328369 4.3993444443 4.3993444443  -999.250000  -999.250000  -999.250000  -999.250000  -999.250000  -999.250000 3.0000000000  -999.250000
 2930.3235596 2.7347602844 2.7347602844 89.924797058  -999.250000 6.3517074585 6.3517074585 4.3448619843 4.3448619843  -999.250000  -999.250000  -999.250000  -999.250000  -999.250000  -999.250000 3.0000000000  -999.250000
 2930.4235596 2.7385072708 2.7385072708 91.279159546  -999.250000 6.3154320717 6.3154320717 4.3159537315 4.3159537315  -999.250000  -999.250000  -999.250000  -999.250000  -999.250000  -999.250000 3.0000000000  -999.250000
 2930.5235596 2.7446248531 2.7446248531 92.857994080  -999.250000 6.2882175446 6.2882175446 4.2806153297 4.2806153297  -999.250000  -999.250000  -999.250000  -999.250000  -999.250000  -999.250000 3.0000000000  -999.250000
 2930.6235596 2.7596979141 2.7596979141 94.159538269  -999.250000 6.2724890709 6.2724890709 4.2000060081 4.2000060081  -999.250000  -999.250000  -999.250000  -999.250000  -999.250000  -999.250000 3.0000000000  -999.250000
 2930.7235596 2.7639999390 2.7639999390 95.364067078  -999.250000 6.2830104828 6.2830104828 4.0794334412 4.0794334412  -999.250000  -999.250000  -999.250000  -999.250000  -999.250000  -999.250000 3.0000000000  -999.250000
 2930.8235596 2.7639999390 2.7639999390 96.075485229  -999.250000 6.3081564903 6.3081564903 3.9426491261 3.9426491261  -999.250000  -999.250000  -999.250000  -999.250000  -999.250000  -999.250000 3.0000000000  -999.250000
 2930.9235596 2.7639999390 2.7639999390 94.864410400  -999.250000 6.3508229256 6.3508229256 3.8048028946 3.8048028946  -999.250000  -999.250000  -999.250000  -999.250000  -999.250000  -999.250000 3.0000000000  -999.250000
 2931.0235596 2.7600553036 2.7600553036 94.824035645  -999.250000 6.3663148880 6.3663148880 3.6779141426 3.6779141426  -999.250000  -999.250000  -999.250000  -999.250000  -999.250000  -999.250000 3.0000000000  -999.250000
 2931.1235596 2.7561347485 2.7561347485 95.587944031  -999.250000 6.3657307625 6.3657307625 3.5592484474 3.5592484474  -999.250000  -999.250000  -999.250000  -999.250000  -999.250000  -999.250000 3.0000000000  -999.250000
 2931.2235596 2.7639989853 2.7639989853 97.666748047  -999.250000 6.3500018120 6.3500018120 3.4570124149 3.4570124149  -999.250000  -999.250000  -999.250000  -999.250000  -999.250000  -999.250000 3.0000000000  -999.250000
 2931.3235596 2.7629406452 2.7629406452 100.47949982  -999.250000 6.3289804459 6.3289804459 3.3493978977 3.3493978977  -999.250000  -999.250000  -999.250000  -999.250000  -999.250000  -999.250000 3.0000000000  -999.250000
 2931.4235596 2.7556285858 2.7556285858 103.63454437  -999.250000 6.3051300049 6.3051300049 3.2392127514 3.2392127514  -999.250000  -999.250000  -999.250000  -999.250000  -999.250000  -999.250000 3.0000000000  -999.250000
 2931.5235596 2.7411873341 2.7411873341 105.73571777  -999.250000 6.2854375839 6.2854375839 3.1361563206 3.1361563206  -999.250000  -999.250000  -999.250000  -999.250000  -999.250000  -999.250000 3.0000000000  -999.250000
 2931.6235596 2.7319986820 2.7319986820 107.40170288  -999.250000 6.2826271057 6.2826271057 3.0248463154 3.0248463154  -999.250000  -999.250000  -999.250000  -999.250000  -999.250000  -999.250000 3.0000000000  -999.250000
 2931.7235596 2.7281365395 2.7281365395 108.72915649  -999.250000 6.2940521240 6.2940521240 2.9083275795 2.9083275795  -999.250000  -999.250000  -999.250000  -999.250000  -999.250000  -999.250000 3.0000000000  -999.250000
 2931.8235596 2.7517673969 2.7517673969 109.81354523  -999.250000 6.3367185593 6.3367185593 2.8111789227 2.8111789227  -999.250000  -999.250000  -999.250000  -999.250000  -999.250000  -999.250000 3.0000000000  -999.250000
 2931.9235596 2.7674698830 2.7674698830 110.48372650  -999.250000 6.3762550354 6.3762550354 2.7178940773 2.7178940773  -999.250000  -999.250000  -999.250000  -999.250000  -999.250000  -999.250000 3.0000000000  -999.250000
 2932.0235596 2.7759895325 2.7759895325 110.77864075  -999.250000 6.4129552841 6.4129552841 2.6281096935 2.6281096935  -999.250000  -999.250000  -999.250000  -999.250000  -999.250000  -999.250000 3.0000000000  -999.250000
 2932.1235596 2.7458419800 2.7458419800 110.68524933  -999.250000 6.4280791283 6.4280791283 2.5709619522 2.5709619522  -999.250000  -999.250000  -999.250000  -999.250000  -999.250000  -999.250000 3.0000000000  -999.250000
 2932.2235596 2.7240717411 2.7240717411 110.17920685  -999.250000 6.4397439957 6.4397439957 2.5235269070 2.5235269070  -999.250000  -999.250000  -999.250000  -999.250000  -999.250000  -999.250000 3.0000000000  -999.250000
