# LAS format log file from PETREL
# Project units are specified as depth units
#==================================================================
~Version information
VERS.   2.0:
WRAP.   NO:
#==================================================================
~Well
STRT .m      1789.0235596 :
STOP .m      2947.0235596 :
STEP .m     0.10000000 :
NULL .        -999.250000 :
COMP.           : COMPANY
WELL.  EKL-  2   : WELL
FLD.            : FIELD
LOC.            : LOCATION
SRVC.           : SERVICE COMPANY
DATE.  2020-12-04 16:30:02   : Log Export Date {yyyy-MM-dd HH:mm:ss}
PROV.           : PROVINCE
UWI.   11000074112601   : UNIQUE WELL ID
API.            : API NUMBER
#==================================================================
~Curve
DEPT .m                   : DEPTH
DENS .g/cm3               : DENS
DEN .g/cm3                : DEN
GR .gAPI                  : GR
PORNET_NOV14 .m3/m3       : PORNET_NOV14
CALI .in                  : CALI
CAL .in                   : CAL
RESD .ohm.m               : RESD
RES_DEP .ohm.m            : RES_DEP
SHNET ._                  : SHNET
SH ._                     : SH
SH_CAP ._                 : SH_CAP
VCL_2014 ._               : VCL_2014
PERMNET_NOV14 .mD         : PERMNET_NOV14
PERMNET_2015 .mD          : PERMNET_2015
Facies ._                 : Facies
NET_NOV14 .m              : NET_NOV14
~Parameter
#==================================================================
~Ascii
# ...
 2795.4235596 2.6962077618 2.6962077618 99.308334351  -999.250000 6.6712551117 6.6712551117 6.6345653534 6.6345653534  -999.250000 0.0000000000 0.0000000000 0.7145992517  -999.250000  -999.250000 3.0000000000 0.0000000000
 2795.5235596 2.6972875595 2.6972875595 97.804191589  -999.250000 6.6686620712 6.6686620712 6.6421155930 6.6421155930  -999.250000 0.0000000000 0.0000000000 0.7049458027  -999.250000  -999.250000 3.0000000000 0.0000000000
 2795.6235596 2.7097594738 2.7097594738 97.479263306  -999.250000 6.6699748039 6.6699748039 6.6106076241 6.6106076241  -999.250000 0.0000000000 0.0000000000 0.6914637685  -999.250000  -999.250000 3.0000000000 0.0000000000
 2795.7235596 2.7138564587 2.7138564587 100.91476440  -999.250000 6.6828546524 6.6828546524 6.5328736305 6.5328736305  -999.250000 0.0000000000 0.0000000000 0.7071769238  -999.250000  -999.250000 3.0000000000 0.0000000000
 2795.8235596 2.7130146027 2.7130146027 103.86518860  -999.250000 6.7022409439 6.7022409439 6.4783563614 6.4783563614  -999.250000 0.0000000000 0.0000000000 0.7282962203  -999.250000  -999.250000 3.0000000000 0.0000000000
 2795.9235596 2.7064504623 2.7064504623 106.14556122  -999.250000 6.7291536331 6.7291536331 6.4527564049 6.4527564049  -999.250000 0.0000000000 0.0000000000 0.7552071810  -999.250000  -999.250000 3.0000000000 0.0000000000
 2796.0235596 2.6931610107 2.6931610107 105.24798584  -999.250000 6.7505640984 6.7505640984 6.4173741341 6.4173741341  -999.250000 0.0000000000 0.0000000000 0.7610408664  -999.250000  -999.250000 3.0000000000 0.0000000000
 2796.1235596 2.6729495525 2.6729495525 102.08489227  -999.250000 6.7672843933 6.7672843933 6.2969183922 6.2969183922  -999.250000 0.0000000000 0.0000000000 0.7489880919  -999.250000  -999.250000 3.0000000000 0.0000000000
 2796.2235596 2.6434111595 2.6434111595 95.973709106  -999.250000 6.7777872086 6.7777872086 6.0540466309 6.0540466309  -999.250000 0.0000000000 0.0000000000 0.7132309675  -999.250000  -999.250000 3.0000000000 0.0000000000
 2796.3235596 2.6162331104 2.6162331104 85.781532288  -999.250000 6.7824778557 6.7824778557 5.3344416618 5.3344416618  -999.250000 0.0000000000 0.0000000000 0.6375403404  -999.250000  -999.250000 3.0000000000 0.0000000000
 2796.4235596 2.5917019844 2.5917019844 74.834060669  -999.250000 6.7849998474 6.7849998474 4.7011666298 4.7011666298  -999.250000 0.0000000000 0.1017627195 0.5482355952  -999.250000  -999.250000 3.0000000000 0.0000000000
 2796.5235596 2.5713534355 2.5713534355 63.488662720  -999.250000 6.7849998474 6.7849998474 4.3335766792 4.3335766792  -999.250000 0.0000000000 0.3855068386 0.4439080656  -999.250000  -999.250000 3.0000000000 0.3566901088
 2796.6235596 2.5521011353 2.5521011353 52.781963348 0.0741794631 6.7828068733 6.7828068733 4.1523876190 4.1523876190  -999.250000 0.0000000000 0.6389277577 0.3405960500 0.6725277901 4.9777793884 2.0000000000 1.0000000000
 2796.7235596 2.5293815136 2.5293815136 45.277343750 0.0834608749 6.7799768448 6.7799768448 4.0085916519 4.0085916519  -999.250000 0.0000000000 0.8112571239 0.2540531158 1.1731187105 5.8539247513 2.0000000000 1.0000000000
 2796.8235596 2.4985303879 2.4985303879 44.563167572 0.0939128175 6.7766947746 6.7766947746 3.8661503792 3.8661503792  -999.250000 0.0000000000 0.8177831769 0.2040857822 2.1742079258 5.0318822861 2.0000000000 1.0000000000
 2796.9235596 2.4806339741 2.4806339741 46.406230927 0.1055560857 6.7646341324 6.7646341324 3.5311825275 3.5311825275  -999.250000 0.0000000000 0.8254691362 0.2011265457 3.6846909523 2.4814686775 2.0000000000 1.0000000000
 2797.0235596 2.4755127430 2.4755127430 48.618446350 0.1048464775 6.7390122414 6.7390122414 3.1894936562 3.1894936562  -999.250000 0.0000000000 0.8311702609 0.2129101008 3.5244791508 2.4396574497 2.0000000000 1.0000000000
 2797.1235596 2.4965181351 2.4965181351 49.938488007 0.0983931571 6.6819043159 6.6819043159 2.9741909504 2.9741909504  -999.250000 0.0000000000 0.8304184079 0.2306539863 2.7467799187 2.1482629776 2.0000000000 1.0000000000
 2797.2235596 2.5238294601 2.5238294601 48.629791260 0.0852968842 6.6437153816 6.6437153816 2.8961706161 2.8961706161  -999.250000 0.0000000000 0.8234717250 0.2312162966 1.2672820091 1.4583326578 2.0000000000 1.0000000000
 2797.3235596 2.5478489399 2.5478489399 46.485572815 0.0758476928 6.6173019409 6.6173019409 2.9096500874 2.9096500874  -999.250000 0.0000000000 0.8148967624 0.2228192240 1.0165138245 3.1918950081 2.0000000000 1.0000000000
 2797.4235596 2.5517873764 2.5517873764 44.679134369 0.0708401948 6.6094250679 6.6094250679 3.0796604156 3.0796604156  -999.250000 0.0000000000 0.8083574772 0.2039002329 0.8407605290 3.2595767975 2.0000000000 1.0000000000
 2797.5235596 2.5489110947 2.5489110947 46.336025238 0.0720531568 6.6069998741 6.6069998741 3.2210481167 3.2210481167  -999.250000 0.0000000000 0.8069353700 0.2037500292 0.6249927282 0.5229926109 2.0000000000 1.0000000000
 2797.6235596 2.5457689762 2.5457689762 50.064884186 0.0736596882 6.6078844070 6.6078844070 3.4262878895 3.4262878895  -999.250000 0.0000000000 0.8078456521 0.2183331251 0.6484056115 0.1512052566 2.0000000000 1.0000000000
 2797.7235596 2.5562546253 2.5562546253 56.412700653  -999.250000 6.6131272316 6.6131272316 4.0089030266 4.0089030266  -999.250000 0.0000000000 0.8090332150 0.2643791735  -999.250000  -999.250000 2.0000000000 0.7692941427
 2797.8235596 2.5781440735 2.5781440735 66.455787659  -999.250000 6.6183757782 6.6183757782 4.7431783676 4.7431783676  -999.250000 0.0000000000 0.6265121102 0.3379768431  -999.250000  -999.250000 2.0000000000 0.1131261811
 2797.9235596 2.6082503796 2.6082503796 78.255897522  -999.250000 6.6230001450 6.6230001450 5.5492615700 5.5492615700  -999.250000 0.0000000000 0.3464348018 0.4283902347  -999.250000  -999.250000 3.0000000000 0.0000000000
 2798.0235596 2.6522300243 2.6522300243 87.870994568  -999.250000 6.6230001450 6.6230001450 6.2634358406 6.2634358406  -999.250000 0.0000000000 0.0996956304 0.5299193263  -999.250000  -999.250000 3.0000000000 0.0000000000
 2798.1235596 2.6778237820 2.6778237820 91.349945068  -999.250000 6.6183056831 6.6183056831 6.7530694008 6.7530694008  -999.250000 0.0000000000 0.0000000000 0.5940045118  -999.250000  -999.250000 3.0000000000 0.0000000000
 2798.2235596 2.6885745525 2.6885745525 90.433074951  -999.250000 6.6106672287 6.6106672287 7.0446162224 7.0446162224  -999.250000 0.0000000000 0.0000000000 0.6282423735  -999.250000  -999.250000 3.0000000000 0.0000000000
 2798.3235596 2.6689136028 2.6689136028 86.503532410  -999.250000 6.6060800552 6.6060800552 6.7497038841 6.7497038841  -999.250000 0.0000000000 0.0000000000 0.6054255962  -999.250000  -999.250000 3.0000000000 0.0000000000
 2798.4235596 2.6635882854 2.6635882854 84.541877747  -999.250000 6.6097412109 6.6097412109 6.5212731361 6.5212731361  -999.250000 0.0000000000 0.0000000000 0.5847447515  -999.250000  -999.250000 3.0000000000 0.0000000000
 2798.5235596 2.6704111099 2.6704111099 84.232986450  -999.250000 6.6205325127 6.6205325127 6.3501276970 6.3501276970  -999.250000 0.0000000000 0.0000000000 0.5663060546  -999.250000  -999.250000 3.0000000000 0.0000000000
 2798.6235596 2.6881341934 2.6881341934 84.792900085  -999.250000 6.6435074806 6.6435074806 6.2693891525 6.2693891525  -999.250000 0.0000000000 0.0000000000 0.5676878691  -999.250000  -999.250000 3.0000000000 0.0000000000
 2798.7235596 2.6966719627 2.6966719627 83.825439453  -999.250000 6.6677937508 6.6677937508 6.2004604340 6.2004604340  -999.250000 0.0000000000 0.0000000000 0.5633091927  -999.250000  -999.250000 3.0000000000 0.0000000000
 2798.8235596 2.6960155964 2.6960155964 81.329116821  -999.250000 6.6933937073 6.6933937073 6.1433525085 6.1433525085  -999.250000 0.0000000000 0.0000000000 0.5531644821  -999.250000  -999.250000 3.0000000000 0.0000000000
 2798.9235596 2.6876821518 2.6876821518 78.159095764  -999.250000 6.7202334404 6.7202334404 6.1426401138 6.1426401138  -999.250000 0.0000000000 0.0000000000 0.5265367627  -999.250000  -999.250000 3.0000000000 0.0000000000
 2799.0235596 2.6791563034 2.6791563034 75.325836182  -999.250000 6.7420964241 6.7420964241 6.1716804504 6.1716804504  -999.250000 0.0000000000 0.0000000000 0.4999345839  -999.250000  -999.250000 3.0000000000 0.0000000000
