# LAS format log file from PETREL
# Project units are specified as depth units
#==================================================================
~Version information
VERS.   2.0:
WRAP.   NO:
#==================================================================
~Well
STRT .m      1789.0235596 :
STOP .m      2947.0235596 :
STEP .m     0.10000000 :
NULL .        -999.250000 :
COMP.           : COMPANY
WELL.  EKL-  2   : WELL
FLD.            : FIELD
LOC.            : LOCATION
SRVC.           : SERVICE COMPANY
DATE.  2020-12-04 16:30:02   : Log Export Date {yyyy-MM-dd HH:mm:ss}
PROV.           : PROVINCE
UWI.   11000074112601   : UNIQUE WELL ID
API.            : API NUMBER
#==================================================================
~Curve
DEPT .m                   : DEPTH
DENS .g/cm3               : DENS
DEN .g/cm3                : DEN
GR .gAPI                  : GR
PORNET_NOV14 .m3/m3       : PORNET_NOV14
CALI .in                  : CALI
CAL .in                   : CAL
RESD .ohm.m               : RESD
RES_DEP .ohm.m            : RES_DEP
SHNET ._                  : SHNET
SH ._                     : SH
SH_CAP ._                 : SH_CAP
VCL_2014 ._               : VCL_2014
PERMNET_NOV14 .mD         : PERMNET_NOV14
PERMNET_2015 .mD          : PERMNET_2015
Facies ._                 : Facies
NET_NOV14 .m              : NET_NOV14
~Parameter
#==================================================================
~Ascii
# ...
 2806.5235596 2.4877755642 2.4877755642 55.532600403 0.1082785279 6.3830528259 6.3830528259 4.8485374451 4.8485374451 0.5893080831 0.8379046321 0.8403701782 0.2628230751 4.3616166115 8.8839740753 2.0000000000 1.0000000000
 2806.6235596 2.5478527546 2.5478527546 61.860015869 0.0659814104 6.3869915009 6.3869915009 5.2510895729 5.2510895729 0.5005419850 0.8189142942 0.7552153468 0.3160134852  -999.250000  -999.250000 2.0000000000 0.3703440130
 2806.7235596 2.6148066521 2.6148066521 69.817680359  -999.250000 6.3909301758 6.3909301758 5.5136537552 5.5136537552 0.4371720850 0.4062972367 0.4601157606 0.3810345232  -999.250000  -999.250000 2.0000000000 0.0000000000
 2806.8235596 2.6482729912 2.6482729912 78.233322144  -999.250000 6.3943862915 6.3943862915 5.7124338150 5.7124338150  -999.250000 0.0000000000 0.1985963881 0.4552122653  -999.250000  -999.250000 3.0000000000 0.0000000000
 2806.9235596 2.6594202518 2.6594202518 83.807807922  -999.250000 6.3985939026 6.3985939026 5.8230381012 5.8230381012  -999.250000 0.0000000000 0.0000000000 0.5182876587  -999.250000  -999.250000 3.0000000000 0.0000000000
 2807.0235596 2.6318509579 2.6318509579 77.512176514  -999.250000 6.4064712524 6.4064712524 5.6799407005 5.6799407005  -999.250000 0.0000000000 0.0000000000 0.5241459608  -999.250000  -999.250000 3.0000000000 0.0000000000
 2807.1235596 2.5998249054 2.5998249054 70.097465515  -999.250000 6.4214787483 6.4214787483 5.1945662498 5.1945662498  -999.250000 0.1001340747 0.1919329911 0.4805637002  -999.250000  -999.250000 3.0000000000 0.0000000000
 2807.2235596 2.5672230721 2.5672230721 62.804775238  -999.250000 6.4443497658 6.4443497658 4.5799102783 4.5799102783 0.2035425454 0.6252930760 0.4694159329 0.4157513976  -999.250000  -999.250000 2.0000000000 0.5666638613
 2807.3235596 2.5429356098 2.5429356098 59.048141479 0.0843125135 6.4916114807 6.4916114807 4.1420845985 4.1420845985 0.2459663451 0.8057882786 0.7186303139 0.3626030385 1.2270681858 0.6331202984 2.0000000000 1.0000000000
 2807.4235596 2.5128397942 2.5128397942 56.890960693 0.0973486081 6.5417771339 6.5417771339 3.8262407780 3.8262407780 0.3169509470 0.8147719502 0.8160883784 0.3289485276 2.3151397705 0.6896461844 2.0000000000 1.0000000000
 2807.5235596 2.4795825481 2.4795825481 55.316047668 0.1114331335 6.5904207230 6.5904207230 3.6060063839 3.6060063839 0.4044462442 0.8260118365 0.8252626657 0.3060929775 5.5617985725 23.007625580 2.0000000000 1.0000000000
 2807.6235596 2.4481251240 2.4481251240 50.879913330 0.1249306276 6.6127033234 6.6127033234 3.5876562595 3.5876562595 0.4910068512 0.8364722729 0.8348498940 0.2787414491 10.693382263 34.689918518 2.0000000000 1.0000000000
 2807.7235596 2.4196987152 2.4196987152 46.392589569 0.1364261061 6.6262078285 6.6262078285 3.6385273933 3.6385273933 0.5648788810 0.8462525010 0.8431219459 0.2430211306 19.218536377 8.3059854507 2.0000000000 1.0000000000
 2807.8235596 2.3951947689 2.3951947689 42.001209259 0.1415039450 6.6305465698 6.6305465698 3.7412557602 3.7412557602 0.6273669004 0.8541327715 0.8501330614 0.2019514740 24.344564438 93.470870972 2.0000000000 1.0000000000
 2807.9235596 2.3984768391 2.3984768391 39.712306976 0.1434824169 6.5891928673 6.5891928673 3.8804147243 3.8804147243 0.6533951759 0.8569460511 0.8520812392 0.1710673720 26.893053055 189.70826721 2.0000000000 1.0000000000
 2808.0235596 2.3996481895 2.3996481895 38.046024323 0.1418703347 6.5422110558 6.5422110558 4.0002269745 4.0002269745 0.6681922674 0.8560084701 0.8524382710 0.1484864503 24.633537292 215.45530701 2.0000000000 1.0000000000
 2808.1235596 2.3989427090 2.3989427090 36.946708679 0.1424495727 6.4906902313 6.4906902313 4.1017227173 4.1017227173 0.6732713580 0.8561771512 0.8514407873 0.1332978159 25.413322449 128.21362305 2.0000000000 1.0000000000
 2808.2235596 2.3943552971 2.3943552971 38.047714233 0.1431132108 6.4657864571 6.4657864571 4.0794401169 4.0794401169 0.6790569425 0.8569515347 0.8522987366 0.1340702921 26.344009399 22.711833954 2.0000000000 1.0000000000
 2808.3235596 2.4003040791 2.4003040791 39.566062927 0.1406122297 6.4488477707 6.4488477707 4.1181440353 4.1181440353 0.6781419516 0.8582758904 0.8519648314 0.1416046470 23.024665833 23.183795929 2.0000000000 1.0000000000
 2808.4235596 2.4173707962 2.4173707962 41.524791718 0.1366087049 6.4403147697 6.4403147697 4.2212004662 4.2212004662 0.6701566577 0.8531814218 0.8503732681 0.1562741101 18.797412872 27.729448318 2.0000000000 1.0000000000
 2808.5235596 2.4255864620 2.4255864620 43.702262878 0.1319104135 6.4362068176 6.4362068176 4.4412164688 4.4412164688 0.6605937481 0.8493484259 0.8474300504 0.1755978316 14.371879578 31.267717361 2.0000000000 1.0000000000
 2808.6235596 2.4372155666 2.4372155666 46.354232788 0.1274428964 6.4342885017 6.4342885017 4.6850461960 4.6850461960 0.6512157917 0.8469226360 0.8444774747 0.1978461295 11.365226746 17.483768463 2.0000000000 1.0000000000
 2808.7235596 2.4536256790 2.4536256790 49.600185394 0.1191387475 6.4349451065 6.4349451065 4.9535179138 4.9535179138 0.6421504021 0.8419144750 0.8415789008 0.2235941589 7.7858228683 7.3008332253 2.0000000000 1.0000000000
 2808.8235596 2.4862248898 2.4862248898 53.530723572 0.1079544872 6.4349999428 6.4349999428 5.3092665672 5.3092665672 0.6031430960 0.8341992497 0.8348534703 0.2569400668 4.0460591316 0.0854827017 2.0000000000 1.0000000000
 2808.9235596 2.5239124298 2.5239124298 58.278167725 0.0916684642 6.4339752197 6.4339752197 5.6609187126 5.6609187126 0.5329457521 0.8230421543 0.8260987401 0.2959789038 1.9820158482 0.0483703539 2.0000000000 1.0000000000
 2809.0235596 2.5672354698 2.5672354698 64.203582764  -999.250000 6.4313497543 6.4313497543 5.9937186241 5.9937186241 0.4183152616 0.3352343440 0.8147212267 0.3428234160  -999.250000  -999.250000 2.0000000000 0.6223125458
 2809.1235596 2.5821051598 2.5821051598 70.300285339  -999.250000 6.4292926788 6.4292926788 5.9662971497 5.9662971497 0.3391880393 0.0000000000 0.5631093979 0.3977310658  -999.250000  -999.250000 2.0000000000 0.0000000000
 2809.2235596 2.5899019241 2.5899019241 75.126998901  -999.250000 6.4286766052 6.4286766052 5.7007246017 5.7007246017  -999.250000 0.0000000000 0.2894551158 0.4477108121  -999.250000  -999.250000 3.0000000000 0.0000000000
 2809.3235596 2.5925273895 2.5925273895 77.476287842  -999.250000 6.4306459427 6.4306459427 5.0856680870 5.0856680870  -999.250000 0.0000000000 0.0441399589 0.4859074950  -999.250000  -999.250000 3.0000000000 0.0000000000
 2809.4235596 2.5790040493 2.5790040493 74.763397217  -999.250000 6.4331531525 6.4331531525 4.7112321854 4.7112321854  -999.250000 0.0000000000 0.0000000000 0.4855863452  -999.250000  -999.250000 3.0000000000 0.0023593851
 2809.5235596 2.5528087616 2.5528087616 69.903907776  -999.250000 6.4361662865 6.4361662865 4.4175434113 4.4175434113  -999.250000 0.0000000000 0.0863639116 0.4637601972  -999.250000  -999.250000 3.0000000000 0.6585273743
 2809.6235596 2.5049674511 2.5049674511 62.588127136 0.0771450251 6.4400987625 6.4400987625 4.1901330948 4.1901330948  -999.250000 0.4370006025 0.3775133789 0.4109811187 2.2970843315 2.2591900826 3.0000000000 1.0000000000
 2809.7235596 2.4707272053 2.4707272053 56.206867218 0.1163933054 6.4440355301 6.4440355301 3.9933042526 3.9933042526 0.5031803250 0.8288245201 0.6424660087 0.3512227535 6.5385236740 6.9353961945 2.0000000000 1.0000000000
 2809.8235596 2.4491362572 2.4491362572 51.887191772 0.1223194599 6.4491105080 6.4491105080 3.8373894691 3.8373894691 0.5353581309 0.8385474682 0.8367378712 0.2995598316 8.5597066879 12.762940407 2.0000000000 1.0000000000
 2809.9235596 2.4537312984 2.4537312984 52.995868683 0.1226005182 6.4576439857 6.4576439857 3.7783126831 3.7783126831 0.5580056310 0.8397696018 0.8396115303 0.2788527310 8.7064886093 11.962858200 2.0000000000 1.0000000000
 2810.0235596 2.4678292274 2.4678292274 54.043724060 0.1174862757 6.4633259773 6.4633259773 3.7781555653 3.7781555653 0.5414503813 0.8372896910 0.8379456401 0.2803579569 6.5205888748 2.3638460636 2.0000000000 1.0000000000
 2810.1235596 2.4789788723 2.4789788723 53.971851349 0.1158820614 6.4675254822 6.4675254822 3.8103182316 3.8103182316 0.5170387626 0.8315544128 0.8350610137 0.2848137319 5.9472532272 2.8788704872 2.0000000000 1.0000000000
