# LAS format log file from PETREL
# Project units are specified as depth units
#==================================================================
~Version information
VERS.   2.0:
WRAP.   NO:
#==================================================================
~Well
STRT .m      1789.0235596 :
STOP .m      2947.0235596 :
STEP .m     0.10000000 :
NULL .        -999.250000 :
COMP.           : COMPANY
WELL.  EKL-  2   : WELL
FLD.            : FIELD
LOC.            : LOCATION
SRVC.           : SERVICE COMPANY
DATE.  2020-12-04 16:30:02   : Log Export Date {yyyy-MM-dd HH:mm:ss}
PROV.           : PROVINCE
UWI.   11000074112601   : UNIQUE WELL ID
API.            : API NUMBER
#==================================================================
~Curve
DEPT .m                   : DEPTH
DENS .g/cm3               : DENS
DEN .g/cm3                : DEN
GR .gAPI                  : GR
PORNET_NOV14 .m3/m3       : PORNET_NOV14
CALI .in                  : CALI
CAL .in                   : CAL
RESD .ohm.m               : RESD
RES_DEP .ohm.m            : RES_DEP
SHNET ._                  : SHNET
SH ._                     : SH
SH_CAP ._                 : SH_CAP
VCL_2014 ._               : VCL_2014
PERMNET_NOV14 .mD         : PERMNET_NOV14
PERMNET_2015 .mD          : PERMNET_2015
Facies ._                 : Facies
NET_NOV14 .m              : NET_NOV14
~Parameter
#==================================================================
~Ascii
# ...
 2784.3235596 2.6622838974 2.6622838974 84.307037354  -999.250000 7.2352256775 7.2352256775 6.6129970551 6.6129970551  -999.250000 0.0000000000 0.0000000000 0.6075374484  -999.250000  -999.250000 3.0000000000 0.0000000000
 2784.4235596 2.6674792767 2.6674792767 79.320228577  -999.250000 7.2150831223 7.2150831223 7.0998549461 7.0998549461  -999.250000 0.0000000000 0.0000000000 0.5550838113  -999.250000  -999.250000 3.0000000000 0.0000000000
 2784.5235596 2.6701514721 2.6701514721 75.715606689  -999.250000 7.2049999237 7.2049999237 7.5942788124 7.5942788124  -999.250000 0.0000000000 0.0000000000 0.5099257827  -999.250000  -999.250000 3.0000000000 0.0000000000
 2784.6235596 2.6708078384 2.6708078384 74.920692444  -999.250000 7.2049999237 7.2049999237 8.0852737427 8.0852737427  -999.250000 0.0000000000 0.0000000000 0.4863954782  -999.250000  -999.250000 3.0000000000 0.0000000000
 2784.7235596 2.6668217182 2.6668217182 72.927986145  -999.250000 7.2022142410 7.2022142410 8.4838800430 8.4838800430  -999.250000 0.0000000000 0.0000000000 0.4681617022  -999.250000  -999.250000 3.0000000000 0.0000000000
 2784.8235596 2.6604311466 2.6604311466 70.483695984  -999.250000 7.1969485283 7.1969485283 8.8294067383 8.8294067383  -999.250000 0.0000000000 0.0505624786 0.4509786963  -999.250000  -999.250000 3.0000000000 0.0000000000
 2784.9235596 2.6518979073 2.6518979073 68.235488892  -999.250000 7.1857895851 7.1857895851 9.1090373993 9.1090373993  -999.250000 0.0000000000 0.3256008923 0.4287286103  -999.250000  -999.250000 3.0000000000 0.0000000000
 2785.0235596 2.6429407597 2.6429407597 67.253005981  -999.250000 7.1698818207 7.1698818207 9.3952980042 9.3952980042  -999.250000 0.0000000000 0.5776621103 0.4135701060  -999.250000  -999.250000 2.0000000000 0.0000000000
 2785.1235596 2.6349117756 2.6349117756 67.134834290  -999.250000 7.1517925262 7.1517925262 9.6844110489 9.6844110489  -999.250000 0.0000000000 0.7858626842 0.4042634964  -999.250000  -999.250000 2.0000000000 0.5535404682
 2785.2235596 2.6342554092 2.6342554092 68.389884949 0.0423293263 7.1353821754 7.1353821754 9.9699497223 9.9699497223  -999.250000 0.0000000000 0.7878934741 0.4091446400 0.1271156818 0.2214807123 2.0000000000 1.0000000000
 2785.3235596 2.6356046200 2.6356046200 69.431549072 0.0424591601 7.1205763817 7.1205763817 10.105468750 10.105468750  -999.250000 0.0000000000 0.7887274027 0.4171972573 0.1279395074 0.3026329279 2.0000000000 1.0000000000
 2785.4235596 2.6378848553 2.6378848553 70.152488708 0.0421709679 7.1069068909 7.1069068909 10.097527504 10.097527504  -999.250000 0.0000000000 0.7887638211 0.4262010157 0.1982361525 1.4347609282 2.0000000000 1.0000000000
 2785.5235596 2.6365721226 2.6365721226 68.948631287  -999.250000 7.0944352150 7.0944352150 9.5901231766 9.5901231766  -999.250000 0.0000000000 0.7884271741 0.4240947962  -999.250000  -999.250000 2.0000000000 0.8217875957
 2785.6235596 2.6341481209 2.6341481209 70.786849976  -999.250000 7.0838150978 7.0838150978 9.1493816376 9.1493816376  -999.250000 0.0000000000 0.6322211623 0.4321086407  -999.250000  -999.250000 2.0000000000 0.1656196117
 2785.7235596 2.6311068535 2.6311068535 75.090843201  -999.250000 7.0748662949 7.0748662949 8.7625598907 8.7625598907  -999.250000 0.0000000000 0.3570966423 0.4494894743  -999.250000  -999.250000 3.0000000000 0.0000000000
 2785.8235596 2.6337282658 2.6337282658 82.126129150  -999.250000 7.0715894699 7.0715894699 8.4329137802 8.4329137802  -999.250000 0.0000000000 0.1166449115 0.5033453703  -999.250000  -999.250000 3.0000000000 0.0000000000
 2785.9235596 2.6400697231 2.6400697231 88.409469604  -999.250000 7.0700001717 7.0700001717 8.1148252487 8.1148252487  -999.250000 0.0000000000 0.0000000000 0.5598559976  -999.250000  -999.250000 3.0000000000 0.0000000000
 2786.0235596 2.6499159336 2.6499159336 93.984359741  -999.250000 7.0700001717 7.0700001717 7.8076248169 7.8076248169  -999.250000 0.0000000000 0.0000000000 0.6188679338  -999.250000  -999.250000 3.0000000000 0.0000000000
 2786.1235596 2.6519525051 2.6519525051 93.990997314  -999.250000 7.0700001717 7.0700001717 7.3494391441 7.3494391441  -999.250000 0.0000000000 0.0000000000 0.6433849931  -999.250000  -999.250000 3.0000000000 0.0000000000
 2786.2235596 2.6493134499 2.6493134499 91.919593811  -999.250000 7.0684642792 7.0684642792 6.8841147423 6.8841147423  -999.250000 0.0000000000 0.0000000000 0.6458563209  -999.250000  -999.250000 3.0000000000 0.0000000000
 2786.3235596 2.6414365768 2.6414365768 87.540672302  -999.250000 7.0651817322 7.0651817322 6.4121561050 6.4121561050  -999.250000 0.0000000000 0.0000000000 0.6236068606  -999.250000  -999.250000 3.0000000000 0.0000000000
 2786.4235596 2.6242859364 2.6242859364 82.032447815  -999.250000 7.0594286919 7.0594286919 6.2114310265 6.2114310265  -999.250000 0.0000000000 0.0000000000 0.5776756406  -999.250000  -999.250000 3.0000000000 0.0000000000
 2786.5235596 2.6079535484 2.6079535484 76.461082458  -999.250000 7.0518774986 7.0518774986 6.0924568176 6.0924568176  -999.250000 0.0000000000 0.1184844002 0.5281608701  -999.250000  -999.250000 3.0000000000 0.0000000000
 2786.6235596 2.5935125351 2.5935125351 70.894065857  -999.250000 7.0420312881 7.0420312881 6.0648875237 6.0648875237  -999.250000 0.0000000000 0.4014652073 0.4755999446  -999.250000  -999.250000 3.0000000000 0.3960601687
 2786.7235596 2.5820097923 2.5820097923 68.562118530  -999.250000 7.0245456696 7.0245456696 5.9844288826 5.9844288826  -999.250000 0.0000000000 0.6525712609 0.4394298494  -999.250000  -999.250000 2.0000000000 0.9477718472
 2786.8235596 2.5832984447 2.5832984447 70.361473083  -999.250000 7.0044574738 7.0044574738 5.9102301598 5.9102301598  -999.250000 0.0000000000 0.7026652694 0.4300042391  -999.250000  -999.250000 2.0000000000 0.2916038632
 2786.9235596 2.6056163311 2.6056163311 78.500961304  -999.250000 6.9814834595 6.9814834595 5.8570609093 5.8570609093  -999.250000 0.0000000000 0.4194637537 0.4625219405  -999.250000  -999.250000 2.0000000000 0.0000000000
 2787.0235596 2.6306838989 2.6306838989 87.392791748  -999.250000 6.9546480179 6.9546480179 5.7372436523 5.7372436523  -999.250000 0.0000000000 0.1671780795 0.5363709927  -999.250000  -999.250000 3.0000000000 0.0000000000
 2787.1235596 2.6564679146 2.6564679146 95.187835693  -999.250000 6.9281668663 6.9281668663 5.4242343903 5.4242343903  -999.250000 0.0000000000 0.0000000000 0.6126372814  -999.250000  -999.250000 3.0000000000 0.0000000000
 2787.2235596 2.6827242374 2.6827242374 100.39644623  -999.250000 6.9038801193 6.9038801193 4.7304086685 4.7304086685  -999.250000 0.0000000000 0.0000000000 0.6784657240  -999.250000  -999.250000 3.0000000000 0.0000000000
 2787.3235596 2.6874754429 2.6874754429 99.820137024  -999.250000 6.8874607086 6.8874607086 4.1671886444 4.1671886444  -999.250000 0.0000000000 0.0000000000 0.7017399669  -999.250000  -999.250000 3.0000000000 0.0000000000
 2787.4235596 2.6801247597 2.6801247597 96.280250549  -999.250000 6.8746476173 6.8746476173 3.7388532162 3.7388532162  -999.250000 0.0000000000 0.0000000000 0.6979547739  -999.250000  -999.250000 3.0000000000 0.0000000000
 2787.5235596 2.6551809311 2.6551809311 88.774856567  -999.250000 6.8661146164 6.8661146164 3.5786890984 3.5786890984  -999.250000 0.0000000000 0.0000000000 0.6511780620  -999.250000  -999.250000 3.0000000000 0.0000000000
 2787.6235596 2.6401124001 2.6401124001 81.422523499  -999.250000 6.8630123138 6.8630123138 3.5943000317 3.5943000317  -999.250000 0.0000000000 0.0000000000 0.5871683359  -999.250000  -999.250000 3.0000000000 0.0000000000
 2787.7235596 2.6304004192 2.6304004192 76.524261475  -999.250000 6.8630495071 6.8630495071 3.6968755722 3.6968755722  -999.250000 0.0000000000 0.0000000000 0.5298041105  -999.250000  -999.250000 3.0000000000 0.0000000000
 2787.8235596 2.6277790070 2.6277790070 79.729621887  -999.250000 6.8676371574 6.8676371574 3.8974156380 3.8974156380  -999.250000 0.0000000000 0.0000000000 0.5139846206  -999.250000  -999.250000 3.0000000000 0.0000000000
 2787.9235596 2.6343820095 2.6343820095 85.209503174  -999.250000 6.8740754128 6.8740754128 4.2730441093 4.2730441093  -999.250000 0.0000000000 0.0000000000 0.5420214534  -999.250000  -999.250000 3.0000000000 0.0000000000
