~VERSION INFORMATION
VERS.                                                 2.0:   CWLS Log ASCII Standard-VERSION 2.0
WRAP.                                                  NO:   One line per depth step
~Well Information Block
STRT.M                                          1407.1092:   Top Depth
STOP.M                                          3062.9352:   Bottom Depth
STEP.M                                             .15240:   Depth Increment
NULL.                                            -999.250:   Null Value
FLD .                                          EEMSKANAAL:   Field Name
WELL.                                       EEMSKANAAL- 1:   NAME
EDF .m                                               5.58:   ELEV DRILL FLOOR
EPD .                                                   0:   ELEV PERM DATUM
EGL .m                                                -.9:   GROUND LEVEL
LMF .                                                  DF:   LOGS MEAS FROM
COMP.                                                 NAM:   OPERATOR
PDAT.                                                 NAP:   PERM DATUM
SPUD.                                          1970/11/08:   SPUD DATE
UWBI.                                      11000074112201:   UWBI
WELL.                                       EEMSKANAAL- 1:   HOLE NAME
~PARAMETER INFORMATION (log)
LNAM.                                RUN 03 RAW OH 9.625":   NAME
LTYP.                                                 03R:   LOG TYPE
LVSN.                                                   1:   LOG VERSION
BS  .5/8"                                               9:   BIT SIZE
BLI .M                                               3064:   BOTTOM DEPTH LOGGED
BHIS.                                            RCCCCCCC:   BRIEF HISTORY
FHIS.              RAW-TIGA/COPY/COPY/COPY/COPY/COPY/COPY:   FULL HISTORY
MRT .C                                                 98:   MAX REC TEMP
DFT .                                          SALT SPERS:   MUD TYPE
RMS .                                                    :   RM
MST .                                                    :   RM TEMP
RMCS.                                                    :   RMC
MCST.                                                    :   RMC TEMP
RMFS.                                                    :   RMF
MFST.                                                    :   RMF TEMP
TCS .                                               4 HRS:   TIME SINCE CIRCLN
TLI .M                                               1407:   TOP DEPTH LOGGED
~Curve Information Block
#MNEM.UNIT                                        API CODE    No Description
#=========                                        ========    == ===========
DEPT.M                                       00 001 00 00:     1  DEPTH
CALF.IN                                                  :     2  CALIPER FROM FORMATION DENSITY LOG
FDC.g/c3                                                 :     3  Formation Density Log (Compensated Open
GR.GAPI                                                  :     4  Gamma Ray
~ASCII
# ...
 2072.7924    10.9030     2.0430     3.4690
 2072.9448    10.9030     2.0500     4.0760
 2073.0972    10.9070     2.0660     4.4420
 2073.2496    10.9070     2.0730     3.9980
 2073.4020    10.9080     2.0800     3.6740
 2073.5544    10.9130     2.0880     3.6630
 2073.7068    10.9150     2.0790     3.7740
 2073.8592    10.9160     2.0710     4.1460
 2074.0116    10.9220     2.0640     3.3000
 2074.1640    10.9240     2.0520     2.6720
 2074.3164    10.9270     2.0510     2.5280
 2074.4688    10.9190     2.0520     2.4900
 2074.6212    10.9190     2.0630     2.4900
 2074.7736    10.9430     2.0620     2.4900
 2074.9260    10.9420     2.0630     2.5170
 2075.0784    10.9420     2.0660     2.7480
 2075.2308    10.9380     2.0770     2.9280
 2075.3832    10.9340     2.0880     3.1200
 2075.5356    10.9170     2.0810     3.4980
 2075.6880    10.9070     2.0660     4.1950
 2075.8404    10.9000     2.0700     5.0700
 2075.9928    10.8910     2.0700     5.7090
 2076.1452    10.8890     2.0670     5.5620
 2076.2976    10.9180     2.0610     4.9030
 2076.4500    10.9150     2.0740     4.1700
 2076.6024    10.9070     2.0700     5.1300
 2076.7548    10.9020     2.0800     5.0640
 2076.9072    10.8910     2.1000     5.1550
 2077.0596    10.8800     2.0920     4.7010
 2077.2120    10.8690     2.0560     3.6820
 2077.3644    10.8780     2.0480     3.1520
 2077.5168    10.8750     2.0480     4.4440
 2077.6692    10.8710     2.0510     5.5450
 2077.8216    10.8600     2.0550     5.6710
 2077.9740    10.8460     2.0600     5.2430
 2078.1264    10.8430     2.0560     4.3410
 2078.2788    10.8400     2.0500     3.4180
 2078.4312    10.8300     2.0480     3.1090
 2078.5836    10.8200     2.0600     3.1500
 2078.7360    10.8190     2.0740     3.3930
 2078.8884    10.8190     2.0830     3.6250
 2079.0408    10.8160     2.0810     3.5700
 2079.1932    10.8150     2.0850     3.5700
 2079.3456    10.8180     2.0830     3.5100
 2079.4980    10.8190     2.0780     3.5100
 2079.6504    10.8170     2.0800     3.5400
 2079.8028    10.8150     2.0970     3.6300
 2079.9552    10.8150     2.1010     3.6300
 2080.1076    10.8100     2.0930     4.6220
 2080.2600    10.7980     2.0820     4.6500
 2080.4124    10.8000     2.0750     4.5830
 2080.5648    10.8090     2.0780     4.5300
 2080.7172    10.8150     2.0740     4.5510
 2080.8696    10.8110     2.0710     4.7750
 2081.0220    10.8050     2.0690     5.0710
 2081.1744    10.7920     2.0760     5.0850
 2081.3268    10.7830     2.0690     5.1980
 2081.4792    10.7810     2.0590     5.6460
 2081.6316    10.7750     2.0600     6.0520
 2081.7840    10.7780     2.0710     6.2030
 2081.9364    10.7810     2.0760     6.1230
 2082.0888    10.7900     2.0740     5.8750
 2082.2412    10.7970     2.0620     5.5690
 2082.3936    10.7990     2.0660     5.2930
 2082.5460    10.8010     2.0620     4.7580
 2082.6984    10.8080     2.0620     4.2350
 2082.8508    10.8110     2.0650     4.3060
 2083.0032    10.8110     2.0610     4.4590
 2083.1556    10.8210     2.0570     4.6570
 2083.3080    10.8310     2.0550     4.8670
 2083.4604    10.8430     2.0570     5.2510
 2083.6128    10.8590     2.0690     5.6920
 2083.7652    10.8630     2.0730     6.5050
 2083.9176    10.8620     2.0820     6.9050
 2084.0700    10.8720     2.0730     6.3190
 2084.2224    10.8950     2.0760     5.8730
 2084.3748    10.8980     2.0760     5.5540
 2084.5272    10.9100     2.0670     5.2500
 2084.6796    10.9190     2.0560     5.6580
 2084.8320    10.8810     2.0450     5.6340
 2084.9844    10.8740     2.0490     4.8980
 2085.1368    10.9350     2.0540     5.4090
 2085.2892    10.9650     2.0670     5.5530
 2085.4416    10.8840     2.0760     5.5500
 2085.5940    10.9180     2.0720     5.5500
 2085.7464    10.9390     2.0700     5.3890
 2085.8988    10.9730     2.0850     5.5470
 2086.0512    10.9310     2.0960     5.8820
 2086.2036    10.8780     2.1010     5.9990
 2086.3560    10.7400     2.0980     6.0120
 2086.5084    10.7820     2.0970     6.1980
 2086.6608    10.8640     2.0950     6.4260
 2086.8132    10.8850     2.0850     6.1430
 2086.9656    10.9130     2.0860     5.6180
 2087.1180    10.9680     2.0850     4.7580
 2087.2704    11.0110     2.0990     3.4180
 2087.4228    11.0190     2.1070     3.6350
 2087.5752    10.8650     2.1120     4.1820
 2087.7276    10.8900     2.1080     4.9240
 2087.8800    10.9430     2.0890     5.5380
 2088.0324    10.9190     2.0820     6.0680
 2088.1848    10.8270     2.0860     6.3070
 2088.3372    10.6930     2.1030     6.4670
 2088.4896    10.8140     2.1070     6.3470
 2088.6420    10.6250     2.1080     5.6530
 2088.7944    10.5920     2.1080     4.5130
 2088.9468    10.6160     2.1050     4.9480
 2089.0992    10.6570     2.0960     5.9060
 2089.2516    10.7720     2.0890     6.0900
 2089.4040    10.8140     2.0900     6.6830
 2089.5564    10.7310     2.0990     7.1960
 2089.7088    10.7470     2.1070     6.7200
 2089.8612    10.7490     2.1040     6.3220
 2090.0136    10.7360     2.1170     6.4500
 2090.1660    10.6470     2.1180     6.4500
 2090.3184    10.6200     2.1460     6.4580
 2090.4708    10.6350     2.1580     6.8670
 2090.6232    10.4850     2.1560     8.3130
 2090.7756    10.7320     2.1070     8.9880
 2090.9280    10.9070     2.0680     9.0890
 2091.0804    10.9190     2.0650     9.2960
 2091.2328    10.9190     2.0670     9.4110
 2091.3852    10.9190     2.0800     9.2280
 2091.5376    10.9190     2.1030     8.9230
 2091.6900    10.9190     2.0950     9.0780
 2091.8424    10.9190     2.0730     9.2840
 2091.9948    10.9190     2.0680     9.1810
 2092.1472    10.9190     2.0710     8.7570
 2092.2996    10.9190     2.0580     9.0290
 2092.4520    10.9190     2.0630     8.9570
 2092.6044    10.9190     2.0750     8.6080
 2092.7568    10.9190     2.0780     7.9030
 2092.9092    10.9190     2.0850     7.2740
 2093.0616    10.9190     2.0730     7.2850
 2093.2140    10.9190     2.0740     6.8310
 2093.3664    10.9180     2.0800     7.1790
 2093.5188    10.9150     2.0750     7.4220
 2093.6712    10.9150     2.0750     7.3990
 2093.8236    10.9160     2.0760     7.3640
 2093.9760    10.9190     2.0720     7.2500
 2094.1284    10.9190     2.0630     6.6160
 2094.2808    10.9260     2.0600     6.3610
 2094.4332    10.9750     2.0610     7.0900
 2094.5856    11.0190     2.0570     7.1190
 2094.7380    11.0120     2.0580     7.0210
 2094.8904    10.9510     2.0620     6.5680
 2095.0428    10.8860     2.0660     5.1400
 2095.1952    10.9300     2.0730     4.4670
 2095.3476    10.9360     2.0930     4.4340
 2095.5000    10.9270     2.0920     4.3500
 2095.6524    10.9110     2.0830     4.4440
 2095.8048    10.8990     2.0860     5.1540
 2095.9572    10.9070     2.0780     5.6590
 2096.1096    10.9060     2.0640     5.3970
 2096.2620    10.9030     2.0510     4.9270
 2096.4144    10.9060     2.0410     5.3760
 2096.5668    10.9100     2.0490     5.2650
 2096.7192    10.9110     2.0550     4.9390
 2096.8716    10.9070     2.0590     4.8840
 2097.0240    10.8860     2.0620     5.0710
 2097.1764    10.9260     2.0540     5.5290
 2097.3288    10.9580     2.0600     6.0850
 2097.4812    10.9680     2.0740     6.8090
 2097.6336    10.9710     2.0890     7.0290
 2097.7860    10.9710     2.0990     6.5600
 2097.9384    10.9570     2.1000     5.4790
 2098.0908    10.9410     2.0820     5.4430
 2098.2432    10.9040     2.0750     6.2710
 2098.3956    10.9300     2.0720     6.1920
 2098.5480    10.9390     2.0780     5.4690
 2098.7004    10.9390     2.0920     5.4290
 2098.8528    10.9330     2.0760     5.2710
 2099.0052    10.9690     2.0800     5.2480
 2099.1576    10.9610     2.0830     5.5420
 2099.3100    10.9760     2.0690     5.7300
 2099.4624    10.9740     2.0650     5.6740
 2099.6148    10.9600     2.0660     5.6050
 2099.7672    10.9620     2.0680     6.1690
 2099.9196    11.0190     2.0610     6.0600
 2100.0720    10.9540     2.0660     6.0600
 2100.2244    10.9100     2.0710     6.0530
 2100.3768    11.0480     2.0780     5.9150
