~VERSION INFORMATION
VERS.                                                 2.0:   CWLS Log ASCII Standard-VERSION 2.0
WRAP.                                                  NO:   One line per depth step
~Well Information Block
STRT.M                                          2684.0688:   Top Depth
STOP.M                                          2930.9568:   Bottom Depth
STEP.M                                             .15240:   Depth Increment
NULL.                                            -999.250:   Null Value
FLD .                                          EEMSKANAAL:   Field Name
WELL.                                       EEMSKANAAL- 1:   NAME
EDF .m                                               5.58:   ELEV DRILL FLOOR
EPD .                                                   0:   ELEV PERM DATUM
EGL .m                                                -.9:   GROUND LEVEL
LMF .                                                  DF:   LOGS MEAS FROM
COMP.                                                 NAM:   OPERATOR
PDAT.                                                 NAP:   PERM DATUM
SPUD.                                          1970/11/08:   SPUD DATE
UWBI.                                      11000074112201:   UWBI
WELL.                                       EEMSKANAAL- 1:   HOLE NAME
~PARAMETER INFORMATION (log)
LNAM.                                RUN 08 RAW OH 9.625":   NAME
LTYP.                                                 08R:   LOG TYPE
LVSN.                                                   1:   LOG VERSION
BS  .5/8"                                               9:   BIT SIZE
BLI .M                                               2950:   BOTTOM DEPTH LOGGED
BHIS.                                              MCCCCC:   BRIEF HISTORY
FHIS.                           MERGE/COPY/COPY/COPY/COPY:   FULL HISTORY
MRT .                                                    :   MAX REC TEMP
DFT .                                          SALT SPERS:   MUD TYPE
RMS .                                               0.074:   RM
MST .C                                                 26:   RM TEMP
RMCS.                                               0.144:   RMC
MCST.C                                                 17:   RMC TEMP
RMFS.                                               0.059:   RMF
MFST.C                                                 26:   RMF TEMP
TCS .                                                 N/A:   TIME SINCE CIRCLN
TLI .M                                             1406.5:   TOP DEPTH LOGGED
~Curve Information Block
#MNEM.UNIT                                        API CODE    No Description
#=========                                        ========    == ===========
DEPT.M                                       00 001 00 00:     1  DEPTH
LL9D.OHMM                                                :     2  Dual Laterolog 9 deep
LL9S.OHMM                                                :     3  Dual Laterolog 9 shallow
MSFL.OHMM                                                :     4  MICRO SPHERICALLY FOCUSSED LOG
~ASCII
# ...
 2822.7528     5.9720     3.2670     1.0700
 2822.9052     5.9080     3.2680      .9670
 2823.0576     5.9090     3.4330     1.1990
 2823.2100     6.0230     3.5680     1.2310
 2823.3624     6.1130     3.3970     1.4120
 2823.5148     5.5760     3.1680      .7830
 2823.6672     5.3550     3.1570     1.4360
 2823.8196     5.2750     3.1950     1.8910
 2823.9720     5.5310     3.4390      .9550
 2824.1244     6.1010     3.9120      .9200
 2824.2768     6.4720     4.2400     1.9000
 2824.4292     6.2680     3.9990     2.1590
 2824.5816     5.7060     3.4070     2.1330
 2824.7340     5.5940     3.3040     1.8280
 2824.8864     5.8750     3.4670     1.4180
 2825.0388     6.8120     3.8180      .8800
 2825.1912     8.0410     4.2910     1.3100
 2825.3436     8.2580     4.3490     1.5410
 2825.4960     7.7070     4.2220     1.4020
 2825.6484     7.2980     4.1050     1.1080
 2825.8008     7.0960     4.0650     1.0370
 2825.9532     7.0360     4.0550     1.1290
 2826.1056     6.9630     4.0230     1.1210
 2826.2580     6.8270     3.8890     1.2740
 2826.4104     6.4780     3.7050     1.2280
 2826.5628     6.1060     3.5700     1.1510
 2826.7152     6.0800     3.5750     1.1470
 2826.8676     6.1840     3.7180     1.0070
 2827.0200     6.7190     4.1340     1.1950
 2827.1724     7.6870     4.4650     1.6690
 2827.3248     7.7080     4.4630     1.2510
 2827.4772     7.3270     4.1980     1.2420
 2827.6296     6.5470     3.7170     1.4040
 2827.7820     6.2910     3.5640      .7560
 2827.9344     6.6990     3.7740      .7260
 2828.0868     8.4680     4.3870      .9140
 2828.2392     9.9750     5.3880     1.3450
 2828.3916    10.3740     5.5980     1.4060
 2828.5440    10.0360     5.3520     1.4080
 2828.6964     8.7490     4.7740     1.8750
 2828.8488     7.7900     4.4070     1.4160
 2829.0012     7.6470     4.3930     1.1350
 2829.1536     7.8790     4.5810      .9570
 2829.3060     8.3660     4.8230     1.0010
 2829.4584     8.8130     5.0170     1.4440
 2829.6108     8.4350     4.8350     1.6350
 2829.7632     7.6830     4.6440     1.1960
 2829.9156     7.4870     4.5690     1.3090
 2830.0680     7.4020     4.4360     1.1800
 2830.2204     7.2090     4.2090     1.1330
 2830.3728     6.8580     4.0130      .9740
 2830.5252     6.4290     3.9420     1.3030
 2830.6776     6.2230     4.0330     1.0790
 2830.8300     6.2190     4.0840     1.0800
 2830.9824     6.2050     3.9350     1.1300
 2831.1348     6.0820     3.8270     1.0610
 2831.2872     6.0910     3.8740     1.1910
 2831.4396     6.5890     4.1970     1.1560
 2831.5920     7.6630     4.7500     1.0720
 2831.7444     9.6540     5.4790     1.3760
 2831.8968    11.4660     6.4890     1.7820
 2832.0492    10.0620     5.9350     2.5470
 2832.2016     8.6110     4.5440     1.9340
 2832.3540     7.7600     3.9070     1.9190
 2832.5064     6.7320     3.7130      .8380
 2832.6588     6.5060     3.7410      .8370
 2832.8112     6.5460     3.9840     1.0740
 2832.9636     6.8580     4.1360      .9280
 2833.1160     7.4340     4.1760      .9850
 2833.2684     7.4920     4.0810     1.6620
 2833.4208     6.6370     3.2650     1.5370
 2833.5732     5.6310     3.1630     1.0660
 2833.7256     5.6320     3.2070     1.1840
 2833.8780     5.8820     3.4410     1.4010
 2834.0304     6.6540     3.7830      .7150
 2834.1828     7.9600     4.2770     1.1230
 2834.3352     8.1270     4.2320     1.2840
 2834.4876     6.8110     3.6370     1.0090
 2834.6400     5.0180     2.9180      .8470
 2834.7924     4.7360     2.7880      .8620
 2834.9448     4.7690     2.8070      .7460
 2835.0972     5.1680     2.9470      .5800
 2835.2496     6.3480     3.3770      .7860
 2835.4020     7.0290     3.8130      .9870
 2835.5544     7.2150     3.9380     1.4310
 2835.7068     7.0500     3.8930     1.5600
 2835.8592     6.3850     3.7250     1.0200
 2836.0116     6.1250     3.6020     1.3960
 2836.1640     6.2600     3.6020     1.1310
 2836.3164     6.7870     3.7270      .9730
 2836.4688     7.7700     4.3330     1.1960
 2836.6212     8.6560     4.8840     1.5590
 2836.7736     8.9300     5.0270     1.5580
 2836.9260     9.0350     5.0980      .9740
 2837.0784     8.8350     5.1260     1.3270
 2837.2308     8.2610     4.8610     1.2340
 2837.3832     7.3380     4.3980     1.1790
 2837.5356     6.7930     4.1080     1.1970
 2837.6880     6.4590     3.9900     1.3430
 2837.8404     6.2610     3.9920     1.1210
 2837.9928     6.3340     4.0810      .9290
 2838.1452     6.5770     4.2760      .9870
 2838.2976     6.9040     4.4620      .9330
 2838.4500     7.1390     4.5690     1.0520
 2838.6024     7.3180     4.6510     1.2680
 2838.7548     7.5430     4.7340     1.3510
 2838.9072     7.9020     4.8730     1.4840
 2839.0596     8.7330     5.2120     1.2290
 2839.2120     9.7260     5.7560     1.1670
 2839.3644    10.6620     6.3530     1.2420
 2839.5168    11.8880     6.9660     1.0630
 2839.6692    12.8500     7.3260     1.2800
 2839.8216    12.9280     7.4670     1.1860
 2839.9740    12.4420     7.3010      .7870
 2840.1264    11.4960     6.4260      .8200
 2840.2788     8.9870     5.1000      .8710
 2840.4312     7.0770     4.0850      .8490
 2840.5836     6.1300     3.7610      .9460
 2840.7360     6.2030     3.8210      .9350
 2840.8884     6.8560     4.1200      .7800
 2841.0408     7.4260     4.2440     1.0470
 2841.1932     7.6480     4.1910     1.3130
 2841.3456     7.4220     4.0430     1.2450
 2841.4980     7.2560     4.0600      .9240
 2841.6504     7.6270     4.3060      .8340
 2841.8028     8.3080     4.6350      .8990
 2841.9552     8.7020     4.7100      .9400
 2842.1076     8.6260     4.6370     1.2690
 2842.2600     7.3560     4.2360     1.8110
 2842.4124     6.3050     3.6830     1.3910
 2842.5648     6.1660     3.4500     1.2200
 2842.7172     6.2700     3.5300     1.0490
 2842.8696     6.7600     3.8260     1.0760
 2843.0220     7.1090     4.1980      .8560
 2843.1744     7.1020     4.2220     1.4680
 2843.3268     6.4990     3.9990     1.4780
 2843.4792     5.6840     3.6880     1.5560
 2843.6316     5.5540     3.6540     1.3080
 2843.7840     5.8230     3.8780     1.1960
 2843.9364     7.0240     4.5150     1.1640
 2844.0888     8.5310     5.5020      .9780
 2844.2412     9.8020     6.5430     1.1060
 2844.3936     9.8540     7.0790     2.0570
 2844.5460     9.3850     6.7350     3.6860
 2844.6984     8.9700     6.3350     4.3160
 2844.8508     8.9170     5.9540     2.8910
 2845.0032     8.9840     5.8360     2.0150
 2845.1556     9.6070     6.1770      .7170
 2845.3080    11.0770     6.8310      .4490
 2845.4604    11.9500     7.1250     1.0760
 2845.6128    12.1570     7.1060     2.0420
 2845.7652    11.9170     6.8760     2.0870
 2845.9176    11.4760     6.6050     1.8040
 2846.0700    10.9840     6.4820     1.8570
 2846.2224    10.6280     6.4590     1.7710
 2846.3748    10.7080     6.4910     1.8810
 2846.5272    10.6780     6.3890     1.4950
 2846.6796    10.3580     5.9620     1.5380
 2846.8320     9.6710     5.3670     1.7090
 2846.9844     9.0020     5.2420     1.9470
 2847.1368     8.9300     5.3500     1.8160
 2847.2892     9.1150     5.8580     1.6070
 2847.4416     9.2340     6.1730     1.7160
 2847.5940     9.0510     6.1610     2.1470
 2847.7464     7.4430     5.0750     4.2680
 2847.8988     5.4380     4.5080     4.3720
 2848.0512     5.1590     4.0160     4.1650
 2848.2036     5.1950     3.8310     1.7230
 2848.3560     5.4700     3.9360     1.9700
 2848.5084     5.8620     4.1640     1.0180
 2848.6608     6.5760     4.5440     2.4630
 2848.8132     7.6530     5.1260     3.1570
 2848.9656     9.5850     6.0860     1.0830
 2849.1180    12.7920     8.3940     1.0430
 2849.2704    15.4040     8.9380     1.0580
 2849.4228    11.5190     7.2550      .4960
 2849.5752     7.4410     4.8140      .5050
 2849.7276     6.2500     4.2720      .4610
 2849.8800     6.3070     4.3070      .4500
 2850.0324     8.4940     6.0370      .5030
 2850.1848    10.9790     6.7280      .5570
 2850.3372    12.2350     7.3140      .7540
