~VERSION INFORMATION
VERS.                                                 2.0:   CWLS Log ASCII Standard-VERSION 2.0
WRAP.                                                  NO:   One line per depth step
~Well Information Block
STRT.M                                          1407.1092:   Top Depth
STOP.M                                          3062.9352:   Bottom Depth
STEP.M                                             .15240:   Depth Increment
NULL.                                            -999.250:   Null Value
FLD .                                          EEMSKANAAL:   Field Name
WELL.                                       EEMSKANAAL- 1:   NAME
EDF .m                                               5.58:   ELEV DRILL FLOOR
EPD .                                                   0:   ELEV PERM DATUM
EGL .m                                                -.9:   GROUND LEVEL
LMF .                                                  DF:   LOGS MEAS FROM
COMP.                                                 NAM:   OPERATOR
PDAT.                                                 NAP:   PERM DATUM
SPUD.                                          1970/11/08:   SPUD DATE
UWBI.                                      11000074112201:   UWBI
WELL.                                       EEMSKANAAL- 1:   HOLE NAME
~PARAMETER INFORMATION (log)
LNAM.                                RUN 03 RAW OH 9.625":   NAME
LTYP.                                                 03R:   LOG TYPE
LVSN.                                                   1:   LOG VERSION
BS  .5/8"                                               9:   BIT SIZE
BLI .M                                               3064:   BOTTOM DEPTH LOGGED
BHIS.                                            RCCCCCCC:   BRIEF HISTORY
FHIS.              RAW-TIGA/COPY/COPY/COPY/COPY/COPY/COPY:   FULL HISTORY
MRT .C                                                 98:   MAX REC TEMP
DFT .                                          SALT SPERS:   MUD TYPE
RMS .                                                    :   RM
MST .                                                    :   RM TEMP
RMCS.                                                    :   RMC
MCST.                                                    :   RMC TEMP
RMFS.                                                    :   RMF
MFST.                                                    :   RMF TEMP
TCS .                                               4 HRS:   TIME SINCE CIRCLN
TLI .M                                               1407:   TOP DEPTH LOGGED
~Curve Information Block
#MNEM.UNIT                                        API CODE    No Description
#=========                                        ========    == ===========
DEPT.M                                       00 001 00 00:     1  DEPTH
CALF.IN                                                  :     2  CALIPER FROM FORMATION DENSITY LOG
FDC.g/c3                                                 :     3  Formation Density Log (Compensated Open
GR.GAPI                                                  :     4  Gamma Ray
~ASCII
# ...
 2377.8972    11.5330     2.0860     7.0790
 2378.0496    11.5230     2.0800     7.5000
 2378.2020    11.2140     2.0740     7.3280
 2378.3544    11.1110     2.0670     6.6990
 2378.5068    11.3170     2.0580     5.9740
 2378.6592    11.3930     2.0590     5.8200
 2378.8116    11.6540     2.0600     6.0280
 2378.9640    11.6600     2.0620     6.2780
 2379.1164    11.5040     2.0630     5.8930
 2379.2688    11.3770     2.0620     5.5210
 2379.4212    11.3070     2.0590     5.5200
 2379.5736    11.3460     2.0590     5.9770
 2379.7260    11.4150     2.0680     5.7850
 2379.8784    11.2910     2.0680     5.5950
 2380.0308    11.3110     2.0630     6.0250
 2380.1832    11.6190     2.0690     6.8440
 2380.3356    11.3660     2.0770     7.0200
 2380.4880    11.1090     2.0770     6.9670
 2380.6404    11.2390     2.0750     7.0860
 2380.7928    11.1920     2.0750     7.1960
 2380.9452    11.3790     2.0740     6.9520
 2381.0976    11.6480     2.0770     5.9120
 2381.2500    11.7370     2.0790     5.4970
 2381.4024    11.4960     2.0830     5.8240
 2381.5548    11.2270     2.0840     5.9860
 2381.7072    11.2160     2.0790     5.8750
 2381.8596    11.3270     2.0780     5.4210
 2382.0120    11.5820     2.0760     5.9570
 2382.1644    11.5450     2.0760     6.5320
 2382.3168    11.5520     2.0890     6.8870
 2382.4692    11.5490     2.0840     6.7520
 2382.6216    11.4820     2.0700     6.7990
 2382.7740    11.5020     2.0670     6.9370
 2382.9264    11.4370     2.0710     7.1540
 2383.0788    11.3490     2.0780     7.5110
 2383.2312    11.3450     2.0730     7.9240
 2383.3836    11.4210     2.0670     7.9630
 2383.5360    11.5010     2.0740     8.5420
 2383.6884    11.2710     2.0730     8.4470
 2383.8408    11.5860     2.0760     8.2370
 2383.9932    11.4680     2.0730     8.2170
 2384.1456    11.4280     2.0730     8.4900
 2384.2980    11.4300     2.0750     9.0080
 2384.4504    11.3040     2.0750     9.3440
 2384.6028    11.2730     2.0750     9.0320
 2384.7552    11.4350     2.0770     8.5730
 2384.9076    11.3680     2.0850     9.3260
 2385.0600    11.2650     2.0760    10.0500
 2385.2124    11.3030     2.0690    10.3130
 2385.3648    11.2790     2.0810     9.2390
 2385.5172    11.1920     2.0920     8.5140
 2385.6696    11.1110     2.0810     8.2040
 2385.8220    11.0660     2.0830     8.0400
 2385.9744    11.0450     2.0840     7.9950
 2386.1268    11.0500     2.0780     7.3830
 2386.2792    11.0500     2.0720     6.7680
 2386.4316    11.1370     2.0600     6.1670
 2386.5840    11.3220     2.0610     5.5520
 2386.7364    11.1150     2.0730     5.2230
 2386.8888    11.0730     2.0750     5.0430
 2387.0412    11.0550     2.0750     4.8950
 2387.1936    10.8170     2.0660     4.8600
 2387.3460    11.1730     2.0690     4.8600
 2387.4984    11.2880     2.0730     4.8010
 2387.6508    11.1090     2.0670     6.3000
 2387.8032    11.1000     2.0670     6.4260
 2387.9556    11.2590     2.0640     6.8080
 2388.1080    11.1840     2.0660     7.4530
 2388.2604    11.1260     2.0820     8.1490
 2388.4128    10.9450     2.0930     8.6520
 2388.5652    11.1220     2.0870     7.8260
 2388.7176    11.2870     2.0830     8.4000
 2388.8700    11.4000     2.0810     9.3890
 2389.0224    11.2600     2.0760    10.1130
 2389.1748    11.1870     2.0710     9.9300
 2389.3272    11.2050     2.0780     9.7640
 2389.4796    11.0150     2.0770     9.9830
 2389.6320    11.0210     2.0640     9.9140
 2389.7844    11.1740     2.0640     9.3350
 2389.9368    11.4580     2.0700     8.1500
 2390.0892    11.2010     2.0720     6.7920
 2390.2416    11.3400     2.0740     5.1650
 2390.3940    11.1490     2.0730     5.0610
 2390.5464    11.5720     2.0780     5.5260
 2390.6988    11.3350     2.0770     6.2800
 2390.8512    11.3310     2.0680     6.7990
 2391.0036    11.6370     2.0710     6.9790
 2391.1560    11.3340     2.0830     7.0210
 2391.3084    10.9670     2.0830     6.8020
 2391.4608    10.9790     2.0900     6.5740
 2391.6132    11.1180     2.0920     6.5120
 2391.7656    11.1290     2.0880     6.8280
 2391.9180    11.1410     2.0810     7.0180
 2392.0704    11.2290     2.0740     7.3760
 2392.2228    11.2760     2.0680     7.5600
 2392.3752    11.1550     2.0640     7.6840
 2392.5276    11.2350     2.0620     8.1270
 2392.6800    11.2070     2.0660     7.5360
 2392.8324    11.4220     2.0750     6.9040
 2392.9848    11.3210     2.0730     6.9410
 2393.1372    11.2200     2.0830     6.1540
 2393.2896    11.4630     2.1000     4.9960
 2393.4420    11.4250     2.0970     4.6200
 2393.5944    11.6170     2.0840     4.7470
 2393.7468    11.6520     2.0680     4.8950
 2393.8992    11.6400     2.0720     5.2030
 2394.0516    11.3930     2.0760     5.5380
 2394.2040    11.3080     2.0760     5.8780
 2394.3564    11.3050     2.0820     5.6590
 2394.5088    11.3680     2.0840     5.0050
 2394.6612    11.5630     2.0830     5.5220
 2394.8136    11.7130     2.0790     5.8800
 2394.9660    11.6270     2.0760     5.8400
 2395.1184    11.2660     2.0810     5.7840
 2395.2708    11.3200     2.0880     4.9660
 2395.4232    11.3990     2.1100     4.3830
 2395.5756    11.3640     2.1160     5.1910
 2395.7280    11.3050     2.0850     5.9030
 2395.8804    11.3460     2.0700     5.7440
 2396.0328    11.4370     2.0690     5.2570
 2396.1852    11.3140     2.0630     4.8290
 2396.3376    11.3500     2.0640     4.7550
 2396.4900    11.2940     2.0700     4.7880
 2396.6424    11.3930     2.0740     4.8050
 2396.7948    11.4060     2.0900     4.5110
 2396.9472    11.4470     2.0910     4.6350
 2397.0996    11.4260     2.0850     5.1590
 2397.2520    11.3100     2.0760     5.9980
 2397.4044    11.2820     2.0840     6.8870
 2397.5568    11.2730     2.0870     7.4300
 2397.7092    11.5020     2.0810     7.6020
 2397.8616    11.3460     2.0900     6.9030
 2398.0140    11.2410     2.0890     6.5500
 2398.1664    11.3620     2.0860     6.9640
 2398.3188    11.3690     2.0840     7.1120
 2398.4712    11.4770     2.0860     7.0730
 2398.6236    11.4040     2.0720     7.6230
 2398.7760    11.3120     2.0780     7.3030
 2398.9284    11.1940     2.0750     7.4290
 2399.0808    11.2870     2.0720     7.8590
 2399.2332    11.2010     2.0730     8.6190
 2399.3856    11.2110     2.0730     9.8390
 2399.5380    11.3520     2.0740     9.9250
 2399.6904    11.5280     2.0670     9.7140
 2399.8428    11.4300     2.0620     9.3110
 2399.9952    11.2060     2.0590     8.3740
 2400.1476    11.5170     2.0750     6.8160
 2400.3000    11.8490     2.0800     5.4600
 2400.4524    11.9500     2.0730     5.6030
 2400.6048    11.6220     2.0690     5.9620
 2400.7572    11.4340     2.0780     6.2080
 2400.9096    11.7870     2.0850     6.4660
 2401.0620    11.5280     2.0830     6.7730
 2401.2144    11.2110     2.0700     7.1120
 2401.3668    11.5740     2.0650     6.3440
 2401.5192    11.2780     2.0650     5.5660
 2401.6716    11.2920     2.0630     6.1790
 2401.8240    11.3290     2.0800     6.8630
 2401.9764    11.3100     2.0910     6.4160
 2402.1288    11.3500     2.0900     5.8080
 2402.2812    11.3250     2.0810     6.6330
 2402.4336    11.2780     2.0770     6.5590
 2402.5860    11.2890     2.0860     6.2700
 2402.7384    11.3540     2.0920     6.6710
 2402.8908    11.5710     2.0850     7.1210
 2403.0432    11.4680     2.0820     7.2110
 2403.1956    11.3320     2.0730     7.5060
 2403.3480    11.3930     2.0720     7.9390
 2403.5004    11.2950     2.0730     8.2360
 2403.6528    11.2580     2.0660     8.5970
 2403.8052    11.3210     2.0700     9.1160
 2403.9576    11.1670     2.0780     9.8620
 2404.1100    11.0390     2.0920     9.9920
 2404.2624    11.1270     2.0950     9.1360
 2404.4148    11.1860     2.0920     7.9280
 2404.5672    11.3010     2.0980     7.5470
 2404.7196    11.2310     2.1060     6.4320
 2404.8720    11.3500     2.0930     5.7290
 2405.0244    11.3040     2.0840     5.7600
 2405.1768    11.4650     2.0810     5.6330
 2405.3292    11.5860     2.0800     4.9890
 2405.4816    11.2230     2.0870     4.2320
