~VERSION INFORMATION
VERS.                                                 2.0:   CWLS Log ASCII Standard-VERSION 2.0
WRAP.                                                  NO:   One line per depth step
~Well Information Block
STRT.M                                            10.0584:   Top Depth
STOP.M                                          1400.8608:   Bottom Depth
STEP.M                                             .15240:   Depth Increment
NULL.                                            -999.250:   Null Value
FLD .                                          EEMSKANAAL:   Field Name
WELL.                                       EEMSKANAAL- 1:   NAME
EDF .m                                               5.58:   ELEV DRILL FLOOR
EPD .                                                   0:   ELEV PERM DATUM
EGL .m                                                -.9:   GROUND LEVEL
LMF .                                                  DF:   LOGS MEAS FROM
COMP.                                                 NAM:   OPERATOR
PDAT.                                                 NAP:   PERM DATUM
SPUD.                                          1970/11/08:   SPUD DATE
UWBI.                                      11000074112201:   UWBI
WELL.                                       EEMSKANAAL- 1:   HOLE NAME
~PARAMETER INFORMATION (log)
LNAM.                                RUN 02 RAW OH 14.75":   NAME
LTYP.                                                 02R:   LOG TYPE
LVSN.                                                   1:   LOG VERSION
BS  .3/4"                                              14:   BIT SIZE
BLI .M                                             1402.5:   BOTTOM DEPTH LOGGED
BHIS.                                            RCCCCCCC:   BRIEF HISTORY
FHIS.              RAW-TIGA/COPY/COPY/COPY/COPY/COPY/COPY:   FULL HISTORY
MRT .C                                                 50:   MAX REC TEMP
DFT .                                         CHALK WATER:   MUD TYPE
RMS .                                                1.44:   RM
MST .C                                                 11:   RM TEMP
RMCS.                                                1.93:   RMC
MCST.C                                                 19:   RMC TEMP
RMFS.                                               0.917:   RMF
MFST.C                                                 19:   RMF TEMP
TCS .                                                 N/A:   TIME SINCE CIRCLN
TLI .M                                                 10:   TOP DEPTH LOGGED
~Curve Information Block
#MNEM.UNIT                                        API CODE    No Description
#=========                                        ========    == ===========
DEPT.M                                       00 001 00 00:     1  DEPTH
BCSL.US/F                                                :     2  Interval Transit Time From Borehole Comp
GRIC.GAPI                                                :     3  GAMMA RAY LOG IN CASING
GRS.GAPI                                                 :     4  GAMMA RAY FROM SONIC LOG
~ASCII
# ...
 1369.1616    80.0160  -999.2500    13.3500
 1369.3140    79.2250  -999.2500    13.2760
 1369.4664    79.8510  -999.2500    12.7360
 1369.6188    80.8450  -999.2500    12.2740
 1369.7712    81.8020  -999.2500    12.3530
 1369.9236    81.4910  -999.2500    13.0010
 1370.0760    80.8440  -999.2500    13.4930
 1370.2284    80.3720  -999.2500    13.1600
 1370.3808    79.8750  -999.2500    12.3730
 1370.5332    79.7230  -999.2500    11.6350
 1370.6856    80.4660  -999.2500    11.1880
 1370.8380    81.2620  -999.2500    11.4000
 1370.9904    81.9110  -999.2500    11.9880
 1371.1428    81.4400  -999.2500    11.8950
 1371.2952    79.5740  -999.2500    11.4150
 1371.4476    78.6940  -999.2500    10.8390
 1371.6000    79.5900  -999.2500    10.5150
 1371.7524    80.9130  -999.2500    10.5160
 1371.9048    81.8380  -999.2500    10.5450
 1372.0572    81.4550  -999.2500    10.5110
 1372.2096    80.2160  -999.2500    10.4050
 1372.3620    80.0080  -999.2500    10.1220
 1372.5144    80.7620  -999.2500    10.2200
 1372.6668    80.9170  -999.2500    10.3950
 1372.8192    80.1430  -999.2500    10.2230
 1372.9716    79.3120  -999.2500     9.8930
 1373.1240    79.4380  -999.2500     9.5850
 1373.2764    80.8400  -999.2500     9.5850
 1373.4288    82.6760  -999.2500     9.5680
 1373.5812    81.3630  -999.2500     9.3180
 1373.7336    78.8390  -999.2500     8.7040
 1373.8860    77.3740  -999.2500     8.0370
 1374.0384    77.0280  -999.2500     7.8010
 1374.1908    76.9120  -999.2500     7.8780
 1374.3432    77.7530  -999.2500     8.2750
 1374.4956    78.9030  -999.2500     8.6480
 1374.6480    79.1010  -999.2500     9.0190
 1374.8004    79.5510  -999.2500     9.1650
 1374.9528    80.1450  -999.2500     9.3480
 1375.1052    80.6900  -999.2500     9.4110
 1375.2576    79.6370  -999.2500     9.6890
 1375.4100    79.1420  -999.2500    10.4430
 1375.5624    78.9490  -999.2500    11.4590
 1375.7148    79.7270  -999.2500    12.6010
 1375.8672    81.4820  -999.2500    13.4580
 1376.0196    82.7400  -999.2500    13.7490
 1376.1720    83.3370  -999.2500    13.7850
 1376.3244    83.3700  -999.2500    13.7850
 1376.4768    82.8070  -999.2500    13.7850
 1376.6292    83.5790  -999.2500    13.8070
 1376.7816    84.4120  -999.2500    13.8840
 1376.9340    83.8410  -999.2500    14.0820
 1377.0864    84.1700  -999.2500    14.6300
 1377.2388    83.8360  -999.2500    15.3840
 1377.3912    83.8490  -999.2500    16.1430
 1377.5436    84.7300  -999.2500    16.7530
 1377.6960    85.2280  -999.2500    17.1090
 1377.8484    85.6400  -999.2500    17.4940
 1378.0008    86.2620  -999.2500    17.5180
 1378.1532    86.1650  -999.2500    17.2730
 1378.3056    85.7580  -999.2500    17.4550
 1378.4580    85.7810  -999.2500    17.6950
 1378.6104    84.4990  -999.2500    17.9170
 1378.7628    84.1350  -999.2500    17.5110
 1378.9152    84.3100  -999.2500    16.7240
 1379.0676    84.5520  -999.2500    16.3080
 1379.2200    85.1840  -999.2500    16.1370
 1379.3724    86.1940  -999.2500    16.2280
 1379.5248    87.3660  -999.2500    16.6110
 1379.6772    88.5320  -999.2500    17.5620
 1379.8296    89.2610  -999.2500    18.7830
 1379.9820    88.9580  -999.2500    19.9540
 1380.1344    87.9130  -999.2500    21.7060
 1380.2868    87.1290  -999.2500    22.6290
 1380.4392    87.4450  -999.2500    22.0320
 1380.5916    88.1150  -999.2500    20.5640
 1380.7440    87.8030  -999.2500    19.7650
 1380.8964    87.2370  -999.2500    19.3710
 1381.0488    84.6850  -999.2500    18.8830
 1381.2012    83.2110  -999.2500    18.5850
 1381.3536    83.5810  -999.2500    18.5530
 1381.5060    84.8140  -999.2500    18.5290
 1381.6584    85.6980  -999.2500    18.5850
 1381.8108    85.0770  -999.2500    18.6190
 1381.9632    84.0230  -999.2500    18.0920
 1382.1156    83.2310  -999.2500    17.1950
 1382.2680    82.6270  -999.2500    16.7540
 1382.4204    84.1830  -999.2500    16.7250
 1382.5728    84.4960  -999.2500    16.8010
 1382.7252    83.3830  -999.2500    17.1460
 1382.8776    83.6420  -999.2500    17.8540
 1383.0300    83.0120  -999.2500    18.6810
 1383.1824    84.2640  -999.2500    19.1290
 1383.3348    85.3540  -999.2500    18.4100
 1383.4872    85.6010  -999.2500    17.9690
 1383.6396    86.5400  -999.2500    17.7480
 1383.7920    85.2630  -999.2500    17.6850
 1383.9444    84.0280  -999.2500    17.6850
 1384.0968    84.6760  -999.2500    17.4820
 1384.2492    83.5690  -999.2500    16.6760
 1384.4016    82.1830  -999.2500    16.2450
 1384.5540    82.6740  -999.2500    16.2450
 1384.7064    82.1050  -999.2500    16.6650
 1384.8588    81.1590  -999.2500    16.2590
 1385.0112    81.4210  -999.2500    15.5180
 1385.1636    81.0430  -999.2500    15.3930
 1385.3160    79.1370  -999.2500    15.5790
 1385.4684    79.2240  -999.2500    15.8790
 1385.6208    80.7540  -999.2500    16.2080
 1385.7732    81.9190  -999.2500    16.3990
 1385.9256    84.8850  -999.2500    17.7270
 1386.0780    86.3210  -999.2500    18.6730
 1386.2304    85.5860  -999.2500    19.6580
 1386.3828    86.1310  -999.2500    20.7670
 1386.5352    84.8640  -999.2500    21.2720
 1386.6876    84.1580  -999.2500    21.3990
 1386.8400    84.9160  -999.2500    21.0570
 1386.9924    84.6860  -999.2500    20.7640
 1387.1448    84.6180  -999.2500    21.9760
 1387.2972    85.0510  -999.2500    22.5400
 1387.4496    85.0170  -999.2500    21.9990
 1387.6020    83.9340  -999.2500    22.7320
 1387.7544    83.6440  -999.2500    22.8810
 1387.9068    84.0690  -999.2500    21.4640
 1388.0592    84.2830  -999.2500    19.8260
 1388.2116    84.2270  -999.2500    19.2620
 1388.3640    84.3450  -999.2500    19.4530
 1388.5164    84.0390  -999.2500    19.3500
 1388.6688    83.0310  -999.2500    19.0480
 1388.8212    83.1820  -999.2500    18.5700
 1388.9736    83.7730  -999.2500    18.2120
 1389.1260    83.9700  -999.2500    18.2350
 1389.2784    83.9290  -999.2500    19.1290
 1389.4308    83.4540  -999.2500    20.8870
 1389.5832    83.7980  -999.2500    20.5560
 1389.7356    84.8540  -999.2500    18.8130
 1389.8880    85.0420  -999.2500    18.0950
 1390.0404    84.4220  -999.2500    18.0580
 1390.1928    82.9310  -999.2500    18.4570
 1390.3452    81.9380  -999.2500    18.2980
 1390.4976    82.5050  -999.2500    17.6210
 1390.6500    82.6600  -999.2500    17.2650
 1390.8024    82.1860  -999.2500    17.2650
 1390.9548    81.2650  -999.2500    17.2650
 1391.1072    80.4320  -999.2500    17.1020
 1391.2596    80.1410  -999.2500    16.5250
 1391.4120    80.2580  -999.2500    16.0970
 1391.5644    80.9380  -999.2500    16.0050
 1391.7168    81.9500  -999.2500    16.1980
 1391.8692    82.3540  -999.2500    16.6360
 1392.0216    82.2030  -999.2500    16.5590
 1392.1740    81.9890  -999.2500    15.8440
 1392.3264    82.0870  -999.2500    16.7760
 1392.4788    81.4560  -999.2500    17.6500
 1392.6312    80.9930  -999.2500    18.2190
 1392.7836    82.2260  -999.2500    18.5550
 1392.9360    83.4320  -999.2500    18.6880
 1393.0884    84.4010  -999.2500    18.8180
 1393.2408    84.5620  -999.2500    18.8490
 1393.3932    84.8770  -999.2500    18.9410
 1393.5456    85.7770  -999.2500    19.4470
 1393.6980    86.3040  -999.2500    18.9860
 1393.8504    86.0720  -999.2500    19.2480
 1394.0028    85.1370  -999.2500    18.2560
 1394.1552    84.6000  -999.2500    17.5600
 1394.3076    84.5950  -999.2500    17.0620
 1394.4600    84.4980  -999.2500    16.9290
 1394.6124    83.2660  -999.2500    16.9200
 1394.7648    82.1750  -999.2500    17.1510
 1394.9172    82.1000  -999.2500    17.9400
 1395.0696    83.0970  -999.2500    19.2340
 1395.2220    83.7450  -999.2500    19.7980
 1395.3744    83.9280  -999.2500    19.8450
 1395.5268    83.3170  -999.2500    19.5110
 1395.6792    82.9710  -999.2500    19.0970
 1395.8316    83.0190  -999.2500    18.9950
 1395.9840    83.6440  -999.2500    19.0000
 1396.1364    84.1280  -999.2500    19.0270
 1396.2888    83.7510  -999.2500    19.3580
 1396.4412    83.7560  -999.2500    19.6010
 1396.5936    84.6440  -999.2500    18.9760
 1396.7460    85.7570  -999.2500    18.7100
