~VERSION INFORMATION
VERS.                                                 2.0:   CWLS Log ASCII Standard-VERSION 2.0
WRAP.                                                  NO:   One line per depth step
~Well Information Block
STRT.M                                          2769.1080:   Top Depth
STOP.M                                          2949.8544:   Bottom Depth
STEP.M                                             .15240:   Depth Increment
NULL.                                            -999.250:   Null Value
FLD .                                          EEMSKANAAL:   Field Name
WELL.                                       EEMSKANAAL- 2:   NAME
APD .M                                               5.62:   ABOVE PERM DATUM
CTRY.                                                  NE:   COUNTRY
EDF .m                                               5.62:   ELEV DRILL FLOOR
EPD .                                                   0:   ELEV PERM DATUM
EGL .m                                              -1.06:   GROUND LEVEL
LMF .                                                  DF:   LOGS MEAS FROM
COMP.                                                 NAM:   OPERATOR
PDAT.                                                 NAP:   PERM DATUM
SPUD.                                          1971/03/17:   SPUD DATE
STAT.                                           Unknown m:   STATE
UWBI.                                      11000074112601:   UWBI
WELL.                                       EEMSKANAAL- 2:   HOLE NAME
~PARAMETER INFORMATION (log)
LNAM.                                RUN 02 RAW OH 6 1/4":   NAME
LTYP.                                                 02R:   LOG TYPE
LVSN.                                                   1:   LOG VERSION
BS  .1/4"                                               6:   BIT SIZE
BLI .M                                             2942.0:   BOTTOM DEPTH LOGGED
BHIS.                                             RCCCCCC:   BRIEF HISTORY
FHIS.                   RAW-TIGA/COPY/COPY/COPY/COPY/COPY:   FULL HISTORY
MRT .DEGC                                              84:   MAX REC TEMP
DFD .G/CC                                            1.36:   MUD DENSITY
DFT .                                     SALT SAT UNICAL:   MUD TYPE
RMS .OHMM                                           0.031:   RM
MST .DEGC                                              12:   RM TEMP
RMCS.OHMM                                           0.136:   RMC
MCST. DEGC                                             12:   RMC TEMP
RMFS.OHMM                                           0.053:   RMF
MFST.DEGC                                              19:   RMF TEMP
TCS .                                                 N/A:   TIME SINCE CIRCLN
TLI .M                                             2772.0:   TOP DEPTH LOGGED
~Curve Information Block
#MNEM.UNIT                                        API CODE    No Description
#=========                                        ========    == ===========
DEPT.M                                       00 001 00 00:     1  DEPTH
CALF.IN                                                  :     2  CALIPER FROM FORMATION DENSITY LOG
FDC.G/C3                                                 :     3  Formation Density Log (Compensated Open
GR.API                                                   :     4  Gamma Ray
~ASCII
# ...
 2852.3184     6.3360     2.4610    29.7320
 2852.4708     6.3260     2.5040    32.7760
 2852.6232     6.3020     2.5360    34.8070
 2852.7756     6.2960     2.5360    35.0390
 2852.9280     6.2920     2.5250    35.7420
 2853.0804     6.2920     2.5200    35.3800
 2853.2328     6.2980     2.5300    33.3460
 2853.3852     6.3130     2.5470    30.3250
 2853.5376     6.3270     2.5290    28.3360
 2853.6900     6.3350     2.5200    27.6970
 2853.8424     6.3350     2.4920    27.8160
 2853.9948     6.3320     2.4940    27.1000
 2854.1472     6.3360     2.5120    26.0800
 2854.2996     6.3310     2.5260    26.6520
 2854.4520     6.3280     2.5010    28.4000
 2854.6044     6.3240     2.4850    29.6980
 2854.7568     6.3210     2.4770    30.5790
 2854.9092     6.3200     2.4910    30.5720
 2855.0616     6.3200     2.4650    29.7060
 2855.2140     6.3200     2.4280    28.4390
 2855.3664     6.3200     2.4280    28.2370
 2855.5188     6.3190     2.4480    31.2060
 2855.6712     6.3130     2.4580    32.9130
 2855.8236     6.3020     2.4570    33.4780
 2855.9760     6.2930     2.4710    33.3300
 2856.1284     6.2860     2.4810    32.4540
 2856.2808     6.2800     2.4880    32.0390
 2856.4332     6.2800     2.5030    33.1770
 2856.5856     6.2830     2.5120    38.5570
 2856.7380     6.2970     2.5170    49.6180
 2856.8904     6.3110     2.5510    65.0370
 2857.0428     6.3300     2.6190    87.1880
 2857.1952     6.3480     2.6920   120.4950
 2857.3476     6.3600     2.7050   125.8510
 2857.5000     6.3560     2.6770   114.8850
 2857.6524     6.3880     2.6700    96.7640
 2857.8048     6.4380     2.6390    74.9870
 2857.9572     6.4490     2.6310    55.5400
 2858.1096     6.4560     2.6010    44.9360
 2858.2620     6.4710     2.5540    45.5350
 2858.4144     6.4780     2.5560    47.9790
 2858.5668     6.4700     2.5570    48.1390
 2858.7192     6.4580     2.5470    47.9820
 2858.8716     6.4480     2.5550    40.4670
 2859.0240     6.4400     2.5540    35.1140
 2859.1764     6.4210     2.5360    34.8540
 2859.3288     6.3970     2.5270    35.1050
 2859.4812     6.3820     2.5060    32.1570
 2859.6336     6.3750     2.4810    29.4070
 2859.7860     6.3690     2.4560    28.3400
 2859.9384     6.3700     2.4490    27.3730
 2860.0908     6.3760     2.4380    25.7810
 2860.2432     6.3760     2.4270    25.5350
 2860.3956     6.3760     2.4330    26.7870
 2860.5480     6.3740     2.4410    27.1270
 2860.7004     6.3670     2.4300    26.0710
 2860.8528     6.3620     2.4400    26.8050
 2861.0052     6.3600     2.4630    28.3690
 2861.1576     6.3560     2.4700    29.0120
 2861.3100     6.3520     2.4810    30.4510
 2861.4624     6.3530     2.4880    28.2710
 2861.6148     6.3560     2.4650    27.1030
 2861.7672     6.3600     2.4520    28.5350
 2861.9196     6.3550     2.4800    29.5390
 2862.0720     6.3480     2.4860    29.4550
 2862.2244     6.3300     2.4610    28.5310
 2862.3768     6.3140     2.4460    30.0570
 2862.5292     6.3030     2.4650    31.9080
 2862.6816     6.2980     2.4580    33.0470
 2862.8340     6.2950     2.4530    34.4080
 2862.9864     6.2920     2.4650    35.6610
 2863.1388     6.2920     2.4720    35.7300
 2863.2912     6.2920     2.4810    36.5510
 2863.4436     6.2920     2.4950    38.0540
 2863.5960     6.2960     2.4900    39.1780
 2863.7484     6.3060     2.4530    34.3120
 2863.9008     6.3110     2.4290    32.1460
 2864.0532     6.3190     2.4280    35.9390
 2864.2056     6.3300     2.4540    39.4430
 2864.3580     6.3430     2.4870    34.5840
 2864.5104     6.3510     2.4900    30.1280
 2864.6628     6.3560     2.4840    29.6910
 2864.8152     6.3670     2.4960    30.9810
 2864.9676     6.3770     2.4880    30.9950
 2865.1200     6.3880     2.4930    29.4450
 2865.2724     6.3950     2.4910    28.6760
 2865.4248     6.3950     2.5110    29.6110
 2865.5772     6.3860     2.5240    31.3450
 2865.7296     6.3730     2.5000    28.7800
 2865.8820     6.3490     2.4880    26.2060
 2866.0344     6.3300     2.4850    25.2540
 2866.1868     6.3200     2.4840    25.3020
 2866.3392     6.3140     2.4760    25.9400
 2866.4916     6.3120     2.4930    26.8270
 2866.6440     6.3120     2.5140    27.7240
 2866.7964     6.3120     2.5140    28.5410
 2866.9488     6.3160     2.4770    27.8260
 2867.1012     6.3160     2.4640    27.3970
 2867.2536     6.3070     2.4660    28.6810
 2867.4060     6.2940     2.4790    30.4860
 2867.5584     6.2820     2.4790    31.0030
 2867.7108     6.2720     2.4780    33.1460
 2867.8632     6.2720     2.5300    34.6910
 2868.0156     6.2730     2.5730    33.4920
 2868.1680     6.2790     2.5660    30.5770
 2868.3204     6.2930     2.5170    27.9990
 2868.4728     6.3180     2.4720    25.5820
 2868.6252     6.3390     2.4180    23.5440
 2868.7776     6.3610     2.4070    22.4320
 2868.9300     6.3540     2.4010    22.5400
 2869.0824     6.3150     2.3990    23.7720
 2869.2348     6.2900     2.4060    24.6480
 2869.3872     6.2770     2.4210    24.8080
 2869.5396     6.2740     2.4200    24.6900
 2869.6920     6.2760     2.4170    24.8000
 2869.8444     6.2800     2.4160    24.9170
 2869.9968     6.2800     2.4020    24.6970
 2870.1492     6.2800     2.4010    24.1100
 2870.3016     6.2800     2.4080    23.1360
 2870.4540     6.2770     2.4390    22.4860
 2870.6064     6.2710     2.4720    22.3700
 2870.7588     6.2580     2.4600    22.9820
 2870.9112     6.2460     2.4620    23.9470
 2871.0636     6.2400     2.4560    24.7470
 2871.2160     6.2360     2.4250    25.0930
 2871.3684     6.2360     2.3960    24.8100
 2871.5208     6.2360     2.3850    24.3760
 2871.6732     6.2390     2.3960    24.1060
 2871.8256     6.2450     2.4180    24.2300
 2871.9780     6.2520     2.4290    24.5490
 2872.1304     6.2610     2.4460    24.5580
 2872.2828     6.2640     2.4310    24.0190
 2872.4352     6.2620     2.4190    24.2910
 2872.5876     6.2640     2.4250    25.4480
 2872.7400     6.2630     2.4270    25.8000
 2872.8924     6.2570     2.4180    25.4710
 2873.0448     6.2560     2.4310    26.6520
 2873.1972     6.2560     2.4470    26.2790
 2873.3496     6.2560     2.4480    25.3440
 2873.5020     6.2560     2.4420    25.0830
 2873.6544     6.2560     2.4450    25.3860
 2873.8068     6.2560     2.4560    25.8050
 2873.9592     6.2550     2.4620    25.7600
 2874.1116     6.2580     2.4570    25.2640
 2874.2640     6.2600     2.4350    25.0840
 2874.4164     6.2650     2.4280    25.4340
 2874.5688     6.2710     2.4310    24.5430
 2874.7212     6.2810     2.4120    24.3540
 2874.8736     6.2930     2.3800    24.5880
 2875.0260     6.3050     2.3650    24.1630
 2875.1784     6.3110     2.3490    24.1590
 2875.3308     6.3150     2.3690    24.7000
 2875.4832     6.3100     2.4130    25.7740
 2875.6356     6.2980     2.4640    27.8950
 2875.7880     6.2920     2.4950    29.9060
 2875.9404     6.2940     2.5010    27.7750
 2876.0928     6.2960     2.4730    27.5820
 2876.2452     6.3090     2.4110    25.3420
 2876.3976     6.3320     2.3850    23.6600
 2876.5500     6.3580     2.3980    23.1300
 2876.7024     6.3580     2.4380    23.4900
 2876.8548     6.3480     2.4650    23.9420
 2877.0072     6.3260     2.5060    24.0360
 2877.1596     6.3200     2.5210    30.5600
 2877.3120     6.3200     2.5280    36.3040
 2877.4644     6.3300     2.5390    38.6430
 2877.6168     6.3410     2.5140    33.3300
 2877.7692     6.3380     2.4740    30.2740
 2877.9216     6.3230     2.4550    28.6040
 2878.0740     6.2910     2.4500    27.8660
 2878.2264     6.2720     2.4600    27.6900
 2878.3788     6.2660     2.4830    27.7850
 2878.5312     6.2640     2.5140    27.6430
 2878.6836     6.2670     2.5240    26.6600
 2878.8360     6.2730     2.5060    25.2700
 2878.9884     6.2820     2.4690    24.4240
 2879.1408     6.2910     2.4510    24.0830
 2879.2932     6.3000     2.4350    24.1280
 2879.4456     6.3040     2.4330    24.2330
 2879.5980     6.3040     2.4210    23.0340
 2879.7504     6.3020     2.4080    21.8830
 2879.9028     6.3000     2.3980    21.9820
