~VERSION INFORMATION
VERS.                                                 2.0:   CWLS Log ASCII Standard-VERSION 2.0
WRAP.                                                  NO:   One line per depth step
~Well Information Block
STRT.M                                          2684.0688:   Top Depth
STOP.M                                          2930.9568:   Bottom Depth
STEP.M                                             .15240:   Depth Increment
NULL.                                            -999.250:   Null Value
FLD .                                          EEMSKANAAL:   Field Name
WELL.                                       EEMSKANAAL- 1:   NAME
EDF .m                                               5.58:   ELEV DRILL FLOOR
EPD .                                                   0:   ELEV PERM DATUM
EGL .m                                                -.9:   GROUND LEVEL
LMF .                                                  DF:   LOGS MEAS FROM
COMP.                                                 NAM:   OPERATOR
PDAT.                                                 NAP:   PERM DATUM
SPUD.                                          1970/11/08:   SPUD DATE
UWBI.                                      11000074112201:   UWBI
WELL.                                       EEMSKANAAL- 1:   HOLE NAME
~PARAMETER INFORMATION (log)
LNAM.                                RUN 08 RAW OH 9.625":   NAME
LTYP.                                                 08R:   LOG TYPE
LVSN.                                                   1:   LOG VERSION
BS  .5/8"                                               9:   BIT SIZE
BLI .M                                               2950:   BOTTOM DEPTH LOGGED
BHIS.                                              MCCCCC:   BRIEF HISTORY
FHIS.                           MERGE/COPY/COPY/COPY/COPY:   FULL HISTORY
MRT .                                                    :   MAX REC TEMP
DFT .                                          SALT SPERS:   MUD TYPE
RMS .                                               0.074:   RM
MST .C                                                 26:   RM TEMP
RMCS.                                               0.144:   RMC
MCST.C                                                 17:   RMC TEMP
RMFS.                                               0.059:   RMF
MFST.C                                                 26:   RMF TEMP
TCS .                                                 N/A:   TIME SINCE CIRCLN
TLI .M                                             1406.5:   TOP DEPTH LOGGED
~Curve Information Block
#MNEM.UNIT                                        API CODE    No Description
#=========                                        ========    == ===========
DEPT.M                                       00 001 00 00:     1  DEPTH
LL9D.OHMM                                                :     2  Dual Laterolog 9 deep
LL9S.OHMM                                                :     3  Dual Laterolog 9 shallow
MSFL.OHMM                                                :     4  MICRO SPHERICALLY FOCUSSED LOG
~ASCII
# ...
 2878.2264     8.3190     4.7670     1.2780
 2878.3788     8.2910     4.6120     1.2720
 2878.5312     7.5640     4.1570     1.3560
 2878.6836     6.6760     3.8810     1.3120
 2878.8360     6.4400     3.8150     1.2650
 2878.9884     6.4360     3.8050     1.2850
 2879.1408     6.4360     3.7970     1.2150
 2879.2932     6.4360     3.7640     1.0680
 2879.4456     6.4360     3.7340     1.1980
 2879.5980     6.4420     3.7140     1.2980
 2879.7504     6.5140     3.7820      .9400
 2879.9028     7.1260     4.0420      .7690
 2880.0552     7.0990     4.2370     1.2640
 2880.2076     6.3160     3.8290     1.2370
 2880.3600     5.4340     3.3510     1.3330
 2880.5124     5.0500     3.2030     1.3530
 2880.6648     5.0840     3.3770      .9910
 2880.8172     5.7750     4.0990      .9620
 2880.9696     7.1550     5.1680     1.1520
 2881.1220     8.3200     5.9280     2.1660
 2881.2744     7.8170     5.7230     4.3720
 2881.4268     5.9800     3.9680     3.4450
 2881.5792     5.7330     3.8410     1.9160
 2881.7316     6.1280     4.0260     1.0940
 2881.8840     7.7320     4.6640      .9780
 2882.0364     9.7080     5.8990     1.1110
 2882.1888    11.7480     7.1020     1.3700
 2882.3412    13.4690     7.8770     1.2150
 2882.4936    14.0300     8.4760     2.7520
 2882.6460    13.9670     8.7640     2.0030
 2882.7984    14.1940     9.1620     1.2170
 2882.9508    15.9770     9.9520     1.3320
 2883.1032    18.9030    10.4430     1.2390
 2883.2556    19.5460    10.6310     1.0460
 2883.4080    17.7570    10.4350     1.0440
 2883.5604    17.0690     9.9260     1.2030
 2883.7128    17.0150     9.8080     1.2410
 2883.8652    17.3920    10.0700     1.2420
 2884.0176    18.5410    10.5500     1.6480
 2884.1700    19.5840    10.9340     2.1400
 2884.3224    20.3670    10.9850     1.7200
 2884.4748    20.8030    10.7370     2.3880
 2884.6272    20.7700     9.9920     2.6270
 2884.7796    20.2140     9.3100     2.1480
 2884.9320    19.1730     8.5490     2.0860
 2885.0844    17.9620     7.8830     1.4290
 2885.2368    16.6250     7.6770     1.2200
 2885.3892    15.6090     7.6710     1.2570
 2885.5416    14.1700     7.7340     1.2820
 2885.6940    13.2610     7.3730     1.3190
 2885.8464    12.2610     6.6060     1.7140
 2885.9988    10.9410     5.9940     2.3870
 2886.1512     9.7900     5.8640     1.5140
 2886.3036     9.8540     5.8620     1.0550
 2886.4560    10.4920     6.1050      .7240
 2886.6084    11.3350     6.5660      .7000
 2886.7608    11.9940     6.6200      .7420
 2886.9132    12.4060     6.5610      .8770
 2887.0656    12.4460     6.3440     1.0470
 2887.2180    12.4190     6.2030     1.0880
 2887.3704    12.3920     6.2280     1.5160
 2887.5228    12.4050     6.3990     1.7280
 2887.6752    12.4660     6.7410     1.3910
 2887.8276    13.1870     7.2140     1.1980
 2887.9800    13.9570     7.5900     2.5980
 2888.1324    12.7040     7.0300     2.8990
 2888.2848    11.6280     6.4220     1.9840
 2888.4372    11.3500     6.1320     3.0330
 2888.5896    10.7140     5.9180     3.7200
 2888.7420    10.4870     5.7830     2.2270
 2888.8944    10.7190     5.8390     1.5160
 2889.0468    10.8800     5.9340     2.2160
 2889.1992    11.1010     5.9730     1.2510
 2889.3516    11.9950     6.2580     1.1200
 2889.5040    13.1510     6.8430     1.0420
 2889.6564    14.7990     7.8400     1.3180
 2889.8088    15.8100     8.4760     1.5290
 2889.9612    16.4390     8.7740     1.8720
 2890.1136    17.1880     8.8660     1.7240
 2890.2660    18.8070     8.9860     2.1620
 2890.4184    19.4340     8.9130     1.4670
 2890.5708    19.2810     8.6340     1.2780
 2890.7232    17.9240     8.1970     1.2070
 2890.8756    15.4320     7.5720     1.2990
 2891.0280    12.4470     7.1580     1.3220
 2891.1804    12.1690     7.0640     1.1930
 2891.3328    12.7890     7.3700     1.1760
 2891.4852    14.5450     7.8920     1.5430
 2891.6376    16.1100     8.1480     1.6290
 2891.7900    17.1840     8.1510     1.6810
 2891.9424    17.6170     8.0700     1.6360
 2892.0948    17.7070     7.9590     1.5830
 2892.2472    17.6720     7.7500     1.3960
 2892.3996    17.5810     7.5140     1.1970
 2892.5520    17.1970     7.1850     1.4540
 2892.7044    16.3210     7.0270     1.6150
 2892.8568    15.3760     7.1390     1.7230
 2893.0092    14.3400     6.8350     2.1300
 2893.1616    13.1710     6.4480     1.7030
 2893.3140    12.1250     6.0670     1.5740
 2893.4664    11.2680     5.7050     1.6760
 2893.6188    10.5490     5.3750     1.4180
 2893.7712     9.9590     5.1540     1.0310
 2893.9236     9.5470     4.9220     1.1560
 2894.0760     9.2630     4.7420      .8710
 2894.2284     9.0780     4.6480     1.2170
 2894.3808     9.0110     4.6360      .8860
 2894.5332     9.1560     4.6990      .8410
 2894.6856     9.3180     4.8910     1.0150
 2894.8380     9.1370     4.8160      .9260
 2894.9904     8.6900     4.6800      .9420
 2895.1428     8.2980     4.5100     1.0400
 2895.2952     8.0140     4.3680     1.3430
 2895.4476     8.0890     4.3890      .8840
 2895.6000     8.3840     4.4980      .7120
 2895.7524     8.6140     4.5410      .7710
 2895.9048     8.6140     4.6350      .9230
 2896.0572     8.8640     4.9260     1.1200
 2896.2096     9.7520     5.6860     1.3210
 2896.3620    11.8450     7.8550     2.1640
 2896.5144    17.0200    10.0210     2.6420
 2896.6668    23.6270    11.7630     2.6010
 2896.8192    24.9890    12.1300     4.1980
 2896.9716    20.9590     9.6360     6.2000
 2897.1240    16.0370     6.9130     6.8000
 2897.2764    13.6300     6.6000     3.2970
 2897.4288    12.8520     6.5770     2.3290
 2897.5812    12.7990     6.7180     2.0180
 2897.7336    13.5220     7.4760     1.2230
 2897.8860    14.4440     8.4460     1.5210
 2898.0384    14.5270     9.0790     1.5080
 2898.1908    15.0190     9.3700     1.9860
 2898.3432    16.8720     9.4600     1.9880
 2898.4956    17.3540     8.7160     1.7080
 2898.6480    15.8520     7.7140     2.0260
 2898.8004    14.5270     7.4110     1.3320
 2898.9528    14.1750     7.8470     1.0500
 2899.1052    15.1580     9.0640      .8590
 2899.2576    17.3410     9.8400     1.1330
 2899.4100    19.1990     8.8970     2.2880
 2899.5624    17.6300     7.8470     3.2620
 2899.7148    16.3250     7.7700     2.8700
 2899.8672    16.4590     8.0430     2.1110
 2900.0196    17.3870     8.6780     1.6670
 2900.1720    18.7900    10.3740     1.7160
 2900.3244    21.0120    11.3160     1.7530
 2900.4768    23.3030    11.4350     2.0390
 2900.6292    23.4040    11.3170     2.0360
 2900.7816    22.3580    11.0100     2.0860
 2900.9340    19.7660    10.5210     1.7710
 2901.0864    17.7610     9.6470     1.5510
 2901.2388    16.4840     8.5040     1.5470
 2901.3912    15.3020     7.8290     1.5480
 2901.5436    14.9310     7.7510     1.2170
 2901.6960    15.2710     7.8840     1.7880
 2901.8484    17.0780     8.7900     1.7120
 2902.0008    19.2460    10.8160     1.0150
 2902.1532    22.1600    11.6190      .8950
 2902.3056    22.0820    11.5000      .7510
 2902.4580    18.2220     9.4160      .7950
 2902.6104    10.9880     6.0660      .9780
 2902.7628    10.4970     5.7950     1.3810
 2902.9152    10.3980     5.8220     1.0740
 2903.0676    10.7980     6.0620     1.1470
 2903.2200    12.2030     6.8160     1.9160
 2903.3724    12.0980     6.8160     4.4510
 2903.5248     9.7710     4.9760     4.1560
 2903.6772     7.9480     4.1230     2.6520
 2903.8296     6.6980     3.7380     1.3360
 2903.9820     6.2310     3.5650     1.7530
 2904.1344     5.9860     3.5470     1.6080
 2904.2868     6.0260     3.5910     1.4560
 2904.4392     6.4710     3.7110     1.4230
 2904.5916     7.3780     4.0230     1.4480
 2904.7440     7.8220     4.0990     1.5800
 2904.8964     6.8760     3.7530     1.7620
 2905.0488     5.4400     2.8900     3.1860
 2905.2012     4.8440     2.6200     3.4400
 2905.3536     5.3380     2.6450     1.2860
 2905.5060     6.0350     2.8730     1.4430
 2905.6584     6.8690     3.4900      .9720
 2905.8108     7.2630     3.9840     1.3860
