~VERSION INFORMATION
VERS.                                                 2.0:   CWLS Log ASCII Standard-VERSION 2.0
WRAP.                                                  NO:   One line per depth step
~Well Information Block
STRT.M                                          2684.0688:   Top Depth
STOP.M                                          2930.9568:   Bottom Depth
STEP.M                                             .15240:   Depth Increment
NULL.                                            -999.250:   Null Value
FLD .                                          EEMSKANAAL:   Field Name
WELL.                                       EEMSKANAAL- 1:   NAME
EDF .m                                               5.58:   ELEV DRILL FLOOR
EPD .                                                   0:   ELEV PERM DATUM
EGL .m                                                -.9:   GROUND LEVEL
LMF .                                                  DF:   LOGS MEAS FROM
COMP.                                                 NAM:   OPERATOR
PDAT.                                                 NAP:   PERM DATUM
SPUD.                                          1970/11/08:   SPUD DATE
UWBI.                                      11000074112201:   UWBI
WELL.                                       EEMSKANAAL- 1:   HOLE NAME
~PARAMETER INFORMATION (log)
LNAM.                                RUN 08 RAW OH 9.625":   NAME
LTYP.                                                 08R:   LOG TYPE
LVSN.                                                   1:   LOG VERSION
BS  .5/8"                                               9:   BIT SIZE
BLI .M                                               2950:   BOTTOM DEPTH LOGGED
BHIS.                                              MCCCCC:   BRIEF HISTORY
FHIS.                           MERGE/COPY/COPY/COPY/COPY:   FULL HISTORY
MRT .                                                    :   MAX REC TEMP
DFT .                                          SALT SPERS:   MUD TYPE
RMS .                                               0.074:   RM
MST .C                                                 26:   RM TEMP
RMCS.                                               0.144:   RMC
MCST.C                                                 17:   RMC TEMP
RMFS.                                               0.059:   RMF
MFST.C                                                 26:   RMF TEMP
TCS .                                                 N/A:   TIME SINCE CIRCLN
TLI .M                                             1406.5:   TOP DEPTH LOGGED
~Curve Information Block
#MNEM.UNIT                                        API CODE    No Description
#=========                                        ========    == ===========
DEPT.M                                       00 001 00 00:     1  DEPTH
LL9D.OHMM                                                :     2  Dual Laterolog 9 deep
LL9S.OHMM                                                :     3  Dual Laterolog 9 shallow
MSFL.OHMM                                                :     4  MICRO SPHERICALLY FOCUSSED LOG
~ASCII
# ...
 2739.5424    16.5300    13.9660     8.3270
 2739.6948     7.6820     8.5100     6.2090
 2739.8472     5.5670     6.4020     3.8680
 2739.9996     4.2700     5.6020     1.2170
 2740.1520     3.8910     5.3100     3.1870
 2740.3044     3.3980     4.3030     5.0170
 2740.4568     2.2760     3.0090     4.2230
 2740.6092     1.7650     2.3860     8.3900
 2740.7616     1.5420     2.2480     8.7890
 2740.9140     1.4440     2.0790     3.0230
 2741.0664     1.4500     1.9310     3.6810
 2741.2188     1.4900     2.0080     6.2500
 2741.3712     1.4130     1.8650     3.0250
 2741.5236     1.1570     1.3930     2.9260
 2741.6760      .9420     1.2770     2.4030
 2741.8284      .8360     1.2030     1.3860
 2741.9808      .7760     1.1310     1.9430
 2742.1332      .6800     1.0280     1.8710
 2742.2856      .5170      .7430     1.3000
 2742.4380      .4570      .6280     1.0780
 2742.5904      .4460      .5970     1.2130
 2742.7428      .4380      .5900     1.0750
 2742.8952      .3910      .5540      .7460
 2743.0476     3.1110     4.2940     5.2580
 2743.2000     3.2140     4.3710     4.4400
 2743.3524     3.6080     4.5660     4.0610
 2743.5048     3.8600     4.7240     5.3410
 2743.6572     4.1060     4.9330     4.4970
 2743.8096     4.4920     5.3240     3.9750
 2743.9620     4.9510     5.7070     5.2870
 2744.1144     5.4190     6.0710     3.6770
 2744.2668     6.1280     6.5750     6.5240
 2744.4192     6.7040     6.7990     7.0790
 2744.5716     6.2230     6.3520     5.2830
 2744.7240     4.8740     5.6110     8.6570
 2744.8764     4.0560     4.7480    17.6880
 2745.0288     3.4400     3.7770    15.5900
 2745.1812     3.3140     3.5630     3.9100
 2745.3336     3.2980     3.5760     3.2750
 2745.4860     3.3270     3.6450     3.5200
 2745.6384     3.5170     3.8000     3.4470
 2745.7908     3.9050     4.0100     3.0800
 2745.9432     4.5110     4.5660     3.4750
 2746.0956     5.1330     5.2900     4.8270
 2746.2480     5.6690     5.9240     5.0170
 2746.4004     6.0340     6.0610     5.4360
 2746.5528     5.8120     5.3190     7.6830
 2746.7052     5.2710     4.5470     5.1460
 2746.8576     4.2970     4.0060     7.4980
 2747.0100     3.9080     3.7820     5.1940
 2747.1624     3.9040     3.7360     4.9220
 2747.3148     3.9950     3.8580     3.8510
 2747.4672     4.1110     3.9440     3.5380
 2747.6196     4.0920     3.8990     4.1150
 2747.7720     3.9040     3.6660     4.9760
 2747.9244     3.7750     3.5780     4.3650
 2748.0768     3.9080     3.7040     3.2930
 2748.2292     4.3240     4.1170     3.4160
 2748.3816     4.9480     4.8590     3.9830
 2748.5340     5.8180     5.6890     4.7360
 2748.6864     6.5140     6.1350     5.4330
 2748.8388     6.0970     5.6870     7.1960
 2748.9912     4.9700     4.5860    12.9640
 2749.1436     4.1490     3.4700     9.7260
 2749.2960     3.7060     3.2910     4.8820
 2749.4484     3.6210     3.3080     3.7360
 2749.6008     3.6400     3.3980     3.7350
 2749.7532     3.7640     3.6210     3.8100
 2749.9056     3.9860     3.9070     3.8430
 2750.0580     4.4300     4.2270     3.6980
 2750.2104     4.9080     4.5150     3.5820
 2750.3628     5.1470     4.5900     4.7690
 2750.5152     5.2850     4.5860     5.3710
 2750.6676     5.4920     4.7610     5.3080
 2750.8200     5.7210     4.9120     6.4460
 2750.9724     5.9170     4.9410     5.3860
 2751.1248     6.0620     5.2040    11.8150
 2751.2772     6.0440     5.1400     7.0790
 2751.4296     5.9140     4.8090     6.6400
 2751.5820     5.6890     4.6270     6.8370
 2751.7344     5.4450     4.5000     6.2250
 2751.8868     5.0760     4.2100     7.7780
 2752.0392     4.3810     3.6090     4.6640
 2752.1916     4.1790     3.4170     5.7470
 2752.3440     4.1350     3.4170     4.5780
 2752.4964     4.1960     3.6230     3.1070
 2752.6488     4.4470     3.7170     4.7920
 2752.8012     4.5290     3.5870     4.5710
 2752.9536     4.2620     3.2650     5.4460
 2753.1060     3.9060     2.9570     4.7380
 2753.2584     3.5100     2.6920     2.9550
 2753.4108     3.2720     2.5750     2.9960
 2753.5632     3.2520     2.5700     3.0800
 2753.7156     3.3840     2.6270     2.9800
 2753.8680     3.8320     2.8900     2.8150
 2754.0204     4.3510     3.3490     2.7710
 2754.1728     4.6030     3.5200     3.0590
 2754.3252     4.5090     3.3440     4.5200
 2754.4776     4.1790     3.0760     4.2390
 2754.6300     3.9480     2.9690     3.5590
 2754.7824     3.9480     3.0210     2.9760
 2754.9348     4.1790     3.1540     3.1800
 2755.0872     4.3800     3.3060     3.8980
 2755.2396     4.5480     3.4670     3.6790
 2755.3920     4.6940     3.6090     3.2650
 2755.5444     4.7390     3.6460     3.5990
 2755.6968     4.6860     3.6070     3.1950
 2755.8492     4.5160     3.4630     4.9020
 2756.0016     4.3270     3.3460     4.4170
 2756.1540     4.3580     3.3290     4.0520
 2756.3064     4.4630     3.4100     3.2550
 2756.4588     4.4820     3.5440     2.7760
 2756.6112     4.4930     3.5880     2.5140
 2756.7636     4.6270     3.5910     2.9050
 2756.9160     4.6100     3.5180     3.8110
 2757.0684     4.5940     3.4880     3.0880
 2757.2208     4.7210     3.5190     2.5130
 2757.3732     4.6970     3.5660     4.1690
 2757.5256     4.7540     3.6690     4.2280
 2757.6780     4.9730     3.8650     2.8960
 2757.8304     5.1440     4.0500     2.8840
 2757.9828     5.0840     4.0560     3.0870
 2758.1352     4.7200     3.8260     3.1030
 2758.2876     4.1990     3.4720     2.9010
 2758.4400     3.8650     3.2070     2.6110
 2758.5924     3.8520     3.1480     1.9360
 2758.7448     4.0470     3.2490     1.3920
 2758.8972     4.1480     3.4070     1.6590
 2759.0496     4.1100     3.4110     2.7700
 2759.2020     4.0560     3.3860     2.5720
 2759.3544     4.0080     3.3380     1.1090
 2759.5068     3.9950     3.3580     1.0340
 2759.6592     4.0430     3.6050     1.7340
 2759.8116     4.2350     3.9630     1.2060
 2759.9640     4.8260     4.6100     1.8120
 2760.1164     5.7120     5.3410     2.8050
 2760.2688     6.5940     5.8770     3.9340
 2760.4212     7.1600     6.1580     4.1410
 2760.5736     7.1940     6.1700     3.8240
 2760.7260     6.8420     5.8120     2.9990
 2760.8784     6.5130     5.5400     2.4170
 2761.0308     6.5120     5.5570     5.5870
 2761.1832     6.8000     5.9730     4.0810
 2761.3356     8.5960     7.5840     1.3130
 2761.4880    12.7940     9.2430     3.0690
 2761.6404    15.4570    11.6600     7.6940
 2761.7928    15.4170    13.2920    13.7000
 2761.9452    12.3530    10.6920    11.5450
 2762.0976     9.8000     7.8910    11.6410
 2762.2500     8.6830     6.9320     9.7430
 2762.4024     7.7350     6.1510     6.2630
 2762.5548     7.1900     5.7400     6.8430
 2762.7072     6.9760     5.4770     3.8730
 2762.8596     7.0780     5.4050     4.5070
 2763.0120     7.6420     5.5740     2.7490
 2763.1644     8.2560     5.9840     2.4590
 2763.3168     8.2570     5.9960     3.7360
 2763.4692     7.7840     5.6670     3.2220
 2763.6216     7.2470     5.1240     2.9110
 2763.7740     6.7980     4.6390     3.3970
 2763.9264     6.7380     4.5460     2.1930
 2764.0788     7.1790     4.6250     2.0680
 2764.2312     7.6970     4.9490     1.8100
 2764.3836     8.1140     5.2560     1.4790
 2764.5360     8.2390     5.2890     2.1310
 2764.6884     8.2470     5.1810     1.6620
 2764.8408     8.1610     4.9330     1.7270
 2764.9932     8.0070     4.6700     1.9580
 2765.1456     7.7360     4.3950     1.9580
 2765.2980     7.4550     4.1770     1.9460
 2765.4504     7.1880     4.0660     1.7780
 2765.6028     7.0120     4.0360     1.9980
 2765.7552     7.0540     4.1390     1.7600
 2765.9076     7.2790     4.3340     1.1850
 2766.0600     7.5890     4.4730     1.1410
 2766.2124     7.7590     4.6080     1.3050
 2766.3648     7.8120     4.7160     1.3430
 2766.5172     7.8130     4.7620     1.0230
 2766.6696     7.7260     4.7350     1.0380
 2766.8220     7.4220     4.6410     1.3160
 2766.9744     7.0400     4.5500     1.1330
 2767.1268     7.1100     4.8030     1.1460
