~VERSION INFORMATION
VERS.                                                 2.0:   CWLS Log ASCII Standard-VERSION 2.0
WRAP.                                                  NO:   One line per depth step
~Well Information Block
STRT.M                                          1789.0236:   Top Depth
STOP.M                                          2779.9284:   Bottom Depth
STEP.M                                             .15240:   Depth Increment
NULL.                                            -999.250:   Null Value
FLD .                                          EEMSKANAAL:   Field Name
WELL.                                       EEMSKANAAL- 2:   NAME
APD .M                                               5.62:   ABOVE PERM DATUM
CTRY.                                                  NE:   COUNTRY
EDF .m                                               5.62:   ELEV DRILL FLOOR
EPD .                                                   0:   ELEV PERM DATUM
EGL .m                                              -1.06:   GROUND LEVEL
LMF .                                                  DF:   LOGS MEAS FROM
COMP.                                                 NAM:   OPERATOR
PDAT.                                                 NAP:   PERM DATUM
SPUD.                                          1971/03/17:   SPUD DATE
STAT.                                           Unknown m:   STATE
UWBI.                                      11000074112601:   UWBI
WELL.                                       EEMSKANAAL- 2:   HOLE NAME
~PARAMETER INFORMATION (log)
LNAM.                                RUN 01 RAW OH 9 5/8":   NAME
LTYP.                                                 01R:   LOG TYPE
LVSN.                                                   1:   LOG VERSION
BS  .5/8"                                               9:   BIT SIZE
BLI .M                                             2778.0:   BOTTOM DEPTH LOGGED
BHIS.                                                MCCC:   BRIEF HISTORY
FHIS.                                     MERGE/COPY/COPY:   FULL HISTORY
MRT .DEGC                                              84:   MAX REC TEMP
DFD .G/CC                                            1.54:   MUD DENSITY
DFT .                                   SALT SAT SPERSENE:   MUD TYPE
RMS .                                                    :   RM
MST .                                                    :   RM TEMP
RMCS.                                                    :   RMC
MCST.                                                    :   RMC TEMP
RMFS.                                                    :   RMF
MFST.                                                    :   RMF TEMP
TCS .                                                 N/A:   TIME SINCE CIRCLN
TLI .M                                             1800.0:   TOP DEPTH LOGGED
~Curve Information Block
#MNEM.UNIT                                        API CODE    No Description
#=========                                        ========    == ===========
DEPT.M                                       00 001 00 00:     1  DEPTH
CALF.IN                                                  :     2  CALIPER FROM FORMATION DENSITY LOG
FDC.G/C3                                                 :     3  Formation Density Log (Compensated Open
GR.API                                                   :     4  Gamma Ray
~ASCII
# ...
 1872.2340    10.1020     2.0260    12.6800
 1872.3864    10.1010     2.0250    12.6400
 1872.5388    10.1070     2.0250    13.1040
 1872.6912    10.1130     2.0390    11.5630
 1872.8436    10.1190     2.0510    10.8670
 1872.9960    10.1300     2.0510    10.7110
 1873.1484    10.1340     2.0540    11.4760
 1873.3008    10.1250     2.0520    12.7990
 1873.4532    10.1110     2.0470    13.3950
 1873.6056    10.1020     2.0450    13.3850
 1873.7580    10.1030     2.0400    13.8270
 1873.9104    10.1050     2.0280    15.0780
 1874.0628    10.1110     2.0220    16.8340
 1874.2152    10.1170     2.0160    18.4200
 1874.3676    10.1210     2.0160    17.4130
 1874.5200    10.1280     2.0210    15.6300
 1874.6724    10.1330     2.0210    14.4210
 1874.8248    10.1330     2.0180    13.5800
 1874.9772    10.1290     2.0190    13.1720
 1875.1296    10.1010     2.0270    13.1160
 1875.2820    10.0810     2.0380    13.0580
 1875.4344    10.0740     2.0500    11.4920
 1875.5868    10.0770     2.0470     8.0210
 1875.7392    10.0850     2.0440     7.1990
 1875.8916    10.0890     2.0510     7.2170
 1876.0440    10.0920     2.0570     7.5020
 1876.1964    10.0930     2.0570     7.8220
 1876.3488    10.0880     2.0600     7.7640
 1876.5012    10.0810     2.0640     7.3140
 1876.6536    10.0740     2.0600     6.6310
 1876.8060    10.0690     2.0620     5.9780
 1876.9584    10.0690     2.0560     5.4910
 1877.1108    10.0690     2.0510     5.2700
 1877.2632    10.0700     2.0470     5.3760
 1877.4156    10.0730     2.0490     5.5110
 1877.5680    10.0760     2.0480     5.7780
 1877.7204    10.0750     2.0460     6.1960
 1877.8728    10.0710     2.0510     6.5660
 1878.0252    10.0680     2.0490     6.7050
 1878.1776    10.0650     2.0510     6.8080
 1878.3300    10.0650     2.0510     7.2400
 1878.4824    10.0650     2.0520     7.9650
 1878.6348    10.0670     2.0520     8.2700
 1878.7872    10.0720     2.0540     8.3420
 1878.9396    10.0770     2.0640     8.7500
 1879.0920    10.0840     2.0580     9.1190
 1879.2444    10.0850     2.0670     9.0830
 1879.3968    10.0890     2.0710     8.5640
 1879.5492    10.0890     2.0760     8.1020
 1879.7016    10.0890     2.0740     7.9980
 1879.8540    10.0910     2.0660     6.9040
 1880.0064    10.0960     2.0620     6.2940
 1880.1588    10.1000     2.0590     6.3070
 1880.3112    10.1030     2.0530     6.6490
 1880.4636    10.1050     2.0640     7.3690
 1880.6160    10.1010     2.0770     8.2460
 1880.7684    10.1010     2.0770     9.1650
 1880.9208    10.1010     2.0650     9.9390
 1881.0732    10.1010     2.0490    10.1780
 1881.2256    10.0980     2.0420    10.1970
 1881.3780    10.0990     2.0420    10.8000
 1881.5304    10.1010     2.0480    10.6120
 1881.6828    10.1010     2.0550     9.7570
 1881.8352    10.1010     2.0540     9.5050
 1881.9876    10.1000     2.0410     9.4950
 1882.1400    10.0970     2.0380     8.8740
 1882.2924    10.0970     2.0420     8.2070
 1882.4448    10.0970     2.0410     8.7350
 1882.5972    10.0930     2.0420     8.7310
 1882.7496    10.0930     2.0550     8.8190
 1882.9020    10.0930     2.0570     9.5100
 1883.0544    10.0920     2.0570    10.7010
 1883.2068    10.0890     2.0510    11.6530
 1883.3592    10.0890     2.0490    11.8350
 1883.5116    10.0890     2.0480    11.8320
 1883.6640    10.0890     2.0500    11.8050
 1883.8164    10.0890     2.0540    11.7780
 1883.9688    10.0940     2.0470    11.2530
 1884.1212    10.0960     2.0490    11.4960
 1884.2736    10.0900     2.0440    12.2520
 1884.4260    10.0900     2.0400    12.5560
 1884.5784    10.0860     2.0460    10.2410
 1884.7308    10.0750     2.0540     9.0260
 1884.8832    10.0970     2.0590     8.8000
 1885.0356    10.1010     2.0520     8.9180
 1885.1880    10.0970     2.0500     9.3450
 1885.3404    10.0970     2.0480     9.9440
 1885.4928    10.0970     2.0470    10.6170
 1885.6452    10.0970     2.0500    11.0530
 1885.7976    10.0970     2.0490    11.1010
 1885.9500    10.1060     2.0460    10.6570
 1886.1024    10.1120     2.0450    10.8250
 1886.2548    10.1180     2.0480    11.3930
 1886.4072    10.0950     2.0490    11.7040
 1886.5596    10.1120     2.0510    11.5470
 1886.7120    10.1390     2.0490    11.2540
 1886.8644    10.1240     2.0520    10.2630
 1887.0168    10.0950     2.0550     9.4820
 1887.1692    10.0850     2.0560     9.4800
 1887.3216    10.0790     2.0520    10.1290
 1887.4740    10.0830     2.0450    10.6810
 1887.6264    10.0880     2.0390     9.7310
 1887.7788    10.0850     2.0330     9.2530
 1887.9312    10.0860     2.0360    10.1850
 1888.0836    10.0890     2.0380    11.2440
 1888.2360    10.0890     2.0340    12.1290
 1888.3884    10.0890     2.0420    12.7570
 1888.5408    10.0880     2.0570    12.0620
 1888.6932    10.0850     2.0680    11.1740
 1888.8456    10.0840     2.0690    11.1860
 1888.9980    10.0820     2.0590    10.0880
 1889.1504    10.0880     2.0610     9.9920
 1889.3028    10.0910     2.0650    10.0270
 1889.4552    10.0930     2.0480     9.7180
 1889.6076    10.0910     2.0410    10.0150
 1889.7600    10.0890     2.0410    10.8690
 1889.9124    10.0890     2.0410    10.4860
 1890.0648    10.0890     2.0400    10.3800
 1890.2172    10.0820     2.0370    12.5700
 1890.3696    10.0780     2.0410    16.4950
 1890.5220    10.0800     2.0440    20.0760
 1890.6744    10.0740     2.0380    22.1160
 1890.8268    10.0770     2.0410    20.9610
 1890.9792    10.0820     2.0480    19.0920
 1891.1316    10.0840     2.0480    17.6030
 1891.2840    10.0850     2.0550    16.0100
 1891.4364    10.0850     2.0590    14.2660
 1891.5888    10.0850     2.0500    12.1500
 1891.7412    10.0850     2.0510    10.8270
 1891.8936    10.0850     2.0550    11.6500
 1892.0460    10.0850     2.0510    14.0630
 1892.1984    10.0830     2.0440    16.0160
 1892.3508    10.0810     2.0440    14.9930
 1892.5032    10.0810     2.0360    13.3890
 1892.6556    10.0770     2.0370    13.2230
 1892.8080    10.0740     2.0430    13.4850
 1892.9604    10.0700     2.0460    14.2830
 1893.1128    10.0690     2.0470    15.4190
 1893.2652    10.0690     2.0470    17.7140
 1893.4176    10.0680     2.0590    21.1570
 1893.5700    10.0650     2.0620    23.7780
 1893.7224    10.0610     2.0630    23.9250
 1893.8748    10.0610     2.0510    20.5380
 1894.0272    10.0570     2.0430    18.9940
 1894.1796    10.0570     2.0430    18.2990
 1894.3320    10.0570     2.0380    18.3700
 1894.4844    10.0570     2.0500    20.3580
 1894.6368    10.0570     2.0640    20.9030
 1894.7892    10.0570     2.0790    20.6110
 1894.9416    10.0510     2.0910    15.8950
 1895.0940    10.0440     2.1150    12.6530
 1895.2464    10.0350     2.1390    10.3390
 1895.3988    10.0200     2.1630     8.5770
 1895.5512    10.0050     2.1820     7.7430
 1895.7036     9.9890     2.1940     7.6880
 1895.8560     9.9760     2.2020     8.2070
 1896.0084     9.9660     2.1970     9.0050
 1896.1608     9.9650     2.1880     9.6640
 1896.3132     9.9620     2.1870    10.1350
 1896.4656     9.9680     2.1770     9.9440
 1896.6180     9.9650     2.2170     8.3980
 1896.7704     9.9620     2.2660     6.7630
 1896.9228     9.9590     2.3200     5.7620
 1897.0752     9.9570     2.3980     5.1890
 1897.2276     9.9570     2.4650     4.8900
 1897.3800     9.9570     2.6210     5.0100
 1897.5324     9.9520     2.7290     5.5320
 1897.6848     9.9460     2.8510     6.1900
 1897.8372     9.9450     2.8640     6.9420
 1897.9896     9.9450     2.8350     7.6050
 1898.1420     9.9450     2.8040     9.7230
 1898.2944     9.9450     2.7640    14.7350
 1898.4468     9.9430     2.6540    21.4300
 1898.5992     9.9410     2.5870    33.4230
 1898.7516     9.9690     2.4740    47.4170
 1898.9040    10.1720     2.3320    55.1910
 1899.0564    10.0060     2.1720    58.2500
 1899.2088    10.3380     2.1460    60.5640
 1899.3612    10.6620     2.1570    62.5750
 1899.5136    10.8070     2.1730    64.2630
 1899.6660    10.8390     2.1850    64.3020
 1899.8184    10.3090     2.1800    63.3630
