~VERSION INFORMATION
VERS.                                                 2.0:   CWLS Log ASCII Standard-VERSION 2.0
WRAP.                                                  NO:   One line per depth step
~Well Information Block
STRT.M                                           836.5236:   Top Depth
STOP.M                                          2800.0452:   Bottom Depth
STEP.M                                             .15240:   Depth Increment
NULL.                                            -999.250:   Null Value
FLD .                                          EEMSKANAAL:   Field Name
WELL.                                       EEMSKANAAL- 2:   NAME
APD .M                                               5.62:   ABOVE PERM DATUM
CTRY.                                                  NE:   COUNTRY
EDF .m                                               5.62:   ELEV DRILL FLOOR
EPD .                                                   0:   ELEV PERM DATUM
EGL .m                                              -1.06:   GROUND LEVEL
LMF .                                                  DF:   LOGS MEAS FROM
COMP.                                                 NAM:   OPERATOR
PDAT.                                                 NAP:   PERM DATUM
SPUD.                                          1971/03/17:   SPUD DATE
STAT.                                           Unknown m:   STATE
UWBI.                                      11000074112601:   UWBI
WELL.                                       EEMSKANAAL- 2:   HOLE NAME
~PARAMETER INFORMATION (log)
LNAM.                              RUN 04 RAW CH OCT 2002:   NAME
LTYP.                                                 04R:   LOG TYPE
LVSN.                                                   1:   LOG VERSION
BHT .DEGC                                             101:   BH TEMP
BS  .IN                                             9.625:   BIT SIZE
BHS .                                                CASE:   BOREHOLE STATUS
BLI .M                                               2800:   BOTTOM DEPTH LOGGED
BHIS.                                                  RC:   BRIEF HISTORY
CS  .IN                                             7.625:   CASING SIZE
CSW .LB/F                                            52.3:   CASING WEIGHT
R1  .                                 Log correlated with:   COMMENT  1
R2  .       Compensated formation density log 1-April-197:   COMMENT  2
R4  .          Weight expendable tubing 18.6 lbs per foot:   COMMENT  4
R5  .              Weight 7 5/8" casing 33.7 lbs per foot:   COMMENT  5
R7  .                                      Set CSID 5.98":   COMMENT  7
R8  .                   Set CWEI 33.7 + 18.6  =  52.3 LBS:   COMMENT  8
R9  .                                    Set CSIZ 7.625 ":   COMMENT  9
DMF .                                                 ORT:   DRILL MEAS FROM
EDF .M                                               5.62:   ELEV DRILL FLOOR
ELZ .                                              5.62 M:   ELEVATION LOG ZERO
ENGI.                                         M. Riedeman:   ENGINEER
FHIS.                                            RAW-DLIS:   FULL HISTORY
HIDE.                                               RST-C:   HEADER ID
LCNM.                                        Schlumberger:   LOGGING CONTRACTOR
LMF .                                                 ORT:   LOGS MEAS FROM
MATR.                                                LIME:   MATRIX
MRT .DEGC                                             101:   MAX REC TEMP
DFT .                                                 gas:   MUD TYPE
CN  .                                                 NAM:   OPERATOR
RUN .                                                   1:   RUN
DATE.                                          2002/10/25:   RUN DATE
RW  .OHMM                                               1:   RW
STEM.DEGC                                              18:   SURFACE TEMPERATURE
TLAB.                                                1100:   TIME LOGGER ON BOT
TLI .M                                                840:   TOP DEPTH LOGGED
WITN.                           P van der Zee & S. Yntema:   WITNESS
~Curve Information Block
#MNEM.UNIT                                        API CODE    No Description
#=========                                        ========    == ===========
DEPT.M                                       00 001 00 00:     1  DEPTH
AIRB.                                                    :     2  RST Air Borehole Diagnostic
CIRF.                                                    :     3  RST Capture to Inelastic Ratio Far
CIRN.                                                    :     4  RST Capture to Inelastic Ratio Near
FBAC.CPS                                                 :     5  Far Background Count Rate
GR.API                                                   :     6  Gamma Ray
IRAT.                                                    :     7  RST Inelastic Ratio
NBAC.CPS                                                 :     8  Near Background Count Rate
SBNA.CU                                                  :     9  RST Sigma Borehole Near Apparent
SFNA.CU                                                  :    10  RST Sigma Formation Near Apparent
SIGM.CU                                                  :    11  Formation Sigma (Neutron Capture Cross S
TPHI.FRAC                                                :    12  Thermal Decay Porosity
~ASCII
# ...
 1877.7204     1.0000      .1434      .0906  3365.2102    11.3124     1.1089  1928.5293   136.8147    51.7603    67.8713      .0186
 1877.8728     1.0000      .1384      .0917  3337.4031    11.6692     1.1040  1931.8715   139.8649    48.5886    68.3078      .0285
 1878.0252     1.0000      .1326      .0898  3356.9446    13.3208     1.0909  1951.6575   142.1553    51.1189    68.1234      .0278
 1878.1776     1.0000      .1326      .0917  3381.0088    12.5382     1.0807  1940.8011   139.9501    48.1185    66.1397      .0285
 1878.3300     1.0000      .1362      .0826  3411.0813    13.2542     1.0766  1975.5604   131.2819    48.7460    67.6282      .0486
 1878.4824     1.0000      .1342      .0854  3406.9141    13.0977     1.0703  1975.5604   136.2337    52.5047    68.4726      .0644
 1878.6348     1.0000      .1311      .0929  3432.2053    12.8327     1.0669  1961.0155   137.2668    49.4418    68.2586      .0480
 1878.7872     1.0000      .1337      .0879  3416.9556    11.9817     1.0733  1959.8387   141.0083    52.1154    67.5845      .0305
 1878.9396     1.0000      .1259      .0764  3429.5000    13.3679     1.0840  1952.7535   139.7409    53.3718    66.5624     -.0041
 1879.0920     1.0000      .1290      .0880  3438.5913    14.7928     1.0777  1953.4218   143.4476    48.2432    68.2666      .0186
 1879.2444     1.0000      .1270      .0815  3476.0024    15.3957     1.0708  1938.8761   143.1551    49.6197    68.4523      .0404
 1879.3968     1.0000      .1182      .0863  3463.9702    16.1727     1.0534  1927.9136   139.6629    44.7394    68.2108      .0825
 1879.5492     1.0000      .1356      .0901  3475.4678    14.9841     1.0579  1935.5339   137.8201    45.0281    67.7805      .0928
 1879.7016     1.0000      .1283      .0916  3449.9102    14.4040     1.0653  1933.7960   136.4119    49.6486    67.0729      .0657
 1879.8540     1.0000      .1336      .0862  3441.0947    12.9028     1.0834  1969.2247   142.4527    50.4758    66.9222      .0181
 1880.0064     1.0000      .1357      .0872  3438.3992    12.9894     1.0880  1965.3478   142.0354    45.1245    67.2396     -.0045
 1880.1588     1.0000      .1411      .0866  3402.3015    12.2125     1.0910  1954.1177   135.9257    47.8144    68.2057      .0028
 1880.3112     1.0000      .1367      .0852  3416.2053    13.2227     1.0915  1979.3582   136.3739    50.2714    68.7313      .0111
 1880.4636     1.0000      .1299      .0862  3418.2107    13.0441     1.0901  1987.3796   140.5599    47.2705    67.4957     -.0071
 1880.6160     1.0000      .1370      .0828  3408.8525    13.8316     1.0870  2005.4277   144.6643    48.5559    67.5164     -.0190
 1880.7684     1.0000      .1350      .0888  3413.0056    13.8316     1.0897  1990.7219   144.3945    48.3704    66.9289     -.0315
 1880.9208     1.0000      .1368      .0869  3382.4126    14.4392     1.0896  1989.1177   148.9978    48.2528    67.1584     -.0164
 1881.0732     1.0000      .1299      .0852  3405.9421    14.6176     1.0884  2007.8344   138.3807    50.8361    67.4132     -.0113
 1881.2256     1.0000      .1305      .0833  3394.4216    13.6333     1.0836  1997.1390   144.9031    48.5115    67.9324     -.0049
 1881.3780     1.0000      .1288      .0813  3405.9417    13.1932     1.0839  1993.1285   144.0267    45.4157    68.1455     -.0140
 1881.5304     1.0000      .1316      .0817  3400.7195    13.2824     1.0933  1992.6204   142.4950    50.7468    66.5789     -.0001
 1881.6828     1.0000      .1332      .0878  3412.7517    13.0290     1.0884  1991.0157   131.0861    49.9224    66.0028      .0024
 1881.8352     1.0000      .1325      .0868  3418.5242    11.8694     1.0794  1999.0372   144.4948    50.0475    65.5698      .0159
 1881.9876     1.0000      .1358      .0859  3402.2141    11.8034     1.0730  2002.5402   137.7701    52.3321    66.3037      .0015
 1882.1400     1.0000      .1269      .0836  3384.8345    12.8715     1.0737  1996.5239   141.1277    48.7207    66.1738     -.0039
 1882.2924     1.0000      .1407      .0899  3352.3696    13.2110     1.0767  1981.1497   144.2324    45.3095    66.8367     -.0024
 1882.4448     1.0000      .1307      .0817  3354.1875    12.0531     1.0735  1982.4867   138.8640    53.6437    67.6362      .0116
 1882.5972     1.0000      .1357      .0936  3361.8079    13.1235     1.0616  1980.7488   140.7442    45.7608    68.4103      .0329
 1882.7496     1.0000      .1321      .0870  3359.0002    14.6168     1.0571  1952.1390   145.9370    45.7525    67.1462      .0168
 1882.9020     1.0000      .1278      .0884  3389.2375    14.0665     1.0488  1941.1763   145.5567    47.7502    65.6567      .0299
 1883.0544     1.0000      .1320      .0820  3406.2256    13.9947     1.0562  1923.1284   135.0450    50.8815    65.1950      .0246
 1883.2068     1.0000      .1158      .0896  3430.9580    14.8850     1.0510  1893.7164   145.8779    45.0748    66.2438      .0609
 1883.3592     1.0000      .1330      .0869  3417.8782    15.0665     1.0563  1862.4331   139.8824    48.4301    68.3861      .0569
 1883.5116     1.0000      .1322      .0939  3432.9858    14.7989     1.0553  1876.7433   143.2112    44.3992    69.8332      .0908
 1883.6640     1.0000      .1305      .0922  3453.7078    13.9335     1.0773  1872.7325   135.3396    42.9748    70.5366      .0862
 1883.8164     1.0000      .1241      .0879  3482.8516    13.9365     1.0709  1874.7379   142.0919    47.0055    70.7419      .1101
 1883.9688     1.0000      .1233      .0898  3488.0657    14.0257     1.0587  1888.7754   135.0912    41.5451    70.3149      .1252
 1884.1212     1.0000      .1207      .0848  3476.8579    14.9569     1.0406  1904.1495   138.2063    48.1575    71.0334      .1474
 1884.2736     1.0000      .1124      .0905  3469.2458    13.6449     1.0441  1921.5292   145.6935    48.1749    70.8798      .1486
 1884.4260     1.0000      .1188      .0885  3464.5667    14.2435     1.0530  1931.1548   142.0518    48.9714    72.9079      .1201
 1884.5784     1.0000      .1241      .0859  3464.2993    14.6357     1.0683  1922.9719   145.2245    48.0069    73.0155      .0802
 1884.7308     1.0000      .1329      .0864  3460.6807    14.7144     1.0751  1933.3999   144.2873    47.7399    73.8299      .0614
 1884.8832     1.0000      .1265      .0844  3433.0242    12.5583     1.0839  1944.7633   134.6473    45.7277    72.3108      .0459
 1885.0356     1.0000      .1285      .0871  3430.8850    13.6027     1.0714  1955.1913   141.6816    51.2637    74.1226      .0819
 1885.1880     1.0000      .1341      .0884  3457.3110    13.2590     1.0671  1936.8704   139.4714    47.8712    74.3761      .0889
 1885.3404     1.0000      .1264      .0870  3452.1150    13.3697     1.0583  1932.8597   141.6808    45.0092    73.3863      .1024
 1885.4928     1.0000      .1202      .0834  3440.1936    13.4611     1.0564  1922.4316   137.4312    44.9196    70.5292      .0904
 1885.6452     1.0000      .1248      .0859  3479.8994    14.9272     1.0473  1923.1001   135.4495    50.2590    68.9409      .0751
 1885.7976     1.0000      .1257      .0844  3472.0349    13.8587     1.0545  1910.3997   142.4184    45.3352    70.5898      .0718
 1885.9500     1.0000      .1296      .0926  3477.3740    14.4663     1.0496  1899.0360   145.6238    46.2175    71.9730      .0785
 1886.1024     1.0000      .1234      .0838  3485.8047    13.3358     1.0493  1902.6458   140.3501    50.8768    72.9261      .0956
 1886.2548     1.0000      .1138      .0820  3474.7085    12.7321     1.0394  1907.2238   145.2667    50.4334    73.7970      .1131
 1886.4072     1.0000      .1109      .0829  3471.9099    12.9374     1.0519  1914.1758   149.3602    48.6856    74.4560      .1184
 1886.5596     1.0000      .1222      .0862  3481.5186    13.5598     1.0591  1909.2292   139.5553    49.0390    74.3252      .1135
 1886.7120     1.0000      .1181      .0776  3459.4595    14.3360     1.0634  1917.8645   142.7918    48.0246    74.1228      .1166
 1886.8644     1.0000      .1139      .0874  3470.3323    14.7849     1.0575  1912.5168   142.7257    46.8907    71.9271      .1025
