~VERSION INFORMATION
VERS.                                                 2.0:   CWLS Log ASCII Standard-VERSION 2.0
WRAP.                                                  NO:   One line per depth step
~Well Information Block
STRT.M                                          2687.1168:   Top Depth
STOP.M                                          3063.8496:   Bottom Depth
STEP.M                                             .15240:   Depth Increment
NULL.                                            -999.250:   Null Value
FLD .                                          EEMSKANAAL:   Field Name
WELL.                                       EEMSKANAAL- 1:   NAME
EDF .m                                               5.58:   ELEV DRILL FLOOR
EPD .                                                   0:   ELEV PERM DATUM
EGL .m                                                -.9:   GROUND LEVEL
LMF .                                                  DF:   LOGS MEAS FROM
COMP.                                                 NAM:   OPERATOR
PDAT.                                                 NAP:   PERM DATUM
SPUD.                                          1970/11/08:   SPUD DATE
UWBI.                                      11000074112201:   UWBI
WELL.                                       EEMSKANAAL- 1:   HOLE NAME
~PARAMETER INFORMATION (log)
LNAM.                                RUN 05 RAW OH 9.625":   NAME
LTYP.                                                 05R:   LOG TYPE
LVSN.                                                   1:   LOG VERSION
BS  .5/8"                                               9:   BIT SIZE
BLI .M                                               3063:   BOTTOM DEPTH LOGGED
BHIS.                                            RCCCCCCC:   BRIEF HISTORY
FHIS.              RAW-TIGA/COPY/COPY/COPY/COPY/COPY/COPY:   FULL HISTORY
MRT .C                                                 89:   MAX REC TEMP
DFT .                                          SALT SPERS:   MUD TYPE
RMS .                                               0.074:   RM
MST .C                                                 26:   RM TEMP
RMCS.                                               0.144:   RMC
MCST.C                                                 17:   RMC TEMP
RMFS.                                               0.059:   RMF
MFST.C                                                 26:   RMF TEMP
TCS .                                               5 HRS:   TIME SINCE CIRCLN
TLI .M                                               2690:   TOP DEPTH LOGGED
~Curve Information Block
#MNEM.UNIT                                        API CODE    No Description
#=========                                        ========    == ===========
DEPT.M                                       00 001 00 00:     1  DEPTH
LL7.OHMM                                                 :     2  LATEROLOG 7
SP.MV                                                    :     3  Spontaneous potential
~ASCII
# ...
 2872.2828     2.7380   -55.8030
 2872.4352     2.8710   -55.8950
 2872.5876     3.2120   -56.0300
 2872.7400     3.6340   -56.2220
 2872.8924     4.3640   -56.4110
 2873.0448     4.9240   -56.5950
 2873.1972     5.2720   -56.7280
 2873.3496     5.2250   -56.7950
 2873.5020     5.1470   -56.8510
 2873.6544     5.2730   -56.9120
 2873.8068     5.5130   -56.9300
 2873.9592     5.8540   -56.9300
 2874.1116     6.0120   -56.9300
 2874.2640     5.9800   -56.9300
 2874.4164     5.6000   -56.9300
 2874.5688     5.7620   -56.9300
 2874.7212     6.2980   -56.9550
 2874.8736     5.8120   -57.2340
 2875.0260     5.4130   -57.4340
 2875.1784     4.9870   -57.5930
 2875.3308     4.5120   -57.7790
 2875.4832     4.2380   -57.8870
 2875.6356     4.2870   -57.9710
 2875.7880     4.4540   -58.0250
 2875.9404     4.7880   -58.0400
 2876.0928     4.8100   -58.0400
 2876.2452     4.2130   -58.0000
 2876.3976     3.9150   -57.9900
 2876.5500     3.2900   -57.9400
 2876.7024     3.1090   -57.8470
 2876.8548     3.0910   -57.6740
 2877.0072     3.1800   -57.4880
 2877.1596     4.1910   -57.4780
 2877.3120     5.0970   -57.5250
 2877.4644     5.3870   -57.5600
 2877.6168     5.3860   -57.6180
 2877.7692     5.0790   -57.7020
 2877.9216     4.1270   -57.7810
 2878.0740     3.8190   -57.8500
 2878.2264     3.7620   -57.8880
 2878.3788     3.7870   -57.9340
 2878.5312     4.0900   -57.9730
 2878.6836     4.7460   -58.0000
 2878.8360     5.3920   -58.0000
 2878.9884     6.0640   -58.0000
 2879.1408     6.4650   -57.9580
 2879.2932     6.6230   -57.9210
 2879.4456     6.7760   -57.9200
 2879.5980     6.8890   -57.9200
 2879.7504     6.8930   -57.9200
 2879.9028     6.8830   -57.9200
 2880.0552     6.8540   -57.9260
 2880.2076     6.5810   -57.9630
 2880.3600     6.1580   -58.0300
 2880.5124     5.8270   -58.0840
 2880.6648     5.5720   -58.1170
 2880.8172     5.4210   -58.1200
 2880.9696     5.3850   -58.1200
 2881.1220     5.5460   -58.1200
 2881.2744     5.7690   -58.1200
 2881.4268     5.8290   -58.1200
 2881.5792     5.7340   -58.1200
 2881.7316     5.3500   -58.1200
 2881.8840     4.6180   -58.1200
 2882.0364     3.8480   -58.1200
 2882.1888     3.5370   -58.1200
 2882.3412     4.7660   -58.1200
 2882.4936     5.4730   -58.1200
 2882.6460     5.8980   -58.1200
 2882.7984     6.4480   -58.0810
 2882.9508     6.6620   -58.0800
 2883.1032     6.3480   -58.0800
 2883.2556     5.8200   -58.0800
 2883.4080     5.6000   -58.0830
 2883.5604     5.8380   -58.1680
 2883.7128     6.7470   -58.4300
 2883.8652     8.4360   -58.9280
 2884.0176    10.6840   -59.4800
 2884.1700    12.3440   -59.9910
 2884.3224    13.5870   -60.3940
 2884.4748    14.8010   -60.5700
 2884.6272    15.7650   -60.5900
 2884.7796    16.2050   -60.5900
 2884.9320    16.2320   -60.5900
 2885.0844    16.2120   -60.5900
 2885.2368    16.5880   -60.6010
 2885.3892    19.2830   -60.6290
 2885.5416    16.9230   -60.6850
 2885.6940    16.6390   -60.7860
 2885.8464    18.1480   -60.8920
 2885.9988    19.4290   -61.0190
 2886.1512    19.7260   -61.1720
 2886.3036    19.6500   -61.3960
 2886.4560    19.4420   -61.5890
 2886.6084    18.5920   -61.7030
 2886.7608    16.5380   -61.7400
 2886.9132    15.1720   -61.7800
 2887.0656    14.3360   -61.7800
 2887.2180    12.6150   -61.7870
 2887.3704    10.1410   -61.8200
 2887.5228     7.9090   -61.8200
 2887.6752    10.0720   -61.8200
 2887.8276    10.0770   -61.7950
 2887.9800     9.4470   -61.7800
 2888.1324     9.2970   -61.7670
 2888.2848     9.6300   -61.7400
 2888.4372    10.8510   -61.7290
 2888.5896    13.0870   -61.7010
 2888.7420    19.7280   -61.7000
 2888.8944    12.3110   -61.7000
 2889.0468    11.7230   -61.7000
 2889.1992    11.7880   -61.6900
 2889.3516    11.8800   -61.6600
 2889.5040    12.6760   -61.6600
 2889.6564    13.1810   -61.6830
 2889.8088    12.1420   -61.7040
 2889.9612    11.2240   -61.7650
 2890.1136    11.1240   -61.8200
 2890.2660    10.2260   -61.8200
 2890.4184     9.6760   -61.8200
 2890.5708    10.1000   -61.8200
 2890.7232    10.7000   -61.8200
 2890.8756    10.9590   -61.8200
 2891.0280    10.9770   -61.8200
 2891.1804     9.9700   -61.8200
 2891.3328     8.6920   -61.8100
 2891.4852    14.5550   -61.7730
 2891.6376    16.3800   -61.7400
 2891.7900    17.0390   -61.7400
 2891.9424    16.9360   -61.7680
 2892.0948    12.6030   -61.7800
 2892.2472    13.4650   -61.8390
 2892.3996    14.1480   -61.8800
 2892.5520    12.7970   -61.9610
 2892.7044    11.9430   -62.0970
 2892.8568    11.7510   -62.3860
 2893.0092    11.9910   -62.7080
 2893.1616    13.8230   -62.9600
 2893.3140    15.4110   -63.1330
 2893.4664    16.3260   -63.2900
 2893.6188    16.4660   -63.4590
 2893.7712    16.2210   -63.6400
 2893.9236    15.7420   -63.8540
 2894.0760    15.2420   -63.9600
 2894.2284    14.5950   -63.9590
 2894.3808    13.8440   -63.9300
 2894.5332    13.1800   -63.9300
 2894.6856    12.3510   -63.8190
 2894.8380    11.4810   -62.1350
 2894.9904    10.8450   -61.1560
 2895.1428    10.3120   -60.7440
 2895.2952     9.6560   -60.5920
 2895.4476     9.2670   -60.5900
 2895.6000     8.6500   -60.5900
 2895.7524     6.9060   -60.5080
 2895.9048     6.3030   -60.2750
 2896.0572     8.3440   -59.8210
 2896.2096     8.6140   -59.7100
 2896.3620     8.4260   -59.7100
 2896.5144     8.0910   -59.7100
 2896.6668     7.9090   -59.7100
 2896.8192     8.0620   -59.7100
 2896.9716     9.0410   -59.7100
 2897.1240     7.7980   -59.7100
 2897.2764     5.4720   -59.6790
 2897.4288     7.8340   -59.5410
 2897.5812     8.7620   -59.2330
 2897.7336     9.7620   -58.9460
 2897.8860    11.6390   -58.7540
 2898.0384    14.5540   -58.5790
 2898.1908    19.2010   -58.3620
 2898.3432    20.8820   -58.2100
 2898.4956    20.3410   -58.1030
 2898.6480    15.9940   -57.9420
 2898.8004    13.4560   -57.8000
 2898.9528    12.4140   -57.7390
 2899.1052    12.1510   -57.6760
 2899.2576    12.2160   -57.5770
 2899.4100    12.7190   -57.5120
 2899.5624    14.2630   -57.4150
 2899.7148    15.7900   -57.3050
 2899.8672    16.2320   -57.1530
 2900.0196    15.9990   -56.9490
 2900.1720    14.9710   -56.7810
 2900.3244    14.4070   -56.6230
 2900.4768    14.2980   -56.5090
 2900.6292    14.5890   -56.3570
 2900.7816    15.1490   -56.2100
 2900.9340    15.6560   -56.0330
 2901.0864    15.8790   -55.8820
 2901.2388    15.8870   -55.7390
 2901.3912    15.8870   -55.6540
 2901.5436    15.9890   -55.6500
 2901.6960    16.5560   -55.6500
 2901.8484    19.9160   -55.6500
 2902.0008    21.1750   -55.6500
 2902.1532    21.1560   -55.6500
 2902.3056    20.9040   -55.6500
 2902.4580    20.3400   -55.6500
 2902.6104    18.4450   -55.6460
 2902.7628    15.9010   -55.5470
 2902.9152    14.0350   -55.3760
 2903.0676    13.8320   -55.1120
 2903.2200    13.9340   -54.8420
 2903.3724    14.8650   -54.5740
 2903.5248    17.0760   -54.3630
 2903.6772    18.1450   -54.3400
 2903.8296    17.8890   -54.3400
 2903.9820    13.8360   -54.3400
 2904.1344     8.2750   -54.3400
 2904.2868     7.0040   -54.3400
 2904.4392     9.1900   -54.3400
 2904.5916     9.2760   -54.3400
 2904.7440     9.1460   -54.3750
 2904.8964     9.1420   -54.5450
 2905.0488     8.4660   -54.8430
 2905.2012     7.2000   -55.2220
 2905.3536     5.6470   -55.5720
 2905.5060     5.1290   -55.9630
 2905.6584     5.0220   -56.3280
 2905.8108     5.1290   -56.5570
 2905.9632     5.4620   -56.6350
 2906.1156     5.6280   -56.6900
 2906.2680     5.4390   -56.7040
 2906.4204     4.1930   -56.6900
 2906.5728     5.0360   -56.6900
 2906.7252     4.8490   -56.6900
 2906.8776     4.5720   -56.7130
 2907.0300     4.4770   -56.7300
 2907.1824     4.4890   -56.7300
 2907.3348     4.8460   -56.7300
 2907.4872     5.6080   -56.7560
 2907.6396     6.2840   -56.7700
 2907.7920     6.4890   -56.7700
 2907.9444     6.5280   -56.7700
 2908.0968     6.5200   -56.7700
 2908.2492     6.4100   -56.8100
 2908.4016     6.0980   -56.8100
 2908.5540     5.6800   -56.8100
 2908.7064     6.9990   -56.8100
 2908.8588     7.2310   -56.8100
 2909.0112     7.3640   -56.8100
 2909.1636     7.7140   -56.8100
