~VERSION INFORMATION
VERS.                                                 2.0:   CWLS Log ASCII Standard-VERSION 2.0
WRAP.                                                  NO:   One line per depth step
~Well Information Block
STRT.M                                          1406.0424:   Top Depth
STOP.M                                          1903.9332:   Bottom Depth
STEP.M                                             .15240:   Depth Increment
NULL.                                            -999.250:   Null Value
FLD .                                          EEMSKANAAL:   Field Name
WELL.                                       EEMSKANAAL- 1:   NAME
EDF .m                                               5.58:   ELEV DRILL FLOOR
EPD .                                                   0:   ELEV PERM DATUM
EGL .m                                                -.9:   GROUND LEVEL
LMF .                                                  DF:   LOGS MEAS FROM
COMP.                                                 NAM:   OPERATOR
PDAT.                                                 NAP:   PERM DATUM
SPUD.                                          1970/11/08:   SPUD DATE
UWBI.                                      11000074112201:   UWBI
WELL.                                       EEMSKANAAL- 1:   HOLE NAME
~PARAMETER INFORMATION (log)
LNAM.                                RUN 07 RAW OH 9.625":   NAME
LTYP.                                                 07R:   LOG TYPE
LVSN.                                                   1:   LOG VERSION
BS  .5/8"                                               9:   BIT SIZE
BLI .M                                               2950:   BOTTOM DEPTH LOGGED
BHIS.                                            RCCCCCCC:   BRIEF HISTORY
FHIS.              RAW-TIGA/COPY/COPY/COPY/COPY/COPY/COPY:   FULL HISTORY
MRT .                                                    :   MAX REC TEMP
DFT .                                          SALT SPERS:   MUD TYPE
RMS .                                               0.074:   RM
MST .C                                                 26:   RM TEMP
RMCS.                                               0.144:   RMC
MCST.C                                                 17:   RMC TEMP
RMFS.                                               0.059:   RMF
MFST.C                                                 26:   RMF TEMP
TCS .                                                 N/A:   TIME SINCE CIRCLN
TLI .M                                             1406.5:   TOP DEPTH LOGGED
~Curve Information Block
#MNEM.UNIT                                        API CODE    No Description
#=========                                        ========    == ===========
DEPT.M                                       00 001 00 00:     1  DEPTH
LL9D.OHMM                                                :     2  Dual Laterolog 9 deep
LL9S.OHMM                                                :     3  Dual Laterolog 9 shallow
MSFL.OHMM                                                :     4  MICRO SPHERICALLY FOCUSSED LOG
~ASCII
 1406.0424     1.3010      .3320      .2770
 1406.1948    16.0730      .4000      .2750
 1406.3472   294.5700      .4980      .9720
 1406.4996   195.3650     1.3750     1.4770
 1406.6520     2.2120     1.5660     1.6590
 1406.8044     1.7990     1.6800     1.9180
 1406.9568     1.8320     1.7790     1.9320
 1407.1092     2.0150     1.9120     1.7040
 1407.2616     2.2240     2.0450     1.6780
 1407.4140     2.3450     2.0660     1.7310
 1407.5664     2.2840     2.0350     1.6310
 1407.7188     2.1100     2.0270     1.2240
 1407.8712     1.8900     2.0560      .2480
 1408.0236     1.8640     2.1640      .1370
 1408.1760     1.8720     2.3530      .1540
 1408.3284     1.8820     2.4930      .2290
 1408.4808     2.2210     2.4200     1.8410
 1408.6332     2.2310     2.0980     1.9860
 1408.7856     1.9310     1.8400     2.7770
 1408.9380     1.8400     1.7410     2.2770
 1409.0904     1.8130     1.7350     1.7230
 1409.2428     1.8400     1.8030     1.3900
 1409.3952     1.9950     1.9030     1.2180
 1409.5476     2.1400     1.9740     2.5320
 1409.7000     2.2610     2.0170     2.4720
 1409.8524     2.3580     2.0490     2.4290
 1410.0048     2.4720     2.1310     2.7240
 1410.1572     2.5670     2.2580     3.0680
 1410.3096     2.6200     2.3170     2.7840
 1410.4620     2.5910     2.3190     3.1780
 1410.6144     2.5150     2.2650     2.6170
 1410.7668     2.4670     2.2030     2.8340
 1410.9192     2.4710     2.1700     2.3610
 1411.0716     2.5200     2.1770     2.4640
 1411.2240     2.5930     2.2110     2.4930
 1411.3764     2.6350     2.2520     3.0140
 1411.5288     2.6390     2.2650     2.8540
 1411.6812     2.6370     2.2280     2.6170
 1411.8336     2.6060     2.1420     2.8570
 1411.9860     2.4930     2.0820     2.6870
 1412.1384     2.2560     2.0250     2.1840
 1412.2908     2.2360     1.9770     2.3780
 1412.4432     2.2380     1.9410     1.8140
 1412.5956     2.2480     1.9360     1.7220
 1412.7480     2.2730     1.9800     1.3710
 1412.9004     2.3140     2.0340     2.7030
 1413.0528     2.4140     2.0930     2.2480
 1413.2052     2.5060     2.1480     1.8590
 1413.3576     2.6450     2.1840     2.2890
 1413.5100     2.7370     2.2130     2.3540
 1413.6624     2.7870     2.2440     2.3070
 1413.8148     2.7940     2.2430     2.9730
 1413.9672     2.7890     2.2230     2.7750
 1414.1196     2.7680     2.1830     2.5210
 1414.2720     2.7380     2.1180     2.7150
 1414.4244     2.7120     2.0760     2.7740
 1414.5768     2.7040     2.0720     2.6880
 1414.7292     2.7030     2.0720     2.4860
 1414.8816     2.7030     2.0800     2.1430
 1415.0340     2.7080     2.0850     2.0920
 1415.1864     2.7040     2.1140     2.8520
 1415.3388     2.6950     2.1400     2.6700
 1415.4912     2.6680     2.1230     2.1840
 1415.6436     2.5690     2.0840     2.7530
 1415.7960     2.4070     2.0170     2.5900
 1415.9484     2.2730     1.8840     2.8000
 1416.1008     2.2460     1.7240     2.5490
 1416.2532     2.2660     1.7030     2.1810
 1416.4056     2.3120     1.7040     1.6330
 1416.5580     2.3010     1.7120     1.8260
 1416.7104     2.2440     1.7190     1.8760
 1416.8628     2.2400     1.7110     1.7420
 1417.0152     2.2520     1.7130     1.8270
 1417.1676     2.3980     1.7690     1.7790
 1417.3200     2.6020     1.8640     1.6630
 1417.4724     2.7380     1.9410     1.9970
 1417.6248     2.7560     1.9670     2.6970
 1417.7772     2.7040     1.9640     2.1440
 1417.9296     2.7250     1.9610     2.4510
 1418.0820     2.7850     1.9660     2.2970
 1418.2344     2.8460     2.0130     2.3900
 1418.3868     2.8360     1.9490     2.2350
 1418.5392     2.6160     1.7720     2.4310
 1418.6916     2.1330     1.6380     2.6220
 1418.8440     1.8130     1.3830     2.5070
 1418.9964     1.7990     1.3220     1.2120
 1419.1488     1.8690     1.3470     1.4080
 1419.3012     2.2670     1.5030     1.4940
 1419.4536     2.4720     1.7800     1.8810
 1419.6060     2.5040     1.8700     2.3070
 1419.7584     2.3340     1.7220     2.4550
 1419.9108     2.1710     1.5760     2.5630
 1420.0632     2.1390     1.5460     1.6560
 1420.2156     2.1930     1.5680     1.6260
 1420.3680     2.3070     1.6730     1.9260
 1420.5204     2.3670     1.7060     1.8270
 1420.6728     2.3490     1.7120     2.1530
 1420.8252     2.3510     1.7000     2.0950
 1420.9776     2.3860     1.6960     1.7940
 1421.1300     2.4070     1.7050     1.9950
 1421.2824     2.4070     1.7180     2.2150
 1421.4348     2.4270     1.7380     2.1060
 1421.5872     2.5010     1.7390     1.8160
 1421.7396     2.5390     1.7260     1.8580
 1421.8920     2.5180     1.6850     2.0770
 1422.0444     2.4020     1.6300     2.0900
 1422.1968     2.2370     1.5640     1.9170
 1422.3492     2.1630     1.5260     1.7510
 1422.5016     2.1450     1.5140     1.6010
 1422.6540     2.1840     1.5310     1.7060
 1422.8064     2.3050     1.5940     1.3530
 1422.9588     2.5010     1.7140     1.6960
 1423.1112     2.5590     1.7930     1.9960
 1423.2636     2.5340     1.7210     2.0760
 1423.4160     2.4580     1.5720     2.3130
 1423.5684     2.0620     1.4530     2.1520
 1423.7208     1.9200     1.4060     1.6050
 1423.8732     1.9220     1.4100     1.6060
 1424.0256     2.0730     1.4880     1.5710
 1424.1780     2.2150     1.5450     1.9130
 1424.3304     2.1140     1.5060     2.0680
 1424.4828     1.9600     1.4530     1.0460
 1424.6352     1.9700     1.4610     1.3150
 1424.7876     2.0580     1.4850     1.7360
 1424.9400     2.0500     1.4730     1.4380
 1425.0924     1.9750     1.4530     1.4260
 1425.2448     1.9520     1.4330     1.8750
 1425.3972     1.9860     1.4250     2.1460
 1425.5496     2.1140     1.4810     1.3590
 1425.7020     2.4210     1.6540     1.6420
 1425.8544     2.7810     1.9320     2.4750
 1426.0068     2.9110     2.0380     2.4930
 1426.1592     2.9340     2.0450     1.7740
 1426.3116     2.9360     2.0490     2.5470
 1426.4640     2.9320     2.0580     2.4960
 1426.6164     2.9330     2.0910     2.6590
 1426.7688     2.9310     2.1240     2.6150
 1426.9212     2.9310     2.1310     2.6200
 1427.0736     2.9260     2.1300     2.6200
 1427.2260     2.9170     2.1270     2.4930
 1427.3784     2.9090     2.0950     2.5280
 1427.5308     2.8590     2.0390     2.5200
 1427.6832     2.7220     1.9620     2.4730
 1427.8356     2.6420     1.9060     2.3640
 1427.9880     2.6230     1.8970     2.2660
 1428.1404     2.6460     1.9150     2.2830
 1428.2928     2.6930     1.9680     2.2960
 1428.4452     2.7460     2.0140     2.0510
 1428.5976     2.7910     2.0460     2.4000
 1428.7500     2.8030     2.0500     2.1310
 1428.9024     2.7990     2.0410     2.4700
 1429.0548     2.7880     2.0320     2.4880
 1429.2072     2.7690     2.0130     2.5960
 1429.3596     2.7290     1.9680     2.6280
 1429.5120     2.6760     1.9200     2.2180
 1429.6644     2.6200     1.8900     2.1770
 1429.8168     2.5690     1.8770     2.3000
 1429.9692     2.5360     1.8750     2.1520
 1430.1216     2.5760     1.8920     2.2010
 1430.2740     2.6810     1.9970     2.0860
 1430.4264     2.7260     2.0280     2.1890
 1430.5788     2.6250     1.9380     2.5140
 1430.7312     2.5300     1.8360     2.3760
 1430.8836     2.5030     1.7930     2.2980
 1431.0360     2.5170     1.7980     1.9360
 1431.1884     2.5840     1.8320     1.7310
 1431.3408     2.7100     1.9010     2.1690
 1431.4932     2.8110     1.9990     2.6840
 1431.6456     2.8680     2.0600     1.7300
 1431.7980     2.8990     2.0660     2.3870
 1431.9504     2.8740     1.9570     2.4790
 1432.1028     2.7100     1.8520     2.5090
 1432.2552     2.5960     1.8130     2.6450
 1432.4076     2.5930     1.7990     2.4980
 1432.5600     2.6590     1.8690     1.1260
 1432.7124     2.7990     1.9790     2.0380
 1432.8648     2.9150     2.0110     2.5680
 1433.0172     2.8490     1.9560     2.6550
 1433.1696     2.4760     1.7980     2.3900
 1433.3220     2.1490     1.6520     1.8430
 1433.4744     2.0050     1.4960     1.8400
 1433.6268     1.9480     1.3970      .5430
