~VERSION INFORMATION
VERS.                                                 2.0:   CWLS Log ASCII Standard-VERSION 2.0
WRAP.                                                  NO:   One line per depth step
~Well Information Block
STRT.M                                           836.5236:   Top Depth
STOP.M                                          2800.0452:   Bottom Depth
STEP.M                                             .15240:   Depth Increment
NULL.                                            -999.250:   Null Value
FLD .                                          EEMSKANAAL:   Field Name
WELL.                                       EEMSKANAAL- 2:   NAME
APD .M                                               5.62:   ABOVE PERM DATUM
CTRY.                                                  NE:   COUNTRY
EDF .m                                               5.62:   ELEV DRILL FLOOR
EPD .                                                   0:   ELEV PERM DATUM
EGL .m                                              -1.06:   GROUND LEVEL
LMF .                                                  DF:   LOGS MEAS FROM
COMP.                                                 NAM:   OPERATOR
PDAT.                                                 NAP:   PERM DATUM
SPUD.                                          1971/03/17:   SPUD DATE
STAT.                                           Unknown m:   STATE
UWBI.                                      11000074112601:   UWBI
WELL.                                       EEMSKANAAL- 2:   HOLE NAME
~PARAMETER INFORMATION (log)
LNAM.                              RUN 04 RAW CH OCT 2002:   NAME
LTYP.                                                 04R:   LOG TYPE
LVSN.                                                   1:   LOG VERSION
BHT .DEGC                                             101:   BH TEMP
BS  .IN                                             9.625:   BIT SIZE
BHS .                                                CASE:   BOREHOLE STATUS
BLI .M                                               2800:   BOTTOM DEPTH LOGGED
BHIS.                                                  RC:   BRIEF HISTORY
CS  .IN                                             7.625:   CASING SIZE
CSW .LB/F                                            52.3:   CASING WEIGHT
R1  .                                 Log correlated with:   COMMENT  1
R2  .       Compensated formation density log 1-April-197:   COMMENT  2
R4  .          Weight expendable tubing 18.6 lbs per foot:   COMMENT  4
R5  .              Weight 7 5/8" casing 33.7 lbs per foot:   COMMENT  5
R7  .                                      Set CSID 5.98":   COMMENT  7
R8  .                   Set CWEI 33.7 + 18.6  =  52.3 LBS:   COMMENT  8
R9  .                                    Set CSIZ 7.625 ":   COMMENT  9
DMF .                                                 ORT:   DRILL MEAS FROM
EDF .M                                               5.62:   ELEV DRILL FLOOR
ELZ .                                              5.62 M:   ELEVATION LOG ZERO
ENGI.                                         M. Riedeman:   ENGINEER
FHIS.                                            RAW-DLIS:   FULL HISTORY
HIDE.                                               RST-C:   HEADER ID
LCNM.                                        Schlumberger:   LOGGING CONTRACTOR
LMF .                                                 ORT:   LOGS MEAS FROM
MATR.                                                LIME:   MATRIX
MRT .DEGC                                             101:   MAX REC TEMP
DFT .                                                 gas:   MUD TYPE
CN  .                                                 NAM:   OPERATOR
RUN .                                                   1:   RUN
DATE.                                          2002/10/25:   RUN DATE
RW  .OHMM                                               1:   RW
STEM.DEGC                                              18:   SURFACE TEMPERATURE
TLAB.                                                1100:   TIME LOGGER ON BOT
TLI .M                                                840:   TOP DEPTH LOGGED
WITN.                           P van der Zee & S. Yntema:   WITNESS
~Curve Information Block
#MNEM.UNIT                                        API CODE    No Description
#=========                                        ========    == ===========
DEPT.M                                       00 001 00 00:     1  DEPTH
AIRB.                                                    :     2  RST Air Borehole Diagnostic
CIRF.                                                    :     3  RST Capture to Inelastic Ratio Far
CIRN.                                                    :     4  RST Capture to Inelastic Ratio Near
FBAC.CPS                                                 :     5  Far Background Count Rate
GR.API                                                   :     6  Gamma Ray
IRAT.                                                    :     7  RST Inelastic Ratio
NBAC.CPS                                                 :     8  Near Background Count Rate
SBNA.CU                                                  :     9  RST Sigma Borehole Near Apparent
SFNA.CU                                                  :    10  RST Sigma Formation Near Apparent
SIGM.CU                                                  :    11  Formation Sigma (Neutron Capture Cross S
TPHI.FRAC                                                :    12  Thermal Decay Porosity
~ASCII
# ...
 2007.8700     1.0000      .1175      .0799  3349.1687    23.5484     1.0140  1963.9038   158.6178    45.9178    67.5943      .0283
 2008.0224     1.0000      .1142      .0780  3333.1260    20.7886     1.0233  1961.6359   152.9167    44.9482    67.4198      .0040
 2008.1748     1.0000      .1166      .0805  3327.7788    18.9866     1.0384  1964.8184   146.9792    50.1114    69.0774      .0287
 2008.3272     1.0000      .1210      .0772  3337.1370    18.1220     1.0494  1969.6312   136.9281    49.1838    69.1885      .0323
 2008.4796     1.0000      .1208      .0764  3338.7407    17.0009     1.0623  1962.9468   143.6726    47.9550    68.4763      .0240
 2008.6320     1.0000      .1153      .0804  3357.4570    16.0952     1.0649  1955.4601   150.7641    46.1077    67.1144      .0049
 2008.7844     1.0000      .1133      .0802  3368.7195    15.9240     1.0823  1976.0222   142.8332    49.1162    66.7065     -.0120
 2008.9368     1.0000      .1294      .0794  3368.8306    14.7915     1.0900  1965.3273   149.4785    49.6267    66.3320     -.0378
 2009.0892     1.0000      .1229      .0789  3356.4055    14.1015     1.0916  2009.9535   146.6980    52.5478    66.6373     -.0420
 2009.2416     1.0000      .1309      .0738  3368.5945    13.7566     1.0824  2022.2531   134.5151    54.5675    65.5500     -.0531
 2009.3940     1.0000      .1292      .0736  3391.8345    12.5085     1.0920  2026.2637   137.9660    44.7311    64.3191     -.0513
 2009.5464     1.0000      .1349      .0755  3387.9656    11.9897     1.1057  2017.5735   137.5676    47.0723    62.6808     -.0729
 2009.6988     1.0000      .1361      .0837  3369.2490    12.4209     1.1111  2015.0284   139.7736    55.6060    62.1754     -.0647
 2009.8512     1.0000      .1405      .0877  3399.8557    12.1645     1.1068  1991.7925   138.1079    42.5935    62.2316     -.0604
 2010.0036     1.0000      .1327      .0802  3394.5081    11.8195     1.1028  1997.0116   136.3114    52.6442    61.6373     -.0702
 2010.1560     1.0000      .1494      .0782  3386.8960    11.8168     1.1035  2003.0275   138.0305    49.0349    63.5737     -.0503
 2010.3084     1.0000      .1439      .0867  3368.6914    11.4718     1.0995  1999.2843   129.5479    50.0251    64.7625     -.0422
 2010.4608     1.0000      .1329      .0806  3380.9919    11.5493     1.0918  1978.7222   139.7951    54.1280    66.1164     -.0151
 2010.6132     1.0000      .1274      .0823  3397.0342    12.1693     1.0816  1976.5831   141.1452    49.4050    65.0520     -.0131
 2010.7656     1.0000      .1170      .0808  3428.0508    13.2042     1.0699  1943.9890   143.3164    45.2550    66.0752      .0360
 2010.9180     1.0000      .1220      .0854  3435.4041    13.4648     1.0616  1949.3364   136.8668    49.0255    68.3121      .0844
 2011.0704     1.0000      .1155      .0838  3422.3242    14.0697     1.0535  1931.9569   136.7451    50.7979    69.8301      .1175
 2011.2228     1.0000      .1262      .0852  3388.0820    15.4934     1.0418  1928.4810   135.9595    49.5793    68.7635      .1002
 2011.3752     1.0000      .1205      .0807  3425.9163    16.6822     1.0256  1934.2024   138.6176    46.0106    70.0202      .0732
 2011.5276     1.0000      .1120      .0781  3367.6279    17.3742     1.0148  1935.2720   159.6133    50.3626    70.1217      .0866
 2011.6800     1.0000      .1143      .0840  3383.0022    20.3078     1.0148  1944.8926   138.8542    48.3881    71.8736      .0893
 2011.8324     1.0000      .1114      .0790  3385.4001    23.1526     1.0123  1934.0636   147.4241    45.9931    69.9791      .0722
 2011.9848     1.0000      .1184      .0743  3389.7014    22.6864     1.0122  1927.6465   153.3854    47.7297    71.5100      .0746
 2012.1372     1.0000      .1125      .0785  3389.0234    23.8075      .9976  1927.3790   135.4035    45.3166    72.5490      .0750
 2012.2896     1.0000      .1162      .0786  3368.5916    25.9163      .9945  1946.2294   145.0587    47.8710    74.7417      .0986
 2012.4420     1.0000      .1152      .0795  3353.7429    26.5171      .9725  1959.8657   148.5625    49.6187    73.5818      .0568
 2012.5944     1.0000      .1234      .0758  3349.3318    27.0346      .9647  1949.1704   156.2746    55.6062    73.8294      .0678
 2012.7468     1.0000      .1056      .0761  3359.0686    33.9284      .9380  1977.3793   147.1892    47.4050    74.7566      .1190
 2012.8992     1.0000      .1016      .0712  3364.6836    42.1282      .9248  1988.8766   154.3262    50.2815    74.9200      .1455
 2013.0516     1.0000      .0949      .0754  3357.1287    51.2287      .9193  1989.0375   166.0350    42.5723    76.9179      .1397
 2013.2040     1.0000      .1085      .0743  3402.5830    56.0582      .9404  1997.9946   168.2456    49.9155    75.0313      .0694
 2013.3564     1.0000      .1097      .0688  3393.2249    57.9593      .9695  1979.9464   157.8453    56.2957    73.5404      .0263
 2013.5088     1.0000      .1200      .0793  3394.0354    52.5153     1.0158  1978.7437   151.2496    50.6034    71.5121     -.0025
 2013.6612     1.0000      .1174      .0794  3401.2546    42.5907     1.0542  1976.6044   141.9756    50.5958    72.0894     -.0162
 2013.8136     1.0000      .1333      .0786  3391.0713    30.4307     1.0796  1978.2085   144.4322    52.6829    72.1707     -.0060
 2013.9660     1.0000      .1323      .0840  3399.0930    21.3612     1.0754  1980.2140   135.9399    47.8233    70.5861     -.0042
 2014.1184     1.0000      .1332      .0877  3415.8044    17.6510     1.0524  1974.8661   137.7966    47.5217    70.4855      .0556
 2014.2708     1.0000      .1206      .0779  3405.5186    17.8270     1.0090  1971.5238   134.9476    51.4945    70.8643      .0977
 2014.4232     1.0000      .1156      .0836  3378.9368    21.1940      .9929  1920.1871   145.8721    48.6182    73.8433      .1548
 2014.5756     1.0000      .1069      .0825  3387.2422    24.2503      .9778  1882.7540   153.2478    46.6273    73.0777      .1389
 2014.7280     1.0000      .1144      .0844  3376.3479    29.0077      .9823  1891.8450   155.5177    48.7138    73.7644      .1214
 2014.8804     1.0000      .1143      .0806  3365.6531    29.2280      .9781  1880.4813   153.0652    50.8837    73.5077      .0917
 2015.0328     1.0000      .1191      .0774  3382.3640    29.3295      .9747  1887.9680   147.6115    47.5013    76.5868      .0814
 2015.1852     1.0000      .1217      .0839  3352.8101    25.9644      .9838  1900.6687   153.5885    41.7270    75.7924      .0731
 2015.3376     1.0000      .1177      .0757  3353.0774    24.8916      .9964  1911.4973   146.5782    47.2431    77.3019      .0901
 2015.4900     1.0000      .1173      .0799  3363.9290    25.0428     1.0014  1901.3368   146.3843    46.8292    75.2309      .1181
 2015.6424     1.0000      .1176      .0896  3347.8860    30.6849      .9840  1882.6202   149.9276    52.3850    74.8950      .1349
 2015.7948     1.0000      .1105      .0838  3336.8064    34.6539      .9770  1871.9250   156.0373    46.5514    72.2528      .0956
 2015.9472     1.0000      .1180      .0828  3339.4719    35.7732      .9930  1888.6364   156.3329    56.5796    70.8377      .0584
 2016.0996     1.0000      .1247      .0788  3353.3530    36.9805     1.0164  1923.1284   147.2260    51.1931    71.0231      .0523
 2016.2520     1.0000      .1224      .0881  3349.8596    36.1806     1.0235  1941.0151   140.2905    49.6256    71.3855      .0551
 2016.4044     1.0000      .1320      .0902  3355.7197    33.6796     1.0007  1955.4536   157.4756    45.4404    70.3750      .0739
 2016.5568     1.0000      .1229      .0864  3353.0466    32.2090      .9729  1978.1808   142.7317    48.4670    68.3283      .0704
 2016.7092     1.0000      .1186      .0796  3344.3564    34.1926      .9659  1962.6730   149.5978    45.4186    66.2995      .0525
 2016.8616     1.0000      .1144      .0784  3375.1052    32.6427      .9977  1945.9614   153.8778    50.7113    66.9049      .0063
 2017.0140     1.0000      .1254      .0794  3352.1104    29.4984     1.0395  1951.1757   156.1750    47.9768    67.6848     -.0102
