~VERSION INFORMATION
VERS.                                                 2.0:   CWLS Log ASCII Standard-VERSION 2.0
WRAP.                                                  NO:   One line per depth step
~Well Information Block
STRT.M                                           404.0124:   Top Depth
STOP.M                                          1403.9088:   Bottom Depth
STEP.M                                             .15240:   Depth Increment
NULL.                                            -999.250:   Null Value
FLD .                                          EEMSKANAAL:   Field Name
WELL.                                       EEMSKANAAL- 1:   NAME
EDF .m                                               5.58:   ELEV DRILL FLOOR
EPD .                                                   0:   ELEV PERM DATUM
EGL .m                                                -.9:   GROUND LEVEL
LMF .                                                  DF:   LOGS MEAS FROM
COMP.                                                 NAM:   OPERATOR
PDAT.                                                 NAP:   PERM DATUM
SPUD.                                          1970/11/08:   SPUD DATE
UWBI.                                      11000074112201:   UWBI
WELL.                                       EEMSKANAAL- 1:   HOLE NAME
~PARAMETER INFORMATION (log)
LNAM.                                RUN 01 RAW OH 14.75":   NAME
LTYP.                                                 01R:   LOG TYPE
LVSN.                                                   1:   LOG VERSION
BS  .3/4"                                              14:   BIT SIZE
BLI .M                                             1406.2:   BOTTOM DEPTH LOGGED
BHIS.                                            RCCCCCCC:   BRIEF HISTORY
FHIS.              RAW-TIGA/COPY/COPY/COPY/COPY/COPY/COPY:   FULL HISTORY
MRT .C                                                 50:   MAX REC TEMP
DFT .                                         CHALK WATER:   MUD TYPE
RMS .                                                1.44:   RM
MST .C                                                 11:   RM TEMP
RMCS.                                                1.93:   RMC
MCST.C                                                 19:   RMC TEMP
RMFS.                                               0.917:   RMF
MFST.C                                                 19:   RMF TEMP
TCS .                                                 N/A:   TIME SINCE CIRCLN
TLI .M                                              403.6:   TOP DEPTH LOGGED
~Curve Information Block
#MNEM.UNIT                                        API CODE    No Description
#=========                                        ========    == ===========
DEPT.M                                       00 001 00 00:     1  DEPTH
DILD.OHMM                                                :     2  DUAL INDUCTION LOG DEEP RESISTIVITY
SN.OHMM                                                  :     3  SHORT NORMAL
~ASCII
# ...
 1255.7760     1.8380     1.7720
 1255.9284     1.8580     1.7920
 1256.0808     1.8770     1.8070
 1256.2332     1.8750     1.8100
 1256.3856     1.8630     1.8100
 1256.5380     1.8520     1.8040
 1256.6904     1.8390     1.7940
 1256.8428     1.8160     1.7740
 1256.9952     1.7810     1.7490
 1257.1476     1.7470     1.7310
 1257.3000     1.7200     1.7230
 1257.4524     1.7200     1.7160
 1257.6048     1.7200     1.7090
 1257.7572     1.7200     1.7040
 1257.9096     1.7200     1.7000
 1258.0620     1.7200     1.6990
 1258.2144     1.7250     1.6970
 1258.3668     1.7310     1.6980
 1258.5192     1.7440     1.7060
 1258.6716     1.7660     1.7240
 1258.8240     1.7950     1.7540
 1258.9764     1.8530     1.8060
 1259.1288     1.9350     1.8590
 1259.2812     2.0180     1.9320
 1259.4336     2.1340     2.0090
 1259.5860     2.2340     2.1070
 1259.7384     2.3140     2.2130
 1259.8908     2.3840     2.3200
 1260.0432     2.4210     2.3990
 1260.1956     2.4530     2.4410
 1260.3480     2.4810     2.4500
 1260.5004     2.4980     2.4490
 1260.6528     2.5080     2.4480
 1260.8052     2.5230     2.4500
 1260.9576     2.5350     2.4680
 1261.1100     2.5360     2.4860
 1261.2624     2.5320     2.4810
 1261.4148     2.5180     2.4560
 1261.5672     2.4920     2.4350
 1261.7196     2.4640     2.4270
 1261.8720     2.4410     2.4140
 1262.0244     2.4290     2.3480
 1262.1768     2.4060     2.3020
 1262.3292     2.3920     2.2850
 1262.4816     2.3940     2.2850
 1262.6340     2.4200     2.2880
 1262.7864     2.4350     2.2990
 1262.9388     2.4420     2.3400
 1263.0912     2.4480     2.3880
 1263.2436     2.4480     2.4140
 1263.3960     2.4480     2.4300
 1263.5484     2.4460     2.4300
 1263.7008     2.4320     2.4260
 1263.8532     2.4110     2.4070
 1264.0056     2.3850     2.3870
 1264.1580     2.3640     2.3710
 1264.3104     2.3550     2.3620
 1264.4628     2.3690     2.3630
 1264.6152     2.3890     2.3730
 1264.7676     2.4270     2.4040
 1264.9200     2.4820     2.4510
 1265.0724     2.5310     2.4700
 1265.2248     2.5700     2.4970
 1265.3772     2.5970     2.5210
 1265.5296     2.6020     2.5250
 1265.6820     2.6130     2.5240
 1265.8344     2.6110     2.5330
 1265.9868     2.5940     2.5580
 1266.1392     2.5590     2.5630
 1266.2916     2.5290     2.5560
 1266.4440     2.4950     2.5230
 1266.5964     2.4590     2.4730
 1266.7488     2.4220     2.4430
 1266.9012     2.3780     2.4180
 1267.0536     2.3230     2.3790
 1267.2060     2.2710     2.3500
 1267.3584     2.2450     2.3260
 1267.5108     2.2420     2.3080
 1267.6632     2.2540     2.2990
 1267.8156     2.2830     2.2930
 1267.9680     2.3360     2.2920
 1268.1204     2.3730     2.3050
 1268.2728     2.3780     2.3380
 1268.4252     2.3880     2.3960
 1268.5776     2.3980     2.4130
 1268.7300     2.4000     2.4110
 1268.8824     2.4000     2.3960
 1269.0348     2.4000     2.3890
 1269.1872     2.4070     2.3940
 1269.3396     2.4150     2.4010
 1269.4920     2.4240     2.4160
 1269.6444     2.4380     2.4280
 1269.7968     2.4500     2.4410
 1269.9492     2.4590     2.4490
 1270.1016     2.4640     2.4560
 1270.2540     2.4640     2.4650
 1270.4064     2.4640     2.4710
 1270.5588     2.4640     2.4730
 1270.7112     2.4640     2.4700
 1270.8636     2.4600     2.4610
 1271.0160     2.4510     2.4460
 1271.1684     2.4480     2.4310
 1271.3208     2.4400     2.4090
 1271.4732     2.4250     2.3870
 1271.6256     2.4060     2.3730
 1271.7780     2.3820     2.3650
 1271.9304     2.3450     2.3650
 1272.0828     2.3350     2.3650
 1272.2352     2.3300     2.3650
 1272.3876     2.3300     2.3650
 1272.5400     2.3370     2.3650
 1272.6924     2.3380     2.3690
 1272.8448     2.3530     2.3790
 1272.9972     2.3740     2.3950
 1273.1496     2.3810     2.4100
 1273.3020     2.3900     2.4200
 1273.4544     2.3970     2.4170
 1273.6068     2.4080     2.4050
 1273.7592     2.4080     2.3870
 1273.9116     2.4080     2.3820
 1274.0640     2.3980     2.3890
 1274.2164     2.3860     2.3910
 1274.3688     2.3820     2.3710
 1274.5212     2.3780     2.3520
 1274.6736     2.3780     2.3500
 1274.8260     2.3780     2.3660
 1274.9784     2.3780     2.3670
 1275.1308     2.3830     2.3580
 1275.2832     2.3880     2.3610
 1275.4356     2.4030     2.3870
 1275.5880     2.4290     2.4260
 1275.7404     2.4680     2.4790
 1275.8928     2.5230     2.5400
 1276.0452     2.5990     2.6030
 1276.1976     2.6850     2.6930
 1276.3500     2.7420     2.7790
 1276.5024     2.7740     2.8420
 1276.6548     2.7820     2.8840
 1276.8072     2.7630     2.8910
 1276.9596     2.7360     2.8710
 1277.1120     2.6900     2.8350
 1277.2644     2.6540     2.7890
 1277.4168     2.6370     2.7500
 1277.5692     2.6300     2.7190
 1277.7216     2.6330     2.7020
 1277.8740     2.6440     2.7040
 1278.0264     2.6660     2.7120
 1278.1788     2.6720     2.7130
 1278.3312     2.6670     2.7110
 1278.4836     2.6430     2.7020
 1278.6360     2.5930     2.6880
 1278.7884     2.5100     2.6670
 1278.9408     2.4300     2.6240
 1279.0932     2.3660     2.5600
 1279.2456     2.3190     2.4680
 1279.3980     2.3040     2.3980
 1279.5504     2.2910     2.3560
 1279.7028     2.2980     2.3500
 1279.8552     2.3150     2.3610
 1280.0076     2.3400     2.3890
 1280.1600     2.3750     2.4180
 1280.3124     2.4050     2.4410
 1280.4648     2.4340     2.4580
 1280.6172     2.4410     2.4740
 1280.7696     2.4880     2.4870
 1280.9220     2.5360     2.5070
 1281.0744     2.5390     2.5350
 1281.2268     2.5510     2.5490
 1281.3792     2.5450     2.5460
 1281.5316     2.5310     2.5350
 1281.6840     2.4810     2.5280
 1281.8364     2.4300     2.5110
 1281.9888     2.3890     2.4860
 1282.1412     2.3530     2.4390
 1282.2936     2.3230     2.4000
 1282.4460     2.3070     2.3830
 1282.5984     2.2900     2.3890
 1282.7508     2.2950     2.3850
 1282.9032     2.3100     2.3840
 1283.0556     2.3250     2.3850
 1283.2080     2.3490     2.3970
 1283.3604     2.3720     2.4270
 1283.5128     2.4010     2.4570
 1283.6652     2.4080     2.4790
 1283.8176     2.4140     2.4870
 1283.9700     2.4090     2.4850
 1284.1224     2.4060     2.4650
 1284.2748     2.3850     2.4410
 1284.4272     2.3510     2.4210
 1284.5796     2.3180     2.4090
 1284.7320     2.3180     2.4000
 1284.8844     2.3220     2.3910
 1285.0368     2.3390     2.3880
 1285.1892     2.3530     2.3930
 1285.3416     2.3670     2.4280
 1285.4940     2.3780     2.4640
 1285.6464     2.3930     2.4840
 1285.7988     2.4060     2.4980
 1285.9512     2.4080     2.5080
 1286.1036     2.4190     2.5140
 1286.2560     2.4350     2.5010
 1286.4084     2.4400     2.5010
 1286.5608     2.4400     2.5110
 1286.7132     2.4320     2.5110
 1286.8656     2.4320     2.5090
 1287.0180     2.4410     2.5030
 1287.1704     2.4520     2.4950
 1287.3228     2.4650     2.4940
 1287.4752     2.4930     2.4970
 1287.6276     2.5410     2.5200
 1287.7800     2.6090     2.5520
 1287.9324     2.6860     2.5860
 1288.0848     2.6290     2.6070
 1288.2372     2.6280     2.6190
 1288.3896     2.6110     2.6210
 1288.5420     2.5740     2.6320
 1288.6944     2.5110     2.6360
 1288.8468     2.4320     2.6230
 1288.9992     2.3740     2.5920
 1289.1516     2.3620     2.5530
 1289.3040     2.3740     2.5090
 1289.4564     2.3890     2.4870
 1289.6088     2.4010     2.4830
 1289.7612     2.4340     2.4860
 1289.9136     2.4720     2.4930
 1290.0660     2.5150     2.5110
 1290.2184     2.5550     2.5320
 1290.3708     2.5900     2.5560
 1290.5232     2.6260     2.5810
 1290.6756     2.6520     2.5960
 1290.8280     2.6800     2.6060
 1290.9804     2.7000     2.6210
 1291.1328     2.7250     2.6470
 1291.2852     2.7440     2.6810
 1291.4376     2.7670     2.7110
 1291.5900     2.7890     2.7360
 1291.7424     2.7900     2.7550
 1291.8948     2.7900     2.7660
 1292.0472     2.7780     2.7710
 1292.1996     2.7640     2.7700
 1292.3520     2.7430     2.7610
 1292.5044     2.7130     2.7440
 1292.6568     2.6790     2.7220
