~VERSION INFORMATION
VERS.                                                 2.0:   CWLS Log ASCII Standard-VERSION 2.0
WRAP.                                                  NO:   One line per depth step
~Well Information Block
STRT.M                                          1406.0424:   Top Depth
STOP.M                                          1903.9332:   Bottom Depth
STEP.M                                             .15240:   Depth Increment
NULL.                                            -999.250:   Null Value
FLD .                                          EEMSKANAAL:   Field Name
WELL.                                       EEMSKANAAL- 1:   NAME
EDF .m                                               5.58:   ELEV DRILL FLOOR
EPD .                                                   0:   ELEV PERM DATUM
EGL .m                                                -.9:   GROUND LEVEL
LMF .                                                  DF:   LOGS MEAS FROM
COMP.                                                 NAM:   OPERATOR
PDAT.                                                 NAP:   PERM DATUM
SPUD.                                          1970/11/08:   SPUD DATE
UWBI.                                      11000074112201:   UWBI
WELL.                                       EEMSKANAAL- 1:   HOLE NAME
~PARAMETER INFORMATION (log)
LNAM.                                RUN 07 RAW OH 9.625":   NAME
LTYP.                                                 07R:   LOG TYPE
LVSN.                                                   1:   LOG VERSION
BS  .5/8"                                               9:   BIT SIZE
BLI .M                                               2950:   BOTTOM DEPTH LOGGED
BHIS.                                            RCCCCCCC:   BRIEF HISTORY
FHIS.              RAW-TIGA/COPY/COPY/COPY/COPY/COPY/COPY:   FULL HISTORY
MRT .                                                    :   MAX REC TEMP
DFT .                                          SALT SPERS:   MUD TYPE
RMS .                                               0.074:   RM
MST .C                                                 26:   RM TEMP
RMCS.                                               0.144:   RMC
MCST.C                                                 17:   RMC TEMP
RMFS.                                               0.059:   RMF
MFST.C                                                 26:   RMF TEMP
TCS .                                                 N/A:   TIME SINCE CIRCLN
TLI .M                                             1406.5:   TOP DEPTH LOGGED
~Curve Information Block
#MNEM.UNIT                                        API CODE    No Description
#=========                                        ========    == ===========
DEPT.M                                       00 001 00 00:     1  DEPTH
LL9D.OHMM                                                :     2  Dual Laterolog 9 deep
LL9S.OHMM                                                :     3  Dual Laterolog 9 shallow
MSFL.OHMM                                                :     4  MICRO SPHERICALLY FOCUSSED LOG
~ASCII
# ...
 1849.8312     1.5760     1.3970     1.9670
 1849.9836     1.6290     1.4580     1.8900
 1850.1360     1.6400     1.4770     1.9710
 1850.2884     1.6100     1.4480     2.3080
 1850.4408     1.5380     1.3660     2.0530
 1850.5932     1.4520     1.2520     1.8580
 1850.7456     1.3620     1.1780     2.0430
 1850.8980     1.3230     1.1660     1.7970
 1851.0504     1.3320     1.1900     1.6360
 1851.2028     1.3770     1.2270     1.5980
 1851.3552     1.4230     1.2680     1.6380
 1851.5076     1.4490     1.3000     1.6970
 1851.6600     1.4830     1.3210     1.7820
 1851.8124     1.5480     1.3570     1.9510
 1851.9648     1.6540     1.4390     1.8720
 1852.1172     1.7420     1.5150     1.8260
 1852.2696     1.7660     1.5520     2.3020
 1852.4220     1.7550     1.5310     2.8650
 1852.5744     1.6950     1.4550     2.4320
 1852.7268     1.6560     1.4530     2.1970
 1852.8792     1.6970     1.5050     2.0840
 1853.0316     1.7780     1.5720     2.0450
 1853.1840     1.8270     1.6180     2.1770
 1853.3364     1.8130     1.6490     2.7250
 1853.4888     1.7590     1.6490     3.1000
 1853.6412     1.7330     1.6300     2.2410
 1853.7936     1.7280     1.6040     2.5240
 1853.9460     1.7280     1.5820     2.3740
 1854.0984     1.7260     1.5640     2.2630
 1854.2508     1.7070     1.5600     2.4920
 1854.4032     1.6830     1.5600     2.1560
 1854.5556     1.6730     1.5630     2.1370
 1854.7080     1.6750     1.5670     2.5380
 1854.8604     1.6810     1.5800     2.3410
 1855.0128     1.6890     1.6040     2.1800
 1855.1652     1.7000     1.6270     2.5110
 1855.3176     1.7160     1.6460     2.5420
 1855.4700     1.7260     1.6660     2.3170
 1855.6224     1.7400     1.6760     2.2180
 1855.7748     1.7320     1.6690     2.4920
 1855.9272     1.7260     1.6510     2.6100
 1856.0796     1.7100     1.6230     2.5970
 1856.2320     1.7070     1.6050     2.5120
 1856.3844     1.7100     1.6050     2.2770
 1856.5368     1.7350     1.6100     2.1800
 1856.6892     1.8270     1.6350     2.1680
 1856.8416     1.8930     1.6790     2.6160
 1856.9940     1.9100     1.7350     3.2060
 1857.1464     1.8670     1.7600     2.9790
 1857.2988     1.8000     1.7340     3.2780
 1857.4512     1.7680     1.6960     2.7910
 1857.6036     1.7930     1.6870     2.3580
 1857.7560     1.8920     1.7070     2.5670
 1857.9084     1.9230     1.7060     2.8260
 1858.0608     1.8710     1.6880     2.6210
 1858.2132     1.7830     1.6760     2.3470
 1858.3656     1.7680     1.6870     2.3420
 1858.5180     1.7960     1.7290     2.5910
 1858.6704     1.8410     1.7810     2.5850
 1858.8228     1.8550     1.7920     2.4650
 1858.9752     1.8260     1.7730     2.6940
 1859.1276     1.7310     1.7250     3.8550
 1859.2800     1.7020     1.6600     2.7880
 1859.4324     1.7060     1.6600     2.3520
 1859.5848     1.7330     1.6930     2.6670
 1859.7372     1.8080     1.7630     2.4230
 1859.8896     1.9280     1.9030     2.6110
 1860.0420     2.0460     2.0370     2.3950
 1860.1944     2.0400     2.0310     3.2900
 1860.3468     1.9590     1.9460     3.0170
 1860.4992     1.8130     1.8600     2.7100
 1860.6516     1.7020     1.8140     3.3300
 1860.8040     1.6100     1.8040     2.0770
 1860.9564     1.6030     1.8080     2.0500
 1861.1088     1.6250     1.8260     2.5050
 1861.2612     1.7140     1.8830     2.5120
 1861.4136     1.8450     2.0000     1.8310
 1861.5660     1.9580     2.1860     1.7800
 1861.7184     1.9980     2.2970     2.7540
 1861.8708     1.9520     2.3290     3.5670
 1862.0232     1.9170     2.3330     2.8750
 1862.1756     1.9390     2.3290     2.9610
 1862.3280     2.0120     2.3040     3.0110
 1862.4804     2.0720     2.2030     2.8790
 1862.6328     2.0490     2.0420     3.3870
 1862.7852     1.9830     1.9040     2.8190
 1862.9376     1.9250     1.8120     4.6040
 1863.0900     1.8830     1.7750     3.6260
 1863.2424     1.8420     1.7700     2.9350
 1863.3948     1.8130     1.7620     2.3510
 1863.5472     1.8120     1.7260     3.5460
 1863.6996     1.8120     1.6820     3.4890
 1863.8520     1.8170     1.6920     2.0690
 1864.0044     1.8520     1.7470     2.3750
 1864.1568     1.8900     1.8250     2.9540
 1864.3092     1.8920     1.7810     3.0780
 1864.4616     1.8390     1.6110     3.3630
 1864.6140     1.7910     1.4930     3.8120
 1864.7664     1.7860     1.4740     3.5900
 1864.9188     1.7900     1.4770     3.1150
 1865.0712     1.7980     1.5030     2.3830
 1865.2236     1.8100     1.5370     2.7600
 1865.3760     1.8280     1.5500     3.0570
 1865.5284     1.8350     1.5500     2.5090
 1865.6808     1.8300     1.5390     2.9580
 1865.8332     1.8060     1.5060     2.6630
 1865.9856     1.7660     1.4580     2.3860
 1866.1380     1.7050     1.4040     2.5830
 1866.2904     1.6540     1.3580     2.7690
 1866.4428     1.6440     1.3440     2.4100
 1866.5952     1.6480     1.3490     2.1340
 1866.7476     1.6610     1.3680     2.0660
 1866.9000     1.6760     1.3910     2.4220
 1867.0524     1.7080     1.4180     2.6040
 1867.2048     1.7530     1.4420     2.1810
 1867.3572     1.8030     1.4610     2.3770
 1867.5096     1.8500     1.4680     2.7930
 1867.6620     1.8480     1.4680     2.6780
 1867.8144     1.8320     1.4620     2.1760
 1867.9668     1.8350     1.4620     2.2190
 1868.1192     1.8700     1.4830     2.1930
 1868.2716     1.9310     1.5460     2.1090
 1868.4240     1.9470     1.5890     2.1410
 1868.5764     1.9420     1.5970     2.4080
 1868.7288     1.9240     1.5930     2.4930
 1868.8812     1.8920     1.5830     2.4790
 1869.0336     1.8530     1.5540     2.1750
 1869.1860     1.8230     1.5090     1.7080
 1869.3384     1.7890     1.4500     1.8000
 1869.4908     1.7460     1.3890     2.3820
 1869.6432     1.6980     1.3700     2.6990
 1869.7956     1.7030     1.4250     2.6940
 1869.9480     1.8550     1.5270     2.1230
 1870.1004     1.9120     1.5540     3.7150
 1870.2528     1.8850     1.5230     3.7850
 1870.4052     1.8120     1.4680     2.7470
 1870.5576     1.7000     1.4040     2.6130
 1870.7100     1.6370     1.3720     1.9960
 1870.8624     1.6610     1.3770     1.9050
 1871.0148     1.6970     1.4010     1.9790
 1871.1672     1.7010     1.4210     2.1000
 1871.3196     1.6740     1.4240     2.3950
 1871.4720     1.6410     1.4160     1.9340
 1871.6244     1.6360     1.4090     2.0620
 1871.7768     1.6520     1.4190     1.9260
 1871.9292     1.6570     1.4250     1.8990
 1872.0816     1.6390     1.4050     2.5940
 1872.2340     1.6000     1.3570     2.5200
 1872.3864     1.5200     1.3050     1.7670
 1872.5388     1.5090     1.3170     1.9000
 1872.6912     1.5820     1.3730     2.5450
 1872.8436     1.7280     1.4560     2.0130
 1872.9960     1.8250     1.6130     2.4780
 1873.1484     1.8280     1.6810     3.1260
 1873.3008     1.7460     1.6190     2.8250
 1873.4532     1.6370     1.4830     2.9440
 1873.6056     1.5550     1.4330     3.1490
 1873.7580     1.5260     1.4390     2.2880
 1873.9104     1.5630     1.4930     2.1740
 1874.0628     1.5840     1.5570     2.5430
 1874.2152     1.5510     1.5490     2.2080
 1874.3676     1.4520     1.4810     2.9180
 1874.5200     1.3150     1.3340     2.7890
 1874.6724     1.2660     1.2900     2.0110
 1874.8248     1.3120     1.3320     1.6760
 1874.9772     1.6080     1.4930     1.6360
 1875.1296     2.0430     1.7510     1.7940
 1875.2820     2.4190     2.1820     2.2950
 1875.4344     2.6240     2.6130     3.7120
 1875.5868     2.6830     2.7340     6.9400
 1875.7392     2.4990     2.6590     6.9770
 1875.8916     2.1990     2.3500     4.3990
 1876.0440     2.1580     2.1690     3.3320
 1876.1964     2.1780     2.1550     3.1230
 1876.3488     2.2580     2.2050     3.1970
 1876.5012     2.3970     2.2700     3.1800
 1876.6536     2.5700     2.3520     3.7480
 1876.8060     2.7880     2.4990     3.0610
 1876.9584     3.0160     2.7460     3.1460
 1877.1108     3.0360     2.8710     4.7510
 1877.2632     2.8330     2.8030     4.9880
 1877.4156     2.5720     2.4860     4.4790
