~VERSION INFORMATION
VERS.                                                 2.0:   CWLS Log ASCII Standard-VERSION 2.0
WRAP.                                                  NO:   One line per depth step
~Well Information Block
STRT.M                                          2687.1168:   Top Depth
STOP.M                                          3063.8496:   Bottom Depth
STEP.M                                             .15240:   Depth Increment
NULL.                                            -999.250:   Null Value
FLD .                                          EEMSKANAAL:   Field Name
WELL.                                       EEMSKANAAL- 1:   NAME
EDF .m                                               5.58:   ELEV DRILL FLOOR
EPD .                                                   0:   ELEV PERM DATUM
EGL .m                                                -.9:   GROUND LEVEL
LMF .                                                  DF:   LOGS MEAS FROM
COMP.                                                 NAM:   OPERATOR
PDAT.                                                 NAP:   PERM DATUM
SPUD.                                          1970/11/08:   SPUD DATE
UWBI.                                      11000074112201:   UWBI
WELL.                                       EEMSKANAAL- 1:   HOLE NAME
~PARAMETER INFORMATION (log)
LNAM.                                RUN 05 RAW OH 9.625":   NAME
LTYP.                                                 05R:   LOG TYPE
LVSN.                                                   1:   LOG VERSION
BS  .5/8"                                               9:   BIT SIZE
BLI .M                                               3063:   BOTTOM DEPTH LOGGED
BHIS.                                            RCCCCCCC:   BRIEF HISTORY
FHIS.              RAW-TIGA/COPY/COPY/COPY/COPY/COPY/COPY:   FULL HISTORY
MRT .C                                                 89:   MAX REC TEMP
DFT .                                          SALT SPERS:   MUD TYPE
RMS .                                               0.074:   RM
MST .C                                                 26:   RM TEMP
RMCS.                                               0.144:   RMC
MCST.C                                                 17:   RMC TEMP
RMFS.                                               0.059:   RMF
MFST.C                                                 26:   RMF TEMP
TCS .                                               5 HRS:   TIME SINCE CIRCLN
TLI .M                                               2690:   TOP DEPTH LOGGED
~Curve Information Block
#MNEM.UNIT                                        API CODE    No Description
#=========                                        ========    == ===========
DEPT.M                                       00 001 00 00:     1  DEPTH
LL7.OHMM                                                 :     2  LATEROLOG 7
SP.MV                                                    :     3  Spontaneous potential
~ASCII
# ...
 3020.4156    13.9770   -68.8200
 3020.5680    17.3840   -68.8200
 3020.7204    15.6280   -68.8200
 3020.8728     9.6170   -68.8200
 3021.0252     2.2400   -68.8300
 3021.1776      .2520   -68.8910
 3021.3300    18.8370   -68.9400
 3021.4824    13.8010   -68.9480
 3021.6348    12.0490   -68.9840
 3021.7872    10.3530   -69.0160
 3021.9396    10.1330   -69.0480
 3022.0920    10.2480   -69.1340
 3022.2444    10.5650   -69.1980
 3022.3968    11.5670   -69.2200
 3022.5492    12.1230   -69.2200
 3022.7016    12.0160   -69.2200
 3022.8540     7.9240   -69.2200
 3023.0064     6.1590   -69.2220
 3023.1588    12.0990   -69.2560
 3023.3112    12.7650   -69.2980
 3023.4636    13.4770   -69.3980
 3023.6160    14.1430   -69.4780
 3023.7684    14.2640   -69.5750
 3023.9208    14.2110   -69.7130
 3024.0732    14.1540   -69.7970
 3024.2256    13.8840   -69.8680
 3024.3780    13.5940   -69.9290
 3024.5304    13.2220   -70.0220
 3024.6828    12.3890   -70.0580
 3024.8352    10.9210   -70.0840
 3024.9876    12.2550   -70.0900
 3025.1400    12.0320   -70.0980
 3025.2924     9.6580   -70.1290
 3025.4448     9.9700   -70.1540
 3025.5972     9.0810   -70.1700
 3025.7496    10.4670   -70.2000
 3025.9020    11.9420   -70.2510
 3026.0544    10.4270   -70.3020
 3026.2068    13.0170   -70.3300
 3026.3592    13.8170   -70.3300
 3026.5116    14.2710   -70.3080
 3026.6640    14.7190   -70.2640
 3026.8164    15.1460   -70.1500
 3026.9688    15.3270   -70.0380
 3027.1212    15.2110   -69.8570
 3027.2736    14.0920   -69.7410
 3027.4260    12.2870   -69.7300
 3027.5784    14.2790   -69.6990
 3027.7308    15.0060   -69.6410
 3027.8832    14.6380   -69.6280
 3028.0356    13.6900   -69.6710
 3028.1880    12.9030   -69.7250
 3028.3404    12.3360   -69.7640
 3028.4928    12.0890   -69.8460
 3028.6452    11.7320   -69.9230
 3028.7976    10.8170   -69.9990
 3028.9500     5.9910   -70.0700
 3029.1024     4.4540   -70.1300
 3029.2548    11.6150   -70.1300
 3029.4072     9.9850   -70.1290
 3029.5596    10.1000   -70.1020
 3029.7120    12.7130   -70.0900
 3029.8644     8.6720   -70.0900
 3030.0168     2.5520   -70.0900
 3030.1692      .4990   -70.0900
 3030.3216      .2090   -70.0990
 3030.4740     4.6370   -70.1300
 3030.6264     7.2110   -70.1530
 3030.7788     7.7660   -70.2060
 3030.9312     8.0850   -70.2500
 3031.0836     8.3180   -70.2580
 3031.2360     8.9910   -70.2900
 3031.3884    11.0310   -70.2990
 3031.5408    12.8390   -70.3740
 3031.6932    15.1600   -70.4080
 3031.8456    17.7490   -70.4190
 3031.9980    19.2250   -70.4500
 3032.1504    20.5580   -70.4500
 3032.3028    21.5660   -70.4300
 3032.4552    20.4670   -70.3600
 3032.6076    18.0550   -70.2750
 3032.7600    22.4280   -70.1420
 3032.9124    25.2220   -69.9280
 3033.0648    24.6120   -69.7620
 3033.2172    23.6080   -69.6000
 3033.3696    22.5520   -69.5010
 3033.5220    21.4180   -69.4070
 3033.6744    20.0900   -69.3010
 3033.8268    18.8020   -69.1360
 3033.9792    18.0200   -68.9910
 3034.1316    17.5840   -68.8280
 3034.2840    17.2900   -68.6590
 3034.4364    17.2020   -68.1250
 3034.5888    17.3820   -67.9200
 3034.7412    17.6920   -67.6990
 3034.8936    18.3590   -67.5000
 3035.0460    18.9810   -67.1840
 3035.1984    19.5390   -66.8530
 3035.3508    20.1150   -66.6040
 3035.5032    20.5210   -66.3760
 3035.6556    20.4850   -66.2070
 3035.8080    20.6070   -66.1470
 3035.9604    21.2530   -66.0920
 3036.1128    22.1180   -65.9650
 3036.2652    23.7110   -65.7690
 3036.4176    26.4750   -65.4430
 3036.5700    31.1390   -65.0950
 3036.7224    32.8870   -64.7640
 3036.8748    32.5500   -64.5350
 3037.0272    30.3740   -64.3970
 3037.1796    18.2680   -64.2960
 3037.3320    13.8640   -64.1480
 3037.4844    12.1220   -64.0660
 3037.6368    11.1330   -63.9950
 3037.7892    11.4510   -63.9170
 3037.9416    13.0040   -63.8330
 3038.0940    14.6000   -63.7720
 3038.2464    15.9170   -63.7700
 3038.3988    17.3130   -63.7700
 3038.5512    17.6200   -63.7700
 3038.7036    17.3580   -63.7700
 3038.8560    16.4620   -63.7700
 3039.0084    16.6780   -63.7700
 3039.1608    18.4870   -63.7700
 3039.3132    21.6500   -63.7700
 3039.4656    23.8480   -63.7700
 3039.6180    25.6810   -63.7700
 3039.7704    26.6470   -63.7700
 3039.9228    27.3870   -63.7700
 3040.0752    28.4040   -63.7700
 3040.2276    29.6740   -63.7700
 3040.3800    31.0880   -63.7700
 3040.5324    32.4730   -63.7770
 3040.6848    33.0190   -63.8070
 3040.8372    33.7620   -63.8100
 3040.9896    34.8660   -63.8100
 3041.1420    36.2500   -63.8100
 3041.2944    38.7740   -63.8100
 3041.4468    42.6170   -63.8100
 3041.5992    46.1810   -63.8200
 3041.7516    46.7420   -63.8910
 3041.9040    45.5050   -64.0130
 3042.0564    42.6990   -64.1080
 3042.2088    37.0180   -64.1680
 3042.3612    32.9210   -64.2750
 3042.5136    29.3000   -64.4170
 3042.6660    26.8490   -64.5130
 3042.8184    26.2750   -64.6590
 3042.9708    25.8070   -64.8040
 3043.1232    23.1610   -64.9980
 3043.2756    18.9680   -65.1510
 3043.4280    17.9090   -65.2750
 3043.5804    18.2250   -65.4370
 3043.7328    18.8650   -65.5900
 3043.8852    20.0610   -65.7180
 3044.0376    22.7510   -65.7910
 3044.1900    31.1100   -65.8280
 3044.3424    38.5420   -65.8610
 3044.4948    36.6430   -65.9660
 3044.6472    31.8600   -66.0590
 3044.7996    29.6410   -66.2200
 3044.9520    28.3030   -66.3460
 3045.1044    27.1500   -66.4310
 3045.2568    26.2330   -66.4880
 3045.4092    25.4520   -66.5320
 3045.5616    24.6440   -66.5750
 3045.7140    23.8340   -66.5900
 3045.8664    22.8830   -66.5900
 3046.0188    20.9110   -66.6060
 3046.1712    17.1430   -66.6300
 3046.3236    13.5110   -66.6300
 3046.4760    10.3690   -66.6610
 3046.6284     8.4490   -66.6700
 3046.7808     6.8290   -66.6700
 3046.9332     5.4290   -67.0130
 3047.0856     5.2500   -66.9290
 3047.2380     5.2080   -66.7430
 3047.3904     5.1990   -66.5320
 3047.5428     4.4140   -66.3500
 3047.6952     3.7370   -66.1940
 3047.8476     3.6870   -66.1900
 3048.0000     3.7170   -66.1800
 3048.1524     3.9680   -65.7620
 3048.3048     5.0160   -64.6370
 3048.4572     7.4890   -63.9400
 3048.6096    10.6970   -63.2390
 3048.7620    12.2300   -62.5960
 3048.9144    12.2360   -61.9800
 3049.0668    11.2930   -61.4200
 3049.2192    10.8300   -60.9400
 3049.3716    11.9440   -60.4470
 3049.5240    12.4470   -60.0200
 3049.6764    11.9330   -59.7990
 3049.8288    12.0760   -59.7900
 3049.9812    12.8000   -59.7900
 3050.1336    13.5150   -59.7770
 3050.2860    13.8720   -59.7500
 3050.4384    14.0090   -59.7290
 3050.5908    13.6320   -59.7460
 3050.7432    12.7680   -59.7500
 3050.8956    11.7210   -59.7500
 3051.0480    11.0340   -59.7500
 3051.2004    10.8720   -59.7900
 3051.3528    11.9420   -59.8780
 3051.5052    13.9930   -59.9710
 3051.6576    16.9050   -60.2030
 3051.8100    22.5210   -60.2790
 3051.9624    24.6040   -60.2760
 3052.1148    25.8340   -60.3250
 3052.2672    23.1070   -60.4170
 3052.4196    18.2320   -60.5660
 3052.5720    12.3430   -60.6190
 3052.7244     8.5200   -60.7990
 3052.8768     6.0230   -60.9670
 3053.0292     4.9600   -61.2240
 3053.1816     4.8890   -61.5020
 3053.3340     4.8790   -61.5940
 3053.4864     5.3170   -61.5680
 3053.6388     5.6960   -60.8220
 3053.7912     5.5750   -59.9190
 3053.9436     4.7210   -59.5720
 3054.0960     4.0420   -59.5100
 3054.2484     3.4450   -59.5940
 3054.4008     2.8740   -59.7830
 3054.5532     2.7700   -60.3400
 3054.7056     2.8840   -60.5850
 3054.8580     3.1460   -60.7060
 3055.0104     3.4980   -60.8380
 3055.1628     3.9410   -60.9600
 3055.3152     3.9370   -61.0840
 3055.4676     3.8120   -61.2140
 3055.6200     3.5190   -61.3380
 3055.7724     3.1060   -61.4680
 3055.9248     2.8390   -61.5900
 3056.0772     2.6340   -61.7890
 3056.2296     2.5930   -62.1770
 3056.3820     2.6060   -62.4750
 3056.5344     3.0480   -62.4720
 3056.6868     3.3330   -62.3160
 3056.8392     3.2600   -62.1130
 3056.9916     3.0890   -61.9300
 3057.1440     5.1890   -61.7140
 3057.2964    11.7100   -61.6200
