~VERSION INFORMATION
VERS.                                                 2.0:   CWLS Log ASCII Standard-VERSION 2.0
WRAP.                                                  NO:   One line per depth step
~Well Information Block
STRT.M                                          1789.0236:   Top Depth
STOP.M                                          2779.9284:   Bottom Depth
STEP.M                                             .15240:   Depth Increment
NULL.                                            -999.250:   Null Value
FLD .                                          EEMSKANAAL:   Field Name
WELL.                                       EEMSKANAAL- 2:   NAME
APD .M                                               5.62:   ABOVE PERM DATUM
CTRY.                                                  NE:   COUNTRY
EDF .m                                               5.62:   ELEV DRILL FLOOR
EPD .                                                   0:   ELEV PERM DATUM
EGL .m                                              -1.06:   GROUND LEVEL
LMF .                                                  DF:   LOGS MEAS FROM
COMP.                                                 NAM:   OPERATOR
PDAT.                                                 NAP:   PERM DATUM
SPUD.                                          1971/03/17:   SPUD DATE
STAT.                                           Unknown m:   STATE
UWBI.                                      11000074112601:   UWBI
WELL.                                       EEMSKANAAL- 2:   HOLE NAME
~PARAMETER INFORMATION (log)
LNAM.                                RUN 01 RAW OH 9 5/8":   NAME
LTYP.                                                 01R:   LOG TYPE
LVSN.                                                   1:   LOG VERSION
BS  .5/8"                                               9:   BIT SIZE
BLI .M                                             2778.0:   BOTTOM DEPTH LOGGED
BHIS.                                                MCCC:   BRIEF HISTORY
FHIS.                                     MERGE/COPY/COPY:   FULL HISTORY
MRT .DEGC                                              84:   MAX REC TEMP
DFD .G/CC                                            1.54:   MUD DENSITY
DFT .                                   SALT SAT SPERSENE:   MUD TYPE
RMS .                                                    :   RM
MST .                                                    :   RM TEMP
RMCS.                                                    :   RMC
MCST.                                                    :   RMC TEMP
RMFS.                                                    :   RMF
MFST.                                                    :   RMF TEMP
TCS .                                                 N/A:   TIME SINCE CIRCLN
TLI .M                                             1800.0:   TOP DEPTH LOGGED
~Curve Information Block
#MNEM.UNIT                                        API CODE    No Description
#=========                                        ========    == ===========
DEPT.M                                       00 001 00 00:     1  DEPTH
CALF.IN                                                  :     2  CALIPER FROM FORMATION DENSITY LOG
FDC.G/C3                                                 :     3  Formation Density Log (Compensated Open
GR.API                                                   :     4  Gamma Ray
~ASCII
# ...
 1983.1812    10.2410     2.0020    13.1850
 1983.3336    10.2370     1.9940    15.1780
 1983.4860    10.2380     1.9890    15.1280
 1983.6384    10.2480     1.9970    13.6530
 1983.7908    10.2620     2.0230    13.3880
 1983.9432    10.2740     2.0240    13.9770
 1984.0956    10.2800     2.0190    13.6030
 1984.2480    10.2670     2.0270    14.1410
 1984.4004    10.2590     2.0340    13.8850
 1984.5528    10.2560     2.0320    12.3880
 1984.7052    10.2670     2.0200    12.2460
 1984.8576    10.2920     1.9980    13.3950
 1985.0100    10.3160     1.9810    13.0440
 1985.1624    10.3340     1.9390    12.4910
 1985.3148    10.3440     1.9170    13.1280
 1985.4672    10.3480     1.9220    16.0840
 1985.6196    10.3470     1.9490    19.0440
 1985.7720    10.2930     1.9680    22.6520
 1985.9244    10.2560     2.0110    24.0800
 1986.0768    10.2560     2.0340    19.8280
 1986.2292    10.2620     2.0360    15.7480
 1986.3816    10.2720     2.0380    12.6380
 1986.5340    10.2620     2.0450    10.9790
 1986.6864    10.2430     2.0540    10.9210
 1986.8388    10.2150     2.0620    11.5420
 1986.9912    10.1970     2.0600    11.6680
 1987.1436    10.2100     2.0550    10.4130
 1987.2960    10.2310     2.0510     9.5440
 1987.4484    10.2500     2.0520     9.0790
 1987.6008    10.2640     2.0410     9.3920
 1987.7532    10.2500     2.0290    12.6950
 1987.9056    10.1930     2.0200    15.0580
 1988.0580    10.1780     2.0290    15.4550
 1988.2104    10.1860     2.0210    15.3060
 1988.3628    10.1920     2.0350    15.5670
 1988.5152    10.1910     2.0450    16.1720
 1988.6676    10.1820     2.0360    17.0210
 1988.8200    10.1820     2.0300    17.1420
 1988.9724    10.1950     2.0300    12.5410
 1989.1248    10.2110     2.0310     9.2660
 1989.2772    10.2200     2.0510     7.1450
 1989.4296    10.2070     2.0530     6.0520
 1989.5820    10.1930     2.0420     5.5990
 1989.7344    10.1840     2.0400     5.2630
 1989.8868    10.1760     2.0490     5.0280
 1990.0392    10.1730     2.0470     4.9890
 1990.1916    10.1650     2.0390     5.5570
 1990.3440    10.1630     2.0390     6.1930
 1990.4964    10.1610     2.0370     5.6170
 1990.6488    10.1640     2.0500     5.4140
 1990.8012    10.1610     2.0530     5.9930
 1990.9536    10.1670     2.0690     7.1800
 1991.1060    10.1720     2.0830     8.5210
 1991.2584    10.1820     2.1110     9.7570
 1991.4108    10.1920     2.1230    13.3650
 1991.5632    10.2010     2.1180    25.0690
 1991.7156    10.1960     2.1120    40.0590
 1991.8680    10.1850     2.1220    53.1970
 1992.0204    10.1910     2.1270    72.1780
 1992.1728    10.2060     2.1030    90.6230
 1992.3252    10.2010     2.0620   114.0610
 1992.4776    10.2020     2.0590   119.8940
 1992.6300    10.2360     2.0430   114.4770
 1992.7824    10.2650     2.0400    97.9570
 1992.9348    10.2750     2.0460    82.2940
 1993.0872    10.2800     2.0480    70.2350
 1993.2396    10.2770     2.0450    62.1340
 1993.3920    10.2720     2.0680    58.9940
 1993.5444    10.2700     2.0970    58.9950
 1993.6968    10.2660     2.0970    60.2410
 1993.8492    10.2400     2.0940    60.2300
 1994.0016    10.1970     2.0740    57.9140
 1994.1540    10.1590     2.0530    63.3600
 1994.3064    10.0860     2.0120    69.9490
 1994.4588    10.0310     1.9970    79.0330
 1994.6112    10.1870     1.9480    84.7930
 1994.7636    10.2840     1.9040    90.7100
 1994.9160    10.2730     1.8770    90.7850
 1995.0684    10.3010     1.8370    84.5020
 1995.2208    10.3020     1.8200    73.9210
 1995.3732    10.2770     1.8330    59.1450
 1995.5256    10.2810     1.9210    41.9690
 1995.6780    10.3400     1.9970    18.6880
 1995.8304    10.3800     2.0270    13.1920
 1995.9828    10.3800     2.0260    10.4770
 1996.1352    10.3220     2.0170     9.2300
 1996.2876    10.2890     2.0070     8.9850
 1996.4400    10.3000     2.0140     9.3720
 1996.5924    10.3190     2.0250    10.1450
 1996.7448    10.3410     2.0320    10.3950
 1996.8972    10.3520     2.0300    10.5120
 1997.0496    10.3460     2.0290    11.3140
 1997.2020    10.3160     2.0200    12.4410
 1997.3544    10.2520     2.0110    13.4690
 1997.5068    10.2210     2.0210    15.2900
 1997.6592    10.2130     2.0340    12.3370
 1997.8116    10.2110     2.0580     9.1480
 1997.9640    10.2080     2.0770     8.2010
 1998.1164    10.1990     2.0680     9.7730
 1998.2688    10.1810     2.0510    12.0850
 1998.4212    10.1580     2.0440    13.8390
 1998.5736    10.1460     2.0280    13.5100
 1998.7260    10.1410     2.0290    12.3580
 1998.8784    10.1410     2.0370    11.5370
 1999.0308    10.1420     2.0480    11.1150
 1999.1832    10.1450     2.0620    11.2400
 1999.3356    10.1450     2.0650    10.8340
 1999.4880    10.1490     2.0570    10.5840
 1999.6404    10.1470     2.0550     8.5260
 1999.7928    10.1410     2.0510     6.7250
 1999.9452    10.1210     2.0490     6.6320
 2000.0976    10.0950     2.0510     7.2340
 2000.2500    10.0920     2.0430     8.0850
 2000.4024    10.0970     2.0380     9.1380
 2000.5548    10.0950     2.0310    10.4300
 2000.7072    10.0850     2.0000    12.6740
 2000.8596    10.0650     1.9910    14.2320
 2001.0120    10.0480     1.9780    13.5560
 2001.1644    10.0490     2.0070    11.7770
 2001.3168    10.0700     2.0250    10.0710
 2001.4692    10.1070     2.0330     8.5580
 2001.6216    10.1370     2.0350     7.5650
 2001.7740    10.1560     2.0410     7.7080
 2001.9264    10.1610     2.0420     7.6660
 2002.0788    10.1550     2.0420     7.6280
 2002.2312    10.1490     2.0320     8.8250
 2002.3836    10.1450     2.0280    10.1690
 2002.5360    10.1320     2.0210    11.0330
 2002.6884    10.1110     2.0270    11.5790
 2002.8408    10.1280     2.0270    11.1950
 2002.9932    10.1680     2.0260    10.2880
 2003.1456    10.1700     2.0370     9.2940
 2003.2980    10.1630     2.0550     8.3370
 2003.4504    10.1510     2.0590     8.5140
 2003.6028    10.1330     2.0480     9.2710
 2003.7552    10.1160     2.0390    11.0970
 2003.9076    10.1060     2.0410    12.6350
 2004.0600    10.1080     2.0450    13.1910
 2004.2124    10.1170     2.0420    12.4150
 2004.3648    10.1300     2.0350    11.1660
 2004.5172    10.1370     2.0340    10.7590
 2004.6696    10.1320     2.0320    10.7500
 2004.8220    10.1180     2.0250    11.7630
 2004.9744    10.1060     2.0050    16.7710
 2005.1268    10.1060     1.9940    24.0020
 2005.2792    10.1140     1.9630    34.8590
 2005.4316    10.1300     1.9470    41.9030
 2005.5840    10.1480     1.9420    44.6160
 2005.7364    10.1570     1.9610    39.2170
 2005.8888    10.1410     1.9760    36.8580
 2006.0412    10.1430     1.9630    39.4660
 2006.1936    10.1730     1.9490    43.2260
 2006.3460    10.2110     1.9520    35.8670
 2006.4984    10.2520     1.9750    28.7890
 2006.6508    10.2790     1.9900    23.6060
 2006.8032    10.2280     1.9800    24.5010
 2006.9556    10.0910     1.9570    33.0740
 2007.1080    10.0290     1.9260    40.3560
 2007.2604    10.0260     1.9170    43.4660
 2007.4128    10.0420     1.9290    40.9220
 2007.5652    10.0690     1.9790    34.0280
 2007.7176    10.0910     2.0030    30.1710
 2007.8700    10.0910     2.0080    28.0850
 2008.0224    10.0570     2.0080    24.1200
 2008.1748    10.0090     2.0150    20.1430
 2008.3272     9.9800     2.0230    16.7040
 2008.4796     9.9760     2.0250    15.0490
 2008.6320     9.9740     2.0230    13.3490
 2008.7844     9.9680     2.0300    11.8810
 2008.9368     9.9440     2.0450    10.2470
 2009.0892     9.9350     2.0700     7.7630
 2009.2416     9.9690     2.0860     6.3920
 2009.3940    10.0080     2.0870     5.6550
 2009.5464    10.0270     2.0660     5.1630
 2009.6988    10.0250     2.0600     5.0690
 2009.8512     9.9940     2.0760     5.1300
 2010.0036     9.9430     2.0790     5.0220
 2010.1560     9.9030     2.0740     4.9750
 2010.3084     9.8900     2.0650     5.0290
 2010.4608     9.8980     2.0570     5.8280
 2010.6132     9.9080     2.0510     7.4880
 2010.7656     9.9130     2.0670     9.6870
