~VERSION INFORMATION
VERS.                                                 2.0:   CWLS Log ASCII Standard-VERSION 2.0
WRAP.                                                  NO:   One line per depth step
~Well Information Block
STRT.M                                          1406.0424:   Top Depth
STOP.M                                          1903.9332:   Bottom Depth
STEP.M                                             .15240:   Depth Increment
NULL.                                            -999.250:   Null Value
FLD .                                          EEMSKANAAL:   Field Name
WELL.                                       EEMSKANAAL- 1:   NAME
EDF .m                                               5.58:   ELEV DRILL FLOOR
EPD .                                                   0:   ELEV PERM DATUM
EGL .m                                                -.9:   GROUND LEVEL
LMF .                                                  DF:   LOGS MEAS FROM
COMP.                                                 NAM:   OPERATOR
PDAT.                                                 NAP:   PERM DATUM
SPUD.                                          1970/11/08:   SPUD DATE
UWBI.                                      11000074112201:   UWBI
WELL.                                       EEMSKANAAL- 1:   HOLE NAME
~PARAMETER INFORMATION (log)
LNAM.                                RUN 07 RAW OH 9.625":   NAME
LTYP.                                                 07R:   LOG TYPE
LVSN.                                                   1:   LOG VERSION
BS  .5/8"                                               9:   BIT SIZE
BLI .M                                               2950:   BOTTOM DEPTH LOGGED
BHIS.                                            RCCCCCCC:   BRIEF HISTORY
FHIS.              RAW-TIGA/COPY/COPY/COPY/COPY/COPY/COPY:   FULL HISTORY
MRT .                                                    :   MAX REC TEMP
DFT .                                          SALT SPERS:   MUD TYPE
RMS .                                               0.074:   RM
MST .C                                                 26:   RM TEMP
RMCS.                                               0.144:   RMC
MCST.C                                                 17:   RMC TEMP
RMFS.                                               0.059:   RMF
MFST.C                                                 26:   RMF TEMP
TCS .                                                 N/A:   TIME SINCE CIRCLN
TLI .M                                             1406.5:   TOP DEPTH LOGGED
~Curve Information Block
#MNEM.UNIT                                        API CODE    No Description
#=========                                        ========    == ===========
DEPT.M                                       00 001 00 00:     1  DEPTH
LL9D.OHMM                                                :     2  Dual Laterolog 9 deep
LL9S.OHMM                                                :     3  Dual Laterolog 9 shallow
MSFL.OHMM                                                :     4  MICRO SPHERICALLY FOCUSSED LOG
~ASCII
# ...
 1627.9368     1.3550     1.5310     1.1790
 1628.0892     1.4060     1.5430     1.1350
 1628.2416     1.4420     1.5580     1.2080
 1628.3940     1.4380     1.5670     1.3530
 1628.5464     1.4100     1.5750     1.5320
 1628.6988     1.4040     1.5780     1.7640
 1628.8512     1.4120     1.5710     1.3640
 1629.0036     1.4390     1.5550     1.3860
 1629.1560     1.4600     1.5230     1.4410
 1629.3084     1.4660     1.4770     1.8410
 1629.4608     1.4650     1.4350     1.6140
 1629.6132     1.4570     1.4000     1.4950
 1629.7656     1.4320     1.3740     1.5870
 1629.9180     1.4380     1.3680     1.3140
 1630.0704     1.4530     1.3850     1.2330
 1630.2228     1.4760     1.4390     1.4580
 1630.3752     1.5130     1.5130     1.7740
 1630.5276     1.5960     1.6260     1.7960
 1630.6800     1.8000     1.9700     1.8270
 1630.8324     2.0290     2.2980     1.8890
 1630.9848     2.6940     2.5620     2.4590
 1631.1372     2.5760     2.4370     5.3530
 1631.2896     1.7190     1.9870     9.4960
 1631.4420     1.3870     1.5590     5.2030
 1631.5944     1.2390     1.2270     1.3510
 1631.7468     1.2200     1.1300     1.1550
 1631.8992     1.2520     1.1170     1.1480
 1632.0516     1.2860     1.1360     1.1740
 1632.2040     1.3200     1.1530     1.2340
 1632.3564     1.3250     1.1620     1.2590
 1632.5088     1.3250     1.1550     1.2620
 1632.6612     1.3180     1.1410     1.2460
 1632.8136     1.3030     1.1220     1.2270
 1632.9660     1.2490     1.0730     1.2710
 1633.1184     1.1320     1.0020     1.3220
 1633.2708     1.0170      .9200     1.2360
 1633.4232     1.0060      .8430     1.2120
 1633.5756     1.0070      .8210      .9900
 1633.7280     1.0380      .8410      .9490
 1633.8804     1.1480      .9270     1.0760
 1634.0328     1.1390     1.0230     1.1060
 1634.1852     1.1770     1.0840     1.0940
 1634.3376     1.1850     1.1090     1.0410
 1634.4900     1.1850     1.1120      .9940
 1634.6424     1.1800     1.1080     1.0090
 1634.7948     1.1650     1.0980     1.0400
 1634.9472     1.1440     1.0820     1.0530
 1635.0996     1.1310     1.0680     1.0400
 1635.2520     1.1290     1.0560     1.0510
 1635.4044     1.1350     1.0520     1.1000
 1635.5568     1.1540     1.0580     1.1000
 1635.7092     1.1870     1.0860     1.1170
 1635.8616     1.2290     1.1260     1.2350
 1636.0140     1.3050     1.1610     1.2980
 1636.1664     1.4630     1.1980     1.3320
 1636.3188     1.4690     1.2400     1.3680
 1636.4712     1.4730     1.2100     1.4180
 1636.6236     1.4670     1.1340     1.4470
 1636.7760     1.3800     1.0790     1.4290
 1636.9284     1.2670     1.0580     1.2610
 1637.0808     1.2370     1.0630     1.1810
 1637.2332     1.2810     1.0770     1.1850
 1637.3856     1.3060     1.0900     1.1790
 1637.5380     1.2900     1.0710     1.1890
 1637.6904     1.2470     1.0450     1.1900
 1637.8428     1.1890     1.0130     1.0740
 1637.9952     1.1280      .9860     1.0170
 1638.1476     1.1070      .9860     1.0160
 1638.3000     1.1250     1.0060     1.0300
 1638.4524     1.1750     1.0350     1.0740
 1638.6048     1.2060     1.0600     1.0980
 1638.7572     1.1680     1.0690     1.0940
 1638.9096     1.1330     1.0760     1.0800
 1639.0620     1.0900     1.0760     1.0410
 1639.2144     1.1400     1.0910      .9730
 1639.3668     1.2290     1.1640      .9270
 1639.5192     1.3250     1.3130      .9200
 1639.6716     1.4290     1.4940     1.2690
 1639.8240     1.3840     1.4510     1.5190
 1639.9764     1.3090     1.2430     1.5480
 1640.1288     1.2370     1.1730     1.8230
 1640.2812     1.2430     1.2050     1.5250
 1640.4336     1.3160     1.2890     1.0700
 1640.5860     1.3940     1.4150      .9730
 1640.7384     1.4780     1.5950     1.4270
 1640.8908     1.3710     1.6490     2.9080
 1641.0432     1.2070     1.5180     4.3010
 1641.1956     1.1810     1.4130     1.0140
 1641.3480     1.2560     1.4900      .9580
 1641.5004     1.4660     1.6200     1.4500
 1641.6528     1.7170     1.7290     3.9460
 1641.8052     1.8750     1.9060     3.3250
 1641.9576     1.9660     2.0410     2.3380
 1642.1100     2.0370     2.0750     2.0310
 1642.2624     2.0500     2.0000     3.5640
 1642.4148     1.9470     1.8520     2.5500
 1642.5672     1.7560     1.7030     3.3790
 1642.7196     1.6090     1.5490     1.6890
 1642.8720     1.4970     1.4170     1.4350
 1643.0244     1.4360     1.3460     1.7220
 1643.1768     1.3930     1.3040     1.6360
 1643.3292     1.3510     1.2760     1.4310
 1643.4816     1.3420     1.2550     1.3190
 1643.6340     1.3420     1.2290     1.2600
 1643.7864     1.3420     1.1990     1.2170
 1643.9388     1.3270     1.1460     1.1380
 1644.0912     1.2990     1.0900      .7600
 1644.2436     1.2740     1.0810      .7390
 1644.3960     1.2730     1.0870     1.0850
 1644.5484     1.2840     1.0890     1.2270
 1644.7008     1.2880     1.0890     1.2600
 1644.8532     1.2990     1.0860     1.3640
 1645.0056     1.2940     1.0780     1.3740
 1645.1580     1.2730     1.0620     1.3680
 1645.3104     1.2390     1.0360     1.2340
 1645.4628     1.1910      .9910      .9730
 1645.6152     1.1320      .9320     1.2240
 1645.7676     1.0680      .8950     1.0750
 1645.9200     1.0620      .8920     1.1420
 1646.0724     1.1130      .9160      .9550
 1646.2248     1.1670     1.0730      .8700
 1646.3772     1.2250     1.1740     1.1450
 1646.5296     1.2300     1.1740     1.1770
 1646.6820     1.2280     1.1700     1.1830
 1646.8344     1.2170     1.1550     1.1850
 1646.9868     1.2060     1.1350     1.2070
 1647.1392     1.2350     1.1450     1.2020
 1647.2916     1.2700     1.1670     1.2060
 1647.4440     1.3070     1.1950     1.2710
 1647.5964     1.3430     1.2220     1.1920
 1647.7488     1.3810     1.2480     1.2770
 1647.9012     1.4200     1.2700     1.4720
 1648.0536     1.4190     1.2970     1.3360
 1648.2060     1.4540     1.4470     1.5010
 1648.3584     1.6800     1.6800     1.7080
 1648.5108     1.9160     1.8380     1.9000
 1648.6632     1.8680     1.8290     2.5210
 1648.8156     1.6790     1.7490     2.9360
 1648.9680     1.5700     1.6360     3.3150
 1649.1204     1.5280     1.5880     2.5270
 1649.2728     1.5670     1.6130     1.7130
 1649.4252     1.8600     1.8520     1.5510
 1649.5776     2.1850     2.1490     1.6720
 1649.7300     2.1910     2.1860     2.0580
 1649.8824     2.0980     2.1070     4.2730
 1650.0348     1.8810     1.8990     5.3130
 1650.1872     1.6570     1.6650     2.8400
 1650.3396     1.5550     1.5230     1.6460
 1650.4920     1.5220     1.4430     1.6350
 1650.6444     1.5030     1.4080     1.5430
 1650.7968     1.4800     1.3880     1.7100
 1650.9492     1.4510     1.3670     1.5730
 1651.1016     1.4230     1.3370     1.5460
 1651.2540     1.4020     1.2960     1.4480
 1651.4064     1.3860     1.2730     1.4190
 1651.5588     1.3810     1.2670     1.5040
 1651.7112     1.3830     1.2720     1.3600
 1651.8636     1.3910     1.2930     1.5040
 1652.0160     1.4080     1.2950     1.4260
 1652.1684     1.4170     1.2950     1.4910
 1652.3208     1.4180     1.2950     1.5810
 1652.4732     1.4160     1.2930     1.5180
 1652.6256     1.4100     1.2470     1.4830
 1652.7780     1.4030     1.2460     1.4320
 1652.9304     1.3850     1.2390     1.3780
 1653.0828     1.3600     1.2260     1.3320
 1653.2352     1.3330     1.2130     1.3260
 1653.3876     1.3080     1.1970     1.4350
 1653.5400     1.3060     1.1870     1.4060
 1653.6924     1.3150     1.1920     1.3370
 1653.8448     1.3460     1.2180     1.3330
 1653.9972     1.3830     1.2590     1.3660
 1654.1496     1.4160     1.2970     1.4710
 1654.3020     1.4320     1.3140     1.6150
 1654.4544     1.4450     1.3290     1.6640
 1654.6068     1.4590     1.3480     1.6870
 1654.7592     1.4660     1.3600     1.6680
 1654.9116     1.4720     1.3630     1.6770
 1655.0640     1.4740     1.3630     1.6770
 1655.2164     1.4660     1.3610     1.6040
 1655.3688     1.4510     1.3560     1.7250
 1655.5212     1.4400     1.3490     1.7260
