~VERSION INFORMATION
VERS.                                                 2.0:   CWLS Log ASCII Standard-VERSION 2.0
WRAP.                                                  NO:   One line per depth step
~Well Information Block
STRT.M                                            10.0584:   Top Depth
STOP.M                                          1400.8608:   Bottom Depth
STEP.M                                             .15240:   Depth Increment
NULL.                                            -999.250:   Null Value
FLD .                                          EEMSKANAAL:   Field Name
WELL.                                       EEMSKANAAL- 1:   NAME
EDF .m                                               5.58:   ELEV DRILL FLOOR
EPD .                                                   0:   ELEV PERM DATUM
EGL .m                                                -.9:   GROUND LEVEL
LMF .                                                  DF:   LOGS MEAS FROM
COMP.                                                 NAM:   OPERATOR
PDAT.                                                 NAP:   PERM DATUM
SPUD.                                          1970/11/08:   SPUD DATE
UWBI.                                      11000074112201:   UWBI
WELL.                                       EEMSKANAAL- 1:   HOLE NAME
~PARAMETER INFORMATION (log)
LNAM.                                RUN 02 RAW OH 14.75":   NAME
LTYP.                                                 02R:   LOG TYPE
LVSN.                                                   1:   LOG VERSION
BS  .3/4"                                              14:   BIT SIZE
BLI .M                                             1402.5:   BOTTOM DEPTH LOGGED
BHIS.                                            RCCCCCCC:   BRIEF HISTORY
FHIS.              RAW-TIGA/COPY/COPY/COPY/COPY/COPY/COPY:   FULL HISTORY
MRT .C                                                 50:   MAX REC TEMP
DFT .                                         CHALK WATER:   MUD TYPE
RMS .                                                1.44:   RM
MST .C                                                 11:   RM TEMP
RMCS.                                                1.93:   RMC
MCST.C                                                 19:   RMC TEMP
RMFS.                                               0.917:   RMF
MFST.C                                                 19:   RMF TEMP
TCS .                                                 N/A:   TIME SINCE CIRCLN
TLI .M                                                 10:   TOP DEPTH LOGGED
~Curve Information Block
#MNEM.UNIT                                        API CODE    No Description
#=========                                        ========    == ===========
DEPT.M                                       00 001 00 00:     1  DEPTH
BCSL.US/F                                                :     2  Interval Transit Time From Borehole Comp
GRIC.GAPI                                                :     3  GAMMA RAY LOG IN CASING
GRS.GAPI                                                 :     4  GAMMA RAY FROM SONIC LOG
~ASCII
# ...
  592.5312   154.1950  -999.2500    37.0880
  592.6836   157.2590  -999.2500    36.2990
  592.8360   160.9040  -999.2500    36.6150
  592.9884   166.5640  -999.2500    38.2500
  593.1408   168.9000  -999.2500    39.4130
  593.2932   162.7910  -999.2500    39.6000
  593.4456   160.9370  -999.2500    40.2530
  593.5980   160.1240  -999.2500    41.5310
  593.7504   159.2930  -999.2500    42.9410
  593.9028   160.7230  -999.2500    43.9930
  594.0552   155.9700  -999.2500    43.8210
  594.2076   154.4620  -999.2500    44.6790
  594.3600   154.5060  -999.2500    46.1010
  594.5124   157.0630  -999.2500    45.4280
  594.6648   158.2810  -999.2500    44.0200
  594.8172   155.5810  -999.2500    42.8530
  594.9696   153.0590  -999.2500    41.2350
  595.1220   150.7330  -999.2500    39.4720
  595.2744   145.0370  -999.2500    37.5500
  595.4268   139.9780  -999.2500    35.7310
  595.5792   140.0550  -999.2500    34.6970
  595.7316   118.8420  -999.2500    34.0930
  595.8840   119.7420  -999.2500    34.2750
  596.0364   143.6400  -999.2500    35.3320
  596.1888   155.9510  -999.2500    36.7210
  596.3412   157.3980  -999.2500    38.4470
  596.4936   157.9780  -999.2500    40.0340
  596.6460   159.1530  -999.2500    41.2520
  596.7984   159.1540  -999.2500    42.4520
  596.9508   157.5750  -999.2500    42.5840
  597.1032   156.1160  -999.2500    41.8950
  597.2556   155.5140  -999.2500    41.6270
  597.4080   156.0790  -999.2500    42.4790
  597.5604   154.9800  -999.2500    43.2890
  597.7128   157.3160  -999.2500    43.9220
  597.8652   157.6480  -999.2500    44.1380
  598.0176   157.8440  -999.2500    43.9770
  598.1700   159.8010  -999.2500    43.7340
  598.3224   160.9160  -999.2500    44.0490
  598.4748   162.8670  -999.2500    44.7890
  598.6272   163.8280  -999.2500    45.9730
  598.7796   162.9120  -999.2500    47.1390
  598.9320   160.9060  -999.2500    48.2630
  599.0844   159.8390  -999.2500    49.6520
  599.2368   159.3100  -999.2500    51.1160
  599.3892   159.1390  -999.2500    52.2900
  599.5416   160.4810  -999.2500    53.3530
  599.6940   162.7260  -999.2500    53.7100
  599.8464   163.6550  -999.2500    52.4230
  599.9988   164.5020  -999.2500    50.6080
  600.1512   164.9500  -999.2500    48.7940
  600.3036   163.4170  -999.2500    46.8490
  600.4560   162.7030  -999.2500    46.0020
  600.6084   161.3210  -999.2500    45.4260
  600.7608   159.8010  -999.2500    44.5980
  600.9132   159.0160  -999.2500    43.5410
  601.0656   156.9450  -999.2500    42.3530
  601.2180   157.1090  -999.2500    41.4520
  601.3704   157.6950  -999.2500    41.2290
  601.5228   158.1140  -999.2500    42.2350
  601.6752   158.5250  -999.2500    42.2770
  601.8276   157.9400  -999.2500    41.2610
  601.9800   158.8160  -999.2500    41.6940
  602.1324   158.4130  -999.2500    41.8410
  602.2848   161.0350  -999.2500    41.6630
  602.4372   166.0080  -999.2500    41.5130
  602.5896   167.0760  -999.2500    41.4350
  602.7420   167.7270  -999.2500    41.3090
  602.8944   170.1400  -999.2500    41.2050
  603.0468   170.1010  -999.2500    41.1800
  603.1992   166.6430  -999.2500    41.6070
  603.3516   165.3050  -999.2500    42.8370
  603.5040   163.6110  -999.2500    43.4670
  603.6564   162.9710  -999.2500    42.6200
  603.8088   164.1590  -999.2500    41.4100
  603.9612   163.2260  -999.2500    41.5450
  604.1136   162.6370  -999.2500    43.1710
  604.2660   162.5350  -999.2500    45.0210
  604.4184   162.1990  -999.2500    45.4640
  604.5708   161.8830  -999.2500    43.9680
  604.7232   161.5760  -999.2500    42.5970
  604.8756   160.9080  -999.2500    41.9650
  605.0280   160.0400  -999.2500    42.8090
  605.1804   160.0280  -999.2500    43.0220
  605.3328   158.4510  -999.2500    42.7050
  605.4852   156.4320  -999.2500    43.2590
  605.6376   155.4750  -999.2500    44.5230
  605.7900   156.4070  -999.2500    46.3510
  605.9424   154.8410  -999.2500    44.6060
  606.0948   154.4760  -999.2500    41.9210
  606.2472   155.5010  -999.2500    40.5520
  606.3996   155.9600  -999.2500    39.7370
  606.5520   155.6500  -999.2500    39.2050
  606.7044   156.1340  -999.2500    39.0210
  606.8568   152.7960  -999.2500    39.1990
  607.0092   152.7110  -999.2500    39.2440
  607.1616   154.4210  -999.2500    39.2480
  607.3140   154.9720  -999.2500    39.3440
  607.4664   154.4140  -999.2500    39.7840
  607.6188   155.4750  -999.2500    40.3730
  607.7712   155.9770  -999.2500    40.8040
  607.9236   157.8510  -999.2500    40.9540
  608.0760   161.1420  -999.2500    40.8520
  608.2284   162.6360  -999.2500    40.4020
  608.3808   160.3140  -999.2500    39.6660
  608.5332   159.8480  -999.2500    40.4630
  608.6856   159.3190  -999.2500    41.6240
  608.8380   162.7600  -999.2500    41.5150
  608.9904   162.0090  -999.2500    42.0680
  609.1428   162.2020  -999.2500    43.3770
  609.2952   159.2370  -999.2500    44.5860
  609.4476   161.3430  -999.2500    45.5350
  609.6000   162.7900  -999.2500    45.5850
  609.7524   162.6520  -999.2500    45.3590
  609.9048   162.3140  -999.2500    45.2820
  610.0572   162.3650  -999.2500    45.1910
  610.2096   162.2430  -999.2500    44.9290
  610.3620   162.4810  -999.2500    44.5080
  610.5144   162.4470  -999.2500    44.2240
  610.6668   162.3170  -999.2500    44.3200
  610.8192   162.7460  -999.2500    44.6900
  610.9716   162.4250  -999.2500    45.4340
  611.1240   162.2960  -999.2500    46.2160
  611.2764   162.6540  -999.2500    47.3130
  611.4288   163.0370  -999.2500    48.0000
  611.5812   163.2210  -999.2500    46.3850
  611.7336   162.4880  -999.2500    44.3320
  611.8860   161.7290  -999.2500    42.9090
  612.0384   160.9970  -999.2500    43.5160
  612.1908   160.1590  -999.2500    45.8070
  612.3432   161.0390  -999.2500    46.6300
  612.4956   162.1180  -999.2500    46.9750
  612.6480   163.4700  -999.2500    47.3860
  612.8004   164.4510  -999.2500    48.1230
  612.9528   164.8710  -999.2500    49.2890
  613.1052   164.1170  -999.2500    49.8510
  613.2576   163.1840  -999.2500    50.2500
  613.4100   162.7010  -999.2500    51.6190
  613.5624   162.8390  -999.2500    52.5540
  613.7148   163.5520  -999.2500    52.4830
  613.8672   163.2210  -999.2500    52.1140
  614.0196   162.8770  -999.2500    52.0890
  614.1720   162.2910  -999.2500    52.2550
  614.3244   161.1070  -999.2500    52.6700
  614.4768   160.8080  -999.2500    53.4950
  614.6292   160.6310  -999.2500    54.5830
  614.7816   161.7370  -999.2500    55.7000
  614.9340   162.7660  -999.2500    56.8340
  615.0864   163.5130  -999.2500    57.5420
  615.2388   164.4580  -999.2500    57.2120
  615.3912   165.5790  -999.2500    55.7910
  615.5436   165.9220  -999.2500    54.8960
  615.6960   165.1950  -999.2500    54.0960
  615.8484   164.7870  -999.2500    53.7310
  616.0008   163.6440  -999.2500    52.4770
  616.1532   162.9480  -999.2500    51.0940
  616.3056   162.0310  -999.2500    49.8760
  616.4580   162.3530  -999.2500    48.6700
  616.6104   162.4640  -999.2500    47.9580
  616.7628   162.8890  -999.2500    47.5130
  616.9152   163.2490  -999.2500    46.9570
  617.0676   163.2320  -999.2500    46.2200
  617.2200   162.8500  -999.2500    45.6960
  617.3724   162.3850  -999.2500    45.5070
  617.5248   162.2040  -999.2500    46.3560
  617.6772   163.1240  -999.2500    47.3930
  617.8296   164.2390  -999.2500    48.6840
  617.9820   164.5780  -999.2500    48.8870
  618.1344   165.3450  -999.2500    48.9300
  618.2868   164.9040  -999.2500    49.8440
  618.4392   164.2840  -999.2500    50.9010
  618.5916   164.0460  -999.2500    52.0210
  618.7440   164.6920  -999.2500    52.9810
  618.8964   165.2490  -999.2500    52.5700
  619.0488   165.3710  -999.2500    52.1690
  619.2012   165.2760  -999.2500    52.7290
  619.3536   164.5580  -999.2500    51.3930
  619.5060   164.3380  -999.2500    50.6940
  619.6584   164.5830  -999.2500    51.2380
  619.8108   164.6300  -999.2500    52.2800
  619.9632   164.6930  -999.2500    52.9410
  620.1156   165.3090  -999.2500    52.8670
