~VERSION INFORMATION
VERS.                                                 2.0:   CWLS Log ASCII Standard-VERSION 2.0
WRAP.                                                  NO:   One line per depth step
~Well Information Block
STRT.M                                          2687.1168:   Top Depth
STOP.M                                          3063.8496:   Bottom Depth
STEP.M                                             .15240:   Depth Increment
NULL.                                            -999.250:   Null Value
FLD .                                          EEMSKANAAL:   Field Name
WELL.                                       EEMSKANAAL- 1:   NAME
EDF .m                                               5.58:   ELEV DRILL FLOOR
EPD .                                                   0:   ELEV PERM DATUM
EGL .m                                                -.9:   GROUND LEVEL
LMF .                                                  DF:   LOGS MEAS FROM
COMP.                                                 NAM:   OPERATOR
PDAT.                                                 NAP:   PERM DATUM
SPUD.                                          1970/11/08:   SPUD DATE
UWBI.                                      11000074112201:   UWBI
WELL.                                       EEMSKANAAL- 1:   HOLE NAME
~PARAMETER INFORMATION (log)
LNAM.                                RUN 05 RAW OH 9.625":   NAME
LTYP.                                                 05R:   LOG TYPE
LVSN.                                                   1:   LOG VERSION
BS  .5/8"                                               9:   BIT SIZE
BLI .M                                               3063:   BOTTOM DEPTH LOGGED
BHIS.                                            RCCCCCCC:   BRIEF HISTORY
FHIS.              RAW-TIGA/COPY/COPY/COPY/COPY/COPY/COPY:   FULL HISTORY
MRT .C                                                 89:   MAX REC TEMP
DFT .                                          SALT SPERS:   MUD TYPE
RMS .                                               0.074:   RM
MST .C                                                 26:   RM TEMP
RMCS.                                               0.144:   RMC
MCST.C                                                 17:   RMC TEMP
RMFS.                                               0.059:   RMF
MFST.C                                                 26:   RMF TEMP
TCS .                                               5 HRS:   TIME SINCE CIRCLN
TLI .M                                               2690:   TOP DEPTH LOGGED
~Curve Information Block
#MNEM.UNIT                                        API CODE    No Description
#=========                                        ========    == ===========
DEPT.M                                       00 001 00 00:     1  DEPTH
LL7.OHMM                                                 :     2  LATEROLOG 7
SP.MV                                                    :     3  Spontaneous potential
~ASCII
 2687.1168  -999.2500   -84.4100
 2687.2692  -999.2500   -84.3620
 2687.4216  -999.2500   -84.2940
 2687.5740  -999.2500   -84.3250
 2687.7264  -999.2500   -84.3250
 2687.8788  -999.2500   -84.2940
 2688.0312  -999.2500   -84.2560
 2688.1836  -999.2500   -84.2700
 2688.3360  -999.2500   -84.3150
 2688.4884  -999.2500   -84.4400
 2688.6408  -999.2500   -84.5240
 2688.7932  -999.2500   -84.5300
 2688.9456  -999.2500   -84.4900
 2689.0980  -999.2500   -84.5290
 2689.2504  -999.2500   -84.5600
 2689.4028  -999.2500   -84.5810
 2689.5552  -999.2500   -84.5880
 2689.7076  -999.2500   -84.5580
 2689.8600  -999.2500   -84.5180
 2690.0124  -999.2500   -84.4900
 2690.1648  -999.2500   -84.4900
 2690.3172  -999.2500   -84.4020
 2690.4696  -999.2500   -84.2900
 2690.6220  -999.2500   -84.2430
 2690.7744  -999.2500   -84.2130
 2690.9268  -999.2500   -84.1990
 2691.0792  -999.2500   -84.1380
 2691.2316  -999.2500   -84.0770
 2691.3840  -999.2500   -84.0500
 2691.5364  -999.2500   -83.9670
 2691.6888  -999.2500   -83.8030
 2691.8412  -999.2500   -83.5090
 2691.9936  -999.2500   -83.2490
 2692.1460  -999.2500   -83.1320
 2692.2984  -999.2500   -83.1000
 2692.4508  -999.2500   -83.1000
 2692.6032  -999.2500   -83.1000
 2692.7556  -999.2500   -83.1000
 2692.9080  -999.2500   -83.1000
 2693.0604   940.4730   -83.1000
 2693.2128   911.1350   -83.1000
 2693.3652   760.2970   -83.1000
 2693.5176   680.6060   -83.0850
 2693.6700   643.0320   -83.0600
 2693.8224   643.6820   -83.0010
 2693.9748   717.5990   -82.8950
 2694.1272   900.7250   -82.7370
 2694.2796   926.7040   -82.5700
 2694.4320   867.6140   -82.5000
 2694.5844   824.5250   -82.4750
 2694.7368   783.7690   -82.4530
 2694.8892   729.4200   -82.4220
 2695.0416   693.1590   -82.3490
 2695.1940   689.7270   -82.2450
 2695.3464   702.6500   -82.0730
 2695.4988   782.3240   -81.9120
 2695.6512   736.7650   -81.7640
 2695.8036   721.9190   -81.6300
 2695.9560   839.1270   -81.6300
 2696.1084   902.0520   -81.5530
 2696.2608   901.0720   -81.3850
 2696.4132   829.5350   -81.2120
 2696.5656   711.3140   -80.9980
 2696.7180   566.1770   -80.7810
 2696.8704   424.2690   -80.7190
 2697.0228   341.2560   -80.7100
 2697.1752   338.2570   -80.7100
 2697.3276   390.1000   -80.6770
 2697.4800   624.6430   -80.6700
 2697.6324   862.2080   -80.6570
 2697.7848   812.2350   -80.5960
 2697.9372   372.0570   -80.5710
 2698.0896   190.2270   -80.5040
 2698.2420   171.4900   -80.4700
 2698.3944   167.6180   -80.4420
 2698.5468   176.9590   -80.3530
 2698.6992   199.5070   -80.1910
 2698.8516   185.6500   -79.9270
 2699.0040   160.0310   -79.5910
 2699.1564   156.0100   -79.2690
 2699.3088   156.6390   -79.0980
 2699.4612   164.4150   -79.0800
 2699.6136   194.6130   -79.0800
 2699.7660   308.1090   -79.0800
 2699.9184   447.6910   -79.0800
 2700.0708   617.4950   -79.0730
 2700.2232   752.7330   -79.0480
 2700.3756   856.8770   -79.0400
 2700.5280   889.0030   -79.0400
 2700.6804   896.5190   -79.0160
 2700.8328   903.5460   -79.0000
 2700.9852   911.7480   -79.0000
 2701.1376   912.4920   -78.9850
 2701.2900   912.4920   -78.9600
 2701.4424   912.4920   -78.9770
 2701.5948   912.4920   -79.0380
 2701.7472   912.4920   -79.1630
 2701.8996   912.4920   -79.3000
 2702.0520   903.1380   -79.3760
 2702.2044   894.7970   -79.4740
 2702.3568   887.7570   -79.5830
 2702.5092   890.7040   -79.6000
 2702.6616   905.4740   -79.5820
 2702.8140   887.1290   -79.5130
 2702.9664   799.2100   -79.4240
 2703.1188   529.3680   -79.3310
 2703.2712   430.9610   -79.2470
 2703.4236   424.2650   -79.1080
 2703.5760   450.4380   -79.0470
 2703.7284   499.9020   -79.0400
 2703.8808   615.8880   -79.0400
 2704.0332   846.2640   -79.0400
 2704.1856   923.9740   -79.0400
 2704.3380   927.7000   -79.0400
 2704.4904   873.1230   -79.0400
 2704.6428   760.8640   -79.0400
 2704.7952   662.0250   -79.0020
 2704.9476   615.0720   -79.0000
 2705.1000   573.0980   -79.0000
 2705.2524   526.9550   -79.0000
 2705.4048   479.8750   -78.9980
 2705.5572   428.1690   -78.9540
 2705.7096   359.2240   -78.9200
 2705.8620   318.9420   -78.8950
 2706.0144   302.0850   -78.8660
 2706.1668   289.4480   -78.8400
 2706.3192   280.5780   -78.8280
 2706.4716   274.1210   -78.8060
 2706.6240   271.7870   -78.8000
 2706.7764   267.4350   -78.7690
 2706.9288   184.8480   -78.7090
 2707.0812   125.9080   -78.6800
 2707.2336   119.2860   -78.6530
 2707.3860   131.7000   -78.6400
 2707.5384   147.7790   -78.6400
 2707.6908   200.5000   -78.6400
 2707.8432   730.9680   -78.6310
 2707.9956   938.2310   -78.5440
 2708.1480   946.7380   -78.4120
 2708.3004   946.7380   -78.3400
 2708.4528   946.7380   -78.3300
 2708.6052   946.7380   -78.3300
 2708.7576   946.2350   -78.3300
 2708.9100   941.1730   -78.3300
 2709.0624   935.9050   -78.3300
 2709.2148   931.6480   -78.3300
 2709.3672   928.8820   -78.3300
 2709.5196   927.9140   -78.3300
 2709.6720   930.4520   -78.3300
 2709.8244   933.7290   -78.3300
 2709.9768   938.9860   -78.3300
 2710.1292   943.7630   -78.3300
 2710.2816   948.5540   -78.3300
 2710.4340   956.1150   -78.3300
 2710.5864   962.8480   -78.3300
 2710.7388   968.7390   -78.3300
 2710.8912   971.4710   -78.3300
 2711.0436   976.7390   -78.3300
 2711.1960   982.0870   -78.3300
 2711.3484   987.2130   -78.3300
 2711.5008   991.3700   -78.3300
 2711.6532   993.6710   -78.3350
 2711.8056   994.1000   -78.3930
 2711.9580   994.1000   -78.5160
 2712.1104   994.0040   -78.7020
 2712.2628   992.6100   -78.8250
 2712.4152   991.9920   -78.8400
 2712.5676   989.8270   -78.7990
 2712.7200   988.6210   -78.7120
 2712.8724   988.6210   -78.6370
 2713.0248   988.6210   -78.5880
 2713.1772   988.6210   -78.5350
 2713.3296   988.6210   -78.4970
 2713.4820   988.6210   -78.4900
 2713.6344   988.6210   -78.4900
 2713.7868   988.6210   -78.4900
 2713.9392   989.5310   -78.4750
 2714.0916   988.6970   -78.3770
 2714.2440   987.0210   -78.3300
 2714.3964   983.2370   -78.3300
 2714.5488   980.0190   -78.3500
 2714.7012   979.5670   -78.4100
 2714.8536   980.9440   -78.3700
 2715.0060   981.4720   -78.2360
 2715.1584   983.7010   -78.1700
 2715.3108   985.1800   -78.1660
 2715.4632   987.9510   -78.1300
 2715.6156   988.9050   -78.1360
 2715.7680   990.4430   -78.1970
 2715.9204   991.7290   -78.2100
 2716.0728   993.8500   -78.2100
 2716.2252   994.5610   -78.2430
 2716.3776   995.9320   -78.2880
 2716.5300   997.1250   -78.2900
 2716.6824  1000.8020   -78.2570
 2716.8348  1003.2970   -78.2360
 2716.9872  1003.2970   -78.2100
 2717.1396  1003.2970   -78.2100
 2717.2920  1001.5990   -78.2470
 2717.4444  1001.4510   -78.2500
 2717.5968   999.6660   -78.2500
 2717.7492   996.8640   -78.2300
 2717.9016   995.0010   -78.2100
 2718.0540   992.1260   -78.2100
 2718.2064   988.3890   -78.2100
 2718.3588   982.8550   -78.1630
 2718.5112   977.2510   -77.9150
 2718.6636   969.8510   -77.5000
 2718.8160   963.0250   -77.2750
 2718.9684   959.5820   -77.2500
 2719.1208   957.9580   -77.2500
 2719.2732   957.2600   -77.2500
 2719.4256   954.8230   -77.2500
 2719.5780   950.1280   -77.2500
 2719.7304   941.2310   -77.2500
 2719.8828   927.5110   -77.3000
 2720.0352   920.3400   -77.3540
 2720.1876   919.2420   -77.4060
 2720.3400   919.2420   -77.5000
 2720.4924   920.8070   -77.5580
 2720.6448   920.9360   -77.7250
 2720.7972   922.5870   -77.8580
 2720.9496   921.3640   -77.9200
 2721.1020   920.9360   -77.9090
 2721.2544   920.9360   -77.8550
 2721.4068   920.0300   -77.8530
 2721.5592   919.2420   -77.8900
 2721.7116   919.2420   -77.8130
 2721.8640   919.2420   -77.4980
 2722.0164   919.2420   -77.7500
 2722.1688   919.2420   -77.8500
 2722.3212   919.2420   -77.8500
 2722.4736   919.2420   -77.8500
 2722.6260   920.3080   -77.8500
 2722.7784   920.9360   -77.8810
 2722.9308   920.4140   -77.9270
 2723.0832   919.2420   -78.1930
 2723.2356   916.0490   -78.2950
 2723.3880   910.3770   -78.3200
 2723.5404   905.1210   -78.6790
 2723.6928   902.5830   -79.0350
 2723.8452   898.8500   -79.1380
 2723.9976   894.2690   -79.1890
