~VERSION INFORMATION
VERS.                                                 2.0:   CWLS Log ASCII Standard-VERSION 2.0
WRAP.                                                  NO:   One line per depth step
~Well Information Block
STRT.M                                            10.0584:   Top Depth
STOP.M                                          1400.8608:   Bottom Depth
STEP.M                                             .15240:   Depth Increment
NULL.                                            -999.250:   Null Value
FLD .                                          EEMSKANAAL:   Field Name
WELL.                                       EEMSKANAAL- 1:   NAME
EDF .m                                               5.58:   ELEV DRILL FLOOR
EPD .                                                   0:   ELEV PERM DATUM
EGL .m                                                -.9:   GROUND LEVEL
LMF .                                                  DF:   LOGS MEAS FROM
COMP.                                                 NAM:   OPERATOR
PDAT.                                                 NAP:   PERM DATUM
SPUD.                                          1970/11/08:   SPUD DATE
UWBI.                                      11000074112201:   UWBI
WELL.                                       EEMSKANAAL- 1:   HOLE NAME
~PARAMETER INFORMATION (log)
LNAM.                                RUN 02 RAW OH 14.75":   NAME
LTYP.                                                 02R:   LOG TYPE
LVSN.                                                   1:   LOG VERSION
BS  .3/4"                                              14:   BIT SIZE
BLI .M                                             1402.5:   BOTTOM DEPTH LOGGED
BHIS.                                            RCCCCCCC:   BRIEF HISTORY
FHIS.              RAW-TIGA/COPY/COPY/COPY/COPY/COPY/COPY:   FULL HISTORY
MRT .C                                                 50:   MAX REC TEMP
DFT .                                         CHALK WATER:   MUD TYPE
RMS .                                                1.44:   RM
MST .C                                                 11:   RM TEMP
RMCS.                                                1.93:   RMC
MCST.C                                                 19:   RMC TEMP
RMFS.                                               0.917:   RMF
MFST.C                                                 19:   RMF TEMP
TCS .                                                 N/A:   TIME SINCE CIRCLN
TLI .M                                                 10:   TOP DEPTH LOGGED
~Curve Information Block
#MNEM.UNIT                                        API CODE    No Description
#=========                                        ========    == ===========
DEPT.M                                       00 001 00 00:     1  DEPTH
BCSL.US/F                                                :     2  Interval Transit Time From Borehole Comp
GRIC.GAPI                                                :     3  GAMMA RAY LOG IN CASING
GRS.GAPI                                                 :     4  GAMMA RAY FROM SONIC LOG
~ASCII
# ...
  537.0576   151.3830  -999.2500    29.4900
  537.2100   153.6530  -999.2500    30.2440
  537.3624   154.7210  -999.2500    30.7930
  537.5148   154.4430  -999.2500    29.9520
  537.6672   154.7260  -999.2500    27.7950
  537.8196   146.3020  -999.2500    26.8120
  537.9720   142.6020  -999.2500    26.6870
  538.1244   142.9940  -999.2500    27.3690
  538.2768   141.1320  -999.2500    29.1550
  538.4292   143.1260  -999.2500    31.3450
  538.5816   145.1280  -999.2500    33.2330
  538.7340   145.2800  -999.2500    34.8410
  538.8864   148.4910  -999.2500    34.4430
  539.0388   153.0150  -999.2500    32.2180
  539.1912   157.9000  -999.2500    30.3700
  539.3436   155.7560  -999.2500    28.7370
  539.4960   142.1800  -999.2500    27.1330
  539.6484   133.8870  -999.2500    25.7360
  539.8008   126.7360  -999.2500    24.8390
  539.9532   127.1580  -999.2500    24.7230
  540.1056   136.1530  -999.2500    25.4450
  540.2580   132.3270  -999.2500    26.8890
  540.4104   122.5980  -999.2500    27.0640
  540.5628   120.5440  -999.2500    26.3760
  540.7152   116.1970  -999.2500    25.6370
  540.8676   124.3110  -999.2500    26.7610
  541.0200   140.2260  -999.2500    27.8070
  541.1724   138.7540  -999.2500    28.1380
  541.3248   125.8620  -999.2500    28.0950
  541.4772   116.6280  -999.2500    28.0950
  541.6296   111.8610  -999.2500    28.0950
  541.7820   114.9150  -999.2500    28.1930
  541.9344   129.3230  -999.2500    28.8540
  542.0868   136.6370  -999.2500    29.4030
  542.2392   135.0870  -999.2500    29.4470
  542.3916   135.6820  -999.2500    29.1040
  542.5440   135.2760  -999.2500    28.6570
  542.6964   134.5450  -999.2500    28.0360
  542.8488   134.7760  -999.2500    27.7660
  543.0012   135.6020  -999.2500    27.7510
  543.1536   134.6810  -999.2500    27.8630
  543.3060   135.2930  -999.2500    27.5500
  543.4584   135.3660  -999.2500    26.5530
  543.6108   134.2630  -999.2500    25.1180
  543.7632   127.1860  -999.2500    23.7560
  543.9156   117.9090  -999.2500    22.2450
  544.0680   110.8390  -999.2500    20.7190
  544.2204    99.3710  -999.2500    20.0560
  544.3728   100.8380  -999.2500    20.6450
  544.5252   114.7120  -999.2500    21.7810
  544.6776   128.6120  -999.2500    22.7170
  544.8300   138.8330  -999.2500    23.4270
  544.9824   140.1860  -999.2500    23.9970
  545.1348   132.8300  -999.2500    24.4540
  545.2872   120.1650  -999.2500    24.7610
  545.4396   115.8240  -999.2500    24.9810
  545.5920   116.1640  -999.2500    25.0350
  545.7444   127.1150  -999.2500    25.0950
  545.8968   136.6320  -999.2500    25.0660
  546.0492   141.6680  -999.2500    24.7670
  546.2016   144.8640  -999.2500    24.2980
  546.3540   144.8070  -999.2500    24.1630
  546.5064   142.0360  -999.2500    24.2130
  546.6588   140.2140  -999.2500    24.7000
  546.8112   134.6590  -999.2500    25.2820
  546.9636   124.0570  -999.2500    26.0100
  547.1160   120.4580  -999.2500    26.2360
  547.2684   137.3350  -999.2500    25.9550
  547.4208   141.2520  -999.2500    25.9540
  547.5732   139.9370  -999.2500    26.7600
  547.7256   152.6350  -999.2500    27.3620
  547.8780   159.7350  -999.2500    26.7740
  548.0304   164.6770  -999.2500    25.7530
  548.1828   167.7250  -999.2500    25.3030
  548.3352   160.6000  -999.2500    25.6020
  548.4876   141.5310  -999.2500    26.3570
  548.6400   138.0640  -999.2500    26.9370
  548.7924   128.4710  -999.2500    25.8360
  548.9448   137.5870  -999.2500    25.1380
  549.0972   153.4270  -999.2500    25.9570
  549.2496   161.1530  -999.2500    26.7960
  549.4020   164.9720  -999.2500    26.7790
  549.5544   163.8780  -999.2500    27.1980
  549.7068   161.7620  -999.2500    28.1690
  549.8592   156.4280  -999.2500    29.8470
  550.0116   144.4200  -999.2500    30.4340
  550.1640   139.7310  -999.2500    30.1710
  550.3164   139.5250  -999.2500    29.6830
  550.4688   144.3020  -999.2500    29.5540
  550.6212   146.6270  -999.2500    30.2460
  550.7736   144.9910  -999.2500    32.4620
  550.9260   141.1030  -999.2500    35.5780
  551.0784   139.0380  -999.2500    36.7860
  551.2308   125.0930  -999.2500    35.9840
  551.3832   126.2850  -999.2500    34.9380
  551.5356   129.9550  -999.2500    34.1270
  551.6880   129.9670  -999.2500    33.3010
  551.8404   132.0630  -999.2500    32.7650
  551.9928   126.2960  -999.2500    32.5840
  552.1452   127.2260  -999.2500    32.6680
  552.2976   131.9730  -999.2500    33.2730
  552.4500   133.7400  -999.2500    34.5600
  552.6024   132.2170  -999.2500    36.1970
  552.7548   130.1420  -999.2500    37.3930
  552.9072   130.3940  -999.2500    39.1640
  553.0596   139.6420  -999.2500    40.9750
  553.2120   145.6630  -999.2500    42.6530
  553.3644   147.8100  -999.2500    43.8620
  553.5168   151.0160  -999.2500    43.4830
  553.6692   152.6460  -999.2500    41.7000
  553.8216   153.1530  -999.2500    40.5460
  553.9740   154.0340  -999.2500    41.6190
  554.1264   152.8210  -999.2500    41.5720
  554.2788   146.6630  -999.2500    40.4780
  554.4312   135.3510  -999.2500    38.2400
  554.5836   119.5780  -999.2500    35.0850
  554.7360   112.9460  -999.2500    33.2690
  554.8884   116.7420  -999.2500    32.4430
  555.0408   123.4660  -999.2500    32.4430
  555.1932   131.8040  -999.2500    32.7010
  555.3456   135.6320  -999.2500    33.1590
  555.4980   141.4530  -999.2500    34.1550
  555.6504   141.8410  -999.2500    35.0790
  555.8028   140.9230  -999.2500    35.5660
  555.9552   147.2450  -999.2500    35.6760
  556.1076   149.3740  -999.2500    35.7600
  556.2600   149.1420  -999.2500    35.7690
  556.4124   148.2280  -999.2500    36.0040
  556.5648   146.3510  -999.2500    35.0730
  556.7172   139.8200  -999.2500    33.4920
  556.8696   124.7170  -999.2500    31.9730
  557.0220   116.8340  -999.2500    30.8280
  557.1744   118.6820  -999.2500    29.9810
  557.3268   123.5510  -999.2500    29.5120
  557.4792   134.1860  -999.2500    29.2770
  557.6316   144.2650  -999.2500    29.6860
  557.7840   144.6760  -999.2500    30.5360
  557.9364   143.9750  -999.2500    31.3640
  558.0888   141.3800  -999.2500    31.9560
  558.2412   139.8740  -999.2500    32.8130
  558.3936   140.9990  -999.2500    34.0520
  558.5460   144.5970  -999.2500    35.2710
  558.6984   145.8850  -999.2500    36.6450
  558.8508   145.6860  -999.2500    37.3890
  559.0032   143.2760  -999.2500    35.8620
  559.1556   139.8560  -999.2500    34.2430
  559.3080   136.3020  -999.2500    32.6770
  559.4604   136.7780  -999.2500    31.1360
  559.6128   143.8340  -999.2500    30.0230
  559.7652   150.9230  -999.2500    29.2420
  559.9176   151.8710  -999.2500    28.7300
  560.0700   149.0210  -999.2500    28.4290
  560.2224   144.2570  -999.2500    28.3830
  560.3748   139.9800  -999.2500    28.4290
  560.5272   133.9960  -999.2500    28.5380
  560.6796   128.5360  -999.2500    28.9790
  560.8320   127.6160  -999.2500    29.2590
  560.9844   129.7060  -999.2500    29.4110
  561.1368   140.6510  -999.2500    29.8570
  561.2892   143.2920  -999.2500    30.5160
  561.4416   145.0820  -999.2500    31.3220
  561.5940   148.5790  -999.2500    32.1060
  561.7464   151.7070  -999.2500    32.0290
  561.8988   152.7440  -999.2500    31.8320
  562.0512   152.0330  -999.2500    31.3000
  562.2036   150.4920  -999.2500    30.7040
  562.3560   148.1670  -999.2500    30.0920
  562.5084   146.2120  -999.2500    29.8060
  562.6608   145.7820  -999.2500    29.5460
  562.8132   146.6460  -999.2500    29.3980
  562.9656   146.3530  -999.2500    29.3460
  563.1180   146.0710  -999.2500    29.2800
  563.2704   143.0800  -999.2500    29.2800
  563.4228   139.7040  -999.2500    29.3590
  563.5752   131.8310  -999.2500    29.6670
  563.7276   128.2540  -999.2500    30.0690
  563.8800   133.2210  -999.2500    30.4500
  564.0324   141.8690  -999.2500    30.7990
  564.1848   146.2800  -999.2500    30.8400
  564.3372   148.6820  -999.2500    30.8400
  564.4896   149.2330  -999.2500    30.8400
  564.6420   147.6640  -999.2500    30.9410
