~VERSION INFORMATION
VERS.                                                 2.0:   CWLS Log ASCII Standard-VERSION 2.0
WRAP.                                                  NO:   One line per depth step
~Well Information Block
STRT.M                                           404.0124:   Top Depth
STOP.M                                          1403.9088:   Bottom Depth
STEP.M                                             .15240:   Depth Increment
NULL.                                            -999.250:   Null Value
FLD .                                          EEMSKANAAL:   Field Name
WELL.                                       EEMSKANAAL- 1:   NAME
EDF .m                                               5.58:   ELEV DRILL FLOOR
EPD .                                                   0:   ELEV PERM DATUM
EGL .m                                                -.9:   GROUND LEVEL
LMF .                                                  DF:   LOGS MEAS FROM
COMP.                                                 NAM:   OPERATOR
PDAT.                                                 NAP:   PERM DATUM
SPUD.                                          1970/11/08:   SPUD DATE
UWBI.                                      11000074112201:   UWBI
WELL.                                       EEMSKANAAL- 1:   HOLE NAME
~PARAMETER INFORMATION (log)
LNAM.                                RUN 01 RAW OH 14.75":   NAME
LTYP.                                                 01R:   LOG TYPE
LVSN.                                                   1:   LOG VERSION
BS  .3/4"                                              14:   BIT SIZE
BLI .M                                             1406.2:   BOTTOM DEPTH LOGGED
BHIS.                                            RCCCCCCC:   BRIEF HISTORY
FHIS.              RAW-TIGA/COPY/COPY/COPY/COPY/COPY/COPY:   FULL HISTORY
MRT .C                                                 50:   MAX REC TEMP
DFT .                                         CHALK WATER:   MUD TYPE
RMS .                                                1.44:   RM
MST .C                                                 11:   RM TEMP
RMCS.                                                1.93:   RMC
MCST.C                                                 19:   RMC TEMP
RMFS.                                               0.917:   RMF
MFST.C                                                 19:   RMF TEMP
TCS .                                                 N/A:   TIME SINCE CIRCLN
TLI .M                                              403.6:   TOP DEPTH LOGGED
~Curve Information Block
#MNEM.UNIT                                        API CODE    No Description
#=========                                        ========    == ===========
DEPT.M                                       00 001 00 00:     1  DEPTH
DILD.OHMM                                                :     2  DUAL INDUCTION LOG DEEP RESISTIVITY
SN.OHMM                                                  :     3  SHORT NORMAL
~ASCII
# ...
  996.5436      .3960      .9630
  996.6960      .3960     1.0340
  996.8484      .3860     1.0950
  997.0008      .3760     1.1270
  997.1532      .3700     1.1300
  997.3056      .3640     1.1190
  997.4580      .3670     1.0950
  997.6104      .3740     1.0710
  997.7628      .3770     1.0590
  997.9152      .3800     1.0510
  998.0676      .3800     1.0460
  998.2200      .3800     1.0460
  998.3724      .3740     1.0500
  998.5248      .3640     1.0610
  998.6772      .3640     1.0940
  998.8296      .3640     1.1290
  998.9820      .3640     1.1350
  999.1344      .3670     1.1290
  999.2868      .3710     1.1080
  999.4392      .3720     1.0830
  999.5916      .3650     1.0700
  999.7440      .3430     1.0770
  999.8964      .3160     1.0850
 1000.0488      .3160     1.0960
 1000.2012      .3160     1.1000
 1000.3536      .3280     1.1030
 1000.5060      .3400     1.1120
 1000.6584      .3420     1.1180
 1000.8108      .3490     1.1210
 1000.9632      .3550     1.1210
 1001.1156      .3590     1.1120
 1001.2680      .3640     1.0910
 1001.4204      .3740     1.0780
 1001.5728      .3900     1.0910
 1001.7252      .4010     1.1130
 1001.8776      .4100     1.1070
 1002.0300      .4350     1.0470
 1002.1824      .4490      .9940
 1002.3348      .4500      .9780
 1002.4872      .4500      .9980
 1002.6396      .4500      .9970
 1002.7920      .4500      .9620
 1002.9444      .4460      .9440
 1003.0968      .4420      .9400
 1003.2492      .4380      .9540
 1003.4016      .4180      .9890
 1003.5540      .4020     1.0230
 1003.7064      .3890     1.0490
 1003.8588      .3630     1.0870
 1004.0112      .3380     1.1470
 1004.1636      .3130     1.2290
 1004.3160      .2910     1.2670
 1004.4684      .2840     1.2650
 1004.6208      .2900     1.2520
 1004.7732      .3380     1.2250
 1004.9256      .3630     1.1940
 1005.0780      .3640     1.1170
 1005.2304      .3590     1.0370
 1005.3828      .3580      .9850
 1005.5352      .3650      .9750
 1005.6876      .3720     1.0140
 1005.8400      .3560     1.0440
 1005.9924      .3440     1.0250
 1006.1448      .3400      .9510
 1006.2972      .3400      .8880
 1006.4496      .3400      .8380
 1006.6020      .3340      .8040
 1006.7544      .3320      .7930
 1006.9068      .3320      .8000
 1007.0592      .3320      .8560
 1007.2116      .3320      .9340
 1007.3640      .3320     1.0040
 1007.5164      .3320     1.0440
 1007.6688      .3320     1.0700
 1007.8212      .3320     1.0870
 1007.9736      .3320     1.0980
 1008.1260      .3320     1.0980
 1008.2784      .3320     1.0760
 1008.4308      .3230     1.0510
 1008.5832      .3140     1.0210
 1008.7356      .2990     1.0170
 1008.8880      .2920     1.0270
 1009.0404      .2850     1.0650
 1009.1928      .2840     1.0830
 1009.3452      .2850     1.0850
 1009.4976      .2880     1.0800
 1009.6500      .2920     1.0760
 1009.8024      .2920     1.0710
 1009.9548      .2920     1.0670
 1010.1072      .2920     1.0650
 1010.2596      .2960     1.0660
 1010.4120      .2920     1.0750
 1010.5644      .2920     1.0960
 1010.7168      .2910     1.1120
 1010.8692      .2850     1.1100
 1011.0216      .2840     1.0870
 1011.1740      .2840     1.0480
 1011.3264      .2840     1.0240
 1011.4788      .2840     1.0250
 1011.6312      .2850     1.0410
 1011.7836      .2910     1.0510
 1011.9360      .2920     1.0510
 1012.0884      .2940     1.0500
 1012.2408      .2970     1.0530
 1012.3932      .3000     1.0610
 1012.5456      .3070     1.0810
 1012.6980      .3120     1.0990
 1012.8504      .3150     1.0740
 1013.0028      .3180     1.0190
 1013.1552      .3280      .9500
 1013.3076      .3340      .8920
 1013.4600      .3400      .8750
 1013.6124      .3400      .8780
 1013.7648      .3470      .9420
 1013.9172      .3480      .9990
 1014.0696      .3510     1.0090
 1014.2220      .3560     1.0020
 1014.3744      .3640      .9960
 1014.5268      .3810      .9900
 1014.6792      .3960      .9800
 1014.8316      .4060      .9740
 1014.9840      .4100      .9650
 1015.1364      .4100      .9520
 1015.2888      .4150      .9360
 1015.4412      .4260      .9220
 1015.5936      .4340      .9000
 1015.7460      .4340      .8620
 1015.8984      .4340      .8440
 1016.0508      .4340      .8410
 1016.2032      .4340      .8440
 1016.3556      .4340      .8630
 1016.5080      .4340      .9040
 1016.6604      .4340      .9210
 1016.8128      .4310      .9450
 1016.9652      .4270      .9690
 1017.1176      .4190      .9890
 1017.2700      .4120     1.0220
 1017.4224      .3890     1.0370
 1017.5748      .3590      .9960
 1017.7272      .3340      .9290
 1017.8796      .3170      .8990
 1018.0320      .3090      .8980
 1018.1844      .3080      .9100
 1018.3368      .3110      .9370
 1018.4892      .3160      .9700
 1018.6416      .3230      .9870
 1018.7940      .3240      .9930
 1018.9464      .3240      .9910
 1019.0988      .3300      .9830
 1019.2512      .3320      .9590
 1019.4036      .3320      .9230
 1019.5560      .3320      .8760
 1019.7084      .3290      .8410
 1019.8608      .3240      .8390
 1020.0132      .3240      .8420
 1020.1656      .3240      .8580
 1020.3180      .3240      .9080
 1020.4704      .3210      .9330
 1020.6228      .3150      .9320
 1020.7752      .3070      .9250
 1020.9276      .3000      .9320
 1021.0800      .3000      .9730
 1021.2324      .3000     1.0330
 1021.3848      .2970     1.0800
 1021.5372      .2920     1.0810
 1021.6896      .2920     1.0580
 1021.8420      .2920     1.0400
 1021.9944      .2920     1.0370
 1022.1468      .2920     1.0780
 1022.2992      .2920     1.0920
 1022.4516      .2920     1.0790
 1022.6040      .2920     1.0420
 1022.7564      .2920      .9630
 1022.9088      .2920      .9150
 1023.0612      .2920      .9080
 1023.2136      .2920      .9320
 1023.3660      .2920      .9940
 1023.5184      .2920     1.0130
 1023.6708      .2970     1.0100
 1023.8232      .3030     1.0090
 1023.9756      .3130     1.0080
 1024.1280      .3270     1.0010
 1024.2804      .3390      .9840
 1024.4328      .3400      .9540
 1024.5852      .3330      .9190
 1024.7376      .3320      .8890
 1024.8900      .3320      .8730
 1025.0424      .3310      .8730
 1025.1948      .3220      .8800
 1025.3472      .3130      .9150
 1025.4996      .3000      .9700
 1025.6520      .2890     1.0300
 1025.8044      .2760     1.0960
 1025.9568      .2760     1.1170
 1026.1092      .2760     1.1030
 1026.2616      .2760     1.0830
 1026.4140      .2760     1.0760
 1026.5664      .2760     1.0870
 1026.7188      .2760     1.1040
 1026.8712      .2790     1.1050
 1027.0236      .2840     1.0980
 1027.1760      .2840     1.0830
 1027.3284      .2840     1.0650
 1027.4808      .2840     1.0480
 1027.6332      .2840     1.0420
 1027.7856      .2840     1.0410
 1027.9380      .2840     1.0470
 1028.0904      .2820     1.0740
 1028.2428      .2790     1.1030
 1028.3952      .2740     1.1360
 1028.5476      .2690     1.1530
 1028.7000      .2620     1.1560
 1028.8524      .2530     1.1390
 1029.0048      .2440     1.1300
 1029.1572      .2440     1.1290
 1029.3096      .2440     1.1290
 1029.4620      .2440     1.1100
 1029.6144      .2440     1.1220
 1029.7668      .2440     1.1300
 1029.9192      .2400     1.1450
 1030.0716      .2370     1.1750
 1030.2240      .2350     1.1870
 1030.3764      .2290     1.1860
 1030.5288      .2270     1.1570
 1030.6812      .2230     1.1170
 1030.8336      .2200     1.0960
 1030.9860      .2200     1.0840
 1031.1384      .2200     1.0820
 1031.2908      .2200     1.0840
 1031.4432      .2200     1.0860
 1031.5956      .2200     1.0900
 1031.7480      .2200     1.0860
 1031.9004      .2200     1.0840
 1032.0528      .2130     1.0910
 1032.2052      .2060     1.1090
 1032.3576      .2000     1.1120
 1032.5100      .1980     1.1000
 1032.6624      .1980     1.0980
 1032.8148      .1980     1.0990
 1032.9672      .1980     1.1010
 1033.1196      .1980     1.0980
 1033.2720      .2030     1.0880
 1033.4244      .2040     1.0650
