~VERSION INFORMATION
VERS.                                                 2.0:   CWLS Log ASCII Standard-VERSION 2.0
WRAP.                                                  NO:   One line per depth step
~Well Information Block
STRT.M                                           404.0124:   Top Depth
STOP.M                                          1403.9088:   Bottom Depth
STEP.M                                             .15240:   Depth Increment
NULL.                                            -999.250:   Null Value
FLD .                                          EEMSKANAAL:   Field Name
WELL.                                       EEMSKANAAL- 1:   NAME
EDF .m                                               5.58:   ELEV DRILL FLOOR
EPD .                                                   0:   ELEV PERM DATUM
EGL .m                                                -.9:   GROUND LEVEL
LMF .                                                  DF:   LOGS MEAS FROM
COMP.                                                 NAM:   OPERATOR
PDAT.                                                 NAP:   PERM DATUM
SPUD.                                          1970/11/08:   SPUD DATE
UWBI.                                      11000074112201:   UWBI
WELL.                                       EEMSKANAAL- 1:   HOLE NAME
~PARAMETER INFORMATION (log)
LNAM.                                RUN 01 RAW OH 14.75":   NAME
LTYP.                                                 01R:   LOG TYPE
LVSN.                                                   1:   LOG VERSION
BS  .3/4"                                              14:   BIT SIZE
BLI .M                                             1406.2:   BOTTOM DEPTH LOGGED
BHIS.                                            RCCCCCCC:   BRIEF HISTORY
FHIS.              RAW-TIGA/COPY/COPY/COPY/COPY/COPY/COPY:   FULL HISTORY
MRT .C                                                 50:   MAX REC TEMP
DFT .                                         CHALK WATER:   MUD TYPE
RMS .                                                1.44:   RM
MST .C                                                 11:   RM TEMP
RMCS.                                                1.93:   RMC
MCST.C                                                 19:   RMC TEMP
RMFS.                                               0.917:   RMF
MFST.C                                                 19:   RMF TEMP
TCS .                                                 N/A:   TIME SINCE CIRCLN
TLI .M                                              403.6:   TOP DEPTH LOGGED
~Curve Information Block
#MNEM.UNIT                                        API CODE    No Description
#=========                                        ========    == ===========
DEPT.M                                       00 001 00 00:     1  DEPTH
DILD.OHMM                                                :     2  DUAL INDUCTION LOG DEEP RESISTIVITY
SN.OHMM                                                  :     3  SHORT NORMAL
~ASCII
# ...
  774.3444      .6980      .7930
  774.4968      .6980      .7960
  774.6492      .6980      .8000
  774.8016      .7000      .8040
  774.9540      .7030      .8080
  775.1064      .7060      .8120
  775.2588      .7090      .8160
  775.4112      .7120      .8200
  775.5636      .7140      .8230
  775.7160      .7140      .8270
  775.8684      .7210      .8330
  776.0208      .7340      .8390
  776.1732      .7460      .8420
  776.3256      .7600      .8430
  776.4780      .7700      .8440
  776.6304      .7700      .8440
  776.7828      .7770      .8450
  776.9352      .7780      .8470
  777.0876      .7780      .8490
  777.2400      .7780      .8520
  777.3924      .7780      .8550
  777.5448      .7780      .8570
  777.6972      .7780      .8580
  777.8496      .7720      .8580
  778.0020      .7700      .8580
  778.1544      .7700      .8580
  778.3068      .7700      .8580
  778.4592      .7700      .8580
  778.6116      .7700      .8580
  778.7640      .7700      .8580
  778.9164      .7660      .8580
  779.0688      .7610      .8590
  779.2212      .7550      .8590
  779.3736      .7510      .8580
  779.5260      .7470      .8580
  779.6784      .7400      .8510
  779.8308      .7280      .8420
  779.9832      .7150      .8360
  780.1356      .7060      .8370
  780.2880      .6980      .8380
  780.4404      .6910      .8380
  780.5928      .6900      .8380
  780.7452      .6860      .8380
  780.8976      .6820      .8390
  781.0500      .6820      .8390
  781.2024      .6820      .8390
  781.3548      .6830      .8400
  781.5072      .6880      .8420
  781.6596      .6900      .8440
  781.8120      .6920      .8470
  781.9644      .6930      .8480
  782.1168      .6960      .8500
  782.2692      .6980      .8510
  782.4216      .6980      .8520
  782.5740      .7010      .8520
  782.7264      .7050      .8520
  782.8788      .7060      .8520
  783.0312      .7060      .8520
  783.1836      .7090      .8520
  783.3360      .7180      .8520
  783.4884      .7220      .8520
  783.6408      .7260      .8520
  783.7932      .7300      .8520
  783.9456      .7320      .8520
  784.0980      .7360      .8520
  784.2504      .7380      .8510
  784.4028      .7340      .8500
  784.5552      .7300      .8500
  784.7076      .7300      .8500
  784.8600      .7340      .8490
  785.0124      .7380      .8490
  785.1648      .7380      .8480
  785.3172      .7430      .8410
  785.4696      .7460      .8390
  785.6220      .7460      .8350
  785.7744      .7430      .8170
  785.9268      .7380      .8040
  786.0792      .7380      .8030
  786.2316      .7380      .8090
  786.3840      .7380      .8190
  786.5364      .7380      .8230
  786.6888      .7380      .8230
  786.8412      .7380      .8230
  786.9936      .7380      .8230
  787.1460      .7380      .8220
  787.2984      .7380      .8220
  787.4508      .7380      .8200
  787.6032      .7380      .8180
  787.7556      .7400      .8180
  787.9080      .7460      .8180
  788.0604      .7460      .8180
  788.2128      .7460      .8180
  788.3652      .7460      .8180
  788.5176      .7460      .8170
  788.6700      .7460      .8170
  788.8224      .7460      .8180
  788.9748      .7460      .8180
  789.1272      .7460      .8190
  789.2796      .7460      .8200
  789.4320      .7460      .8220
  789.5844      .7460      .8220
  789.7368      .7460      .8220
  789.8892      .7460      .8230
  790.0416      .7460      .8230
  790.1940      .7460      .8230
  790.3464      .7480      .8220
  790.4988      .7540      .8220
  790.6512      .7600      .8220
  790.8036      .7680      .8220
  790.9560      .7780      .8220
  791.1084      .7860      .8210
  791.2608      .7860      .8200
  791.4132      .7860      .8200
  791.5656      .7860      .8180
  791.7180      .7860      .8160
  791.8704      .7860      .8130
  792.0228      .7860      .8110
  792.1752      .7860      .8100
  792.3276      .7860      .8100
  792.4800      .7860      .8110
  792.6324      .7860      .8120
  792.7848      .7860      .8120
  792.9372      .7860      .8120
  793.0896      .7860      .8100
  793.2420      .7860      .8100
  793.3944      .7860      .8100
  793.5468      .7820      .8110
  793.6992      .7780      .8130
  793.8516      .7780      .8150
  794.0040      .7780      .8150
  794.1564      .7780      .8120
  794.3088      .7780      .8040
  794.4612      .7740      .7910
  794.6136      .7700      .7790
  794.7660      .7700      .7740
  794.9184      .7700      .7710
  795.0708      .7700      .7710
  795.2232      .7700      .7780
  795.3756      .7700      .7860
  795.5280      .7700      .7950
  795.6804      .7700      .8010
  795.8328      .7700      .8030
  795.9852      .7700      .8010
  796.1376      .7700      .8010
  796.2900      .7700      .8000
  796.4424      .7710      .7980
  796.5948      .7740      .7960
  796.7472      .7780      .7960
  796.8996      .7780      .7960
  797.0520      .7780      .7960
  797.2044      .7780      .7960
  797.3568      .7780      .7960
  797.5092      .7780      .7940
  797.6616      .7770      .7910
  797.8140      .7760      .7860
  797.9664      .7730      .7840
  798.1188      .7720      .7820
  798.2712      .7700      .7820
  798.4236      .7700      .7840
  798.5760      .7700      .7870
  798.7284      .7700      .7890
  798.8808      .7700      .7920
  799.0332      .7700      .7940
  799.1856      .7700      .7950
  799.3380      .7700      .7950
  799.4904      .7700      .7950
  799.6428      .7690      .7950
  799.7952      .7660      .7950
  799.9476      .7640      .7950
  800.1000      .7620      .7950
  800.2524      .7570      .7950
  800.4048      .7540      .7950
  800.5572      .7540      .7950
  800.7096      .7540      .7940
  800.8620      .7540      .7920
  801.0144      .7540      .7900
  801.1668      .7540      .7890
  801.3192      .7540      .7880
  801.4716      .7540      .7890
  801.6240      .7540      .7910
  801.7764      .7540      .7940
  801.9288      .7540      .7990
  802.0812      .7540      .8020
  802.2336      .7530      .8020
  802.3860      .7470      .8010
  802.5384      .7460      .8010
  802.6908      .7460      .7990
  802.8432      .7460      .7980
  802.9956      .7460      .7980
  803.1480      .7460      .7980
  803.3004      .7460      .8000
  803.4528      .7460      .8010
  803.6052      .7460      .8010
  803.7576      .7490      .8000
  803.9100      .7520      .7960
  804.0624      .7540      .7880
  804.2148      .7540      .7870
  804.3672      .7540      .7880
  804.5196      .7540      .7900
  804.6720      .7520      .7930
  804.8244      .7500      .7950
  804.9768      .7480      .7960
  805.1292      .7460      .7960
  805.2816      .7460      .7950
  805.4340      .7460      .7940
  805.5864      .7460      .7930
  805.7388      .7450      .7930
  805.8912      .7440      .7930
  806.0436      .7430      .7940
  806.1960      .7420      .7960
  806.3484      .7400      .7970
  806.5008      .7380      .7990
  806.6532      .7380      .8000
  806.8056      .7380      .8000
  806.9580      .7320      .7990
  807.1104      .7260      .7970
  807.2628      .7210      .7960
  807.4152      .7180      .7960
  807.5676      .7170      .7950
  807.7200      .7140      .7950
  807.8724      .7140      .7940
  808.0248      .7140      .7900
  808.1772      .7110      .7860
  808.3296      .7070      .7850
  808.4820      .7060      .7830
  808.6344      .7060      .7820
  808.7868      .7060      .7830
  808.9392      .7070      .7840
  809.0916      .7080      .7840
  809.2440      .7110      .7850
  809.3964      .7140      .7880
  809.5488      .7140      .7930
  809.7012      .7160      .7980
  809.8536      .7210      .7990
  810.0060      .7260      .7990
  810.1584      .7360      .7960
  810.3108      .7430      .7920
  810.4632      .7510      .7840
  810.6156      .7540      .7750
  810.7680      .7570      .7700
  810.9204      .7600      .7690
  811.0728      .7620      .7720
  811.2252      .7620      .7780
