~VERSION INFORMATION
VERS.                                                 2.0:   CWLS Log ASCII Standard-VERSION 2.0
WRAP.                                                  NO:   One line per depth step
~Well Information Block
STRT.M                                           836.5236:   Top Depth
STOP.M                                          2800.0452:   Bottom Depth
STEP.M                                             .15240:   Depth Increment
NULL.                                            -999.250:   Null Value
FLD .                                          EEMSKANAAL:   Field Name
WELL.                                       EEMSKANAAL- 2:   NAME
APD .M                                               5.62:   ABOVE PERM DATUM
CTRY.                                                  NE:   COUNTRY
EDF .m                                               5.62:   ELEV DRILL FLOOR
EPD .                                                   0:   ELEV PERM DATUM
EGL .m                                              -1.06:   GROUND LEVEL
LMF .                                                  DF:   LOGS MEAS FROM
COMP.                                                 NAM:   OPERATOR
PDAT.                                                 NAP:   PERM DATUM
SPUD.                                          1971/03/17:   SPUD DATE
STAT.                                           Unknown m:   STATE
UWBI.                                      11000074112601:   UWBI
WELL.                                       EEMSKANAAL- 2:   HOLE NAME
~PARAMETER INFORMATION (log)
LNAM.                              RUN 04 RAW CH OCT 2002:   NAME
LTYP.                                                 04R:   LOG TYPE
LVSN.                                                   1:   LOG VERSION
BHT .DEGC                                             101:   BH TEMP
BS  .IN                                             9.625:   BIT SIZE
BHS .                                                CASE:   BOREHOLE STATUS
BLI .M                                               2800:   BOTTOM DEPTH LOGGED
BHIS.                                                  RC:   BRIEF HISTORY
CS  .IN                                             7.625:   CASING SIZE
CSW .LB/F                                            52.3:   CASING WEIGHT
R1  .                                 Log correlated with:   COMMENT  1
R2  .       Compensated formation density log 1-April-197:   COMMENT  2
R4  .          Weight expendable tubing 18.6 lbs per foot:   COMMENT  4
R5  .              Weight 7 5/8" casing 33.7 lbs per foot:   COMMENT  5
R7  .                                      Set CSID 5.98":   COMMENT  7
R8  .                   Set CWEI 33.7 + 18.6  =  52.3 LBS:   COMMENT  8
R9  .                                    Set CSIZ 7.625 ":   COMMENT  9
DMF .                                                 ORT:   DRILL MEAS FROM
EDF .M                                               5.62:   ELEV DRILL FLOOR
ELZ .                                              5.62 M:   ELEVATION LOG ZERO
ENGI.                                         M. Riedeman:   ENGINEER
FHIS.                                            RAW-DLIS:   FULL HISTORY
HIDE.                                               RST-C:   HEADER ID
LCNM.                                        Schlumberger:   LOGGING CONTRACTOR
LMF .                                                 ORT:   LOGS MEAS FROM
MATR.                                                LIME:   MATRIX
MRT .DEGC                                             101:   MAX REC TEMP
DFT .                                                 gas:   MUD TYPE
CN  .                                                 NAM:   OPERATOR
RUN .                                                   1:   RUN
DATE.                                          2002/10/25:   RUN DATE
RW  .OHMM                                               1:   RW
STEM.DEGC                                              18:   SURFACE TEMPERATURE
TLAB.                                                1100:   TIME LOGGER ON BOT
TLI .M                                                840:   TOP DEPTH LOGGED
WITN.                           P van der Zee & S. Yntema:   WITNESS
~Curve Information Block
#MNEM.UNIT                                        API CODE    No Description
#=========                                        ========    == ===========
DEPT.M                                       00 001 00 00:     1  DEPTH
AIRB.                                                    :     2  RST Air Borehole Diagnostic
CIRF.                                                    :     3  RST Capture to Inelastic Ratio Far
CIRN.                                                    :     4  RST Capture to Inelastic Ratio Near
FBAC.CPS                                                 :     5  Far Background Count Rate
GR.API                                                   :     6  Gamma Ray
IRAT.                                                    :     7  RST Inelastic Ratio
NBAC.CPS                                                 :     8  Near Background Count Rate
SBNA.CU                                                  :     9  RST Sigma Borehole Near Apparent
SFNA.CU                                                  :    10  RST Sigma Formation Near Apparent
SIGM.CU                                                  :    11  Formation Sigma (Neutron Capture Cross S
TPHI.FRAC                                                :    12  Thermal Decay Porosity
~ASCII
# ...
 1747.5708     1.0000      .4906      .2905  3389.9724    52.2786      .8687  2035.7863    77.5685    39.8771    53.4877      .3979
 1747.7232     1.0000      .4932      .2809  3410.6943    53.5209      .8657  2050.2246    78.1893    39.7674    52.7809      .3854
 1747.8756     1.0000      .4941      .2822  3451.2024    56.0331      .8670  2043.5403    78.7652    41.2791    52.0829      .3730
 1748.0280     1.0000      .5252      .3002  3454.1436    56.6968      .8699  2070.0110    77.5829    39.1747    51.3649      .3652
 1748.1804     1.0000      .5644      .3227  3451.7368    57.5192      .8747  2064.5247    76.5519    35.8986    50.2189      .3665
 1748.3328     1.0000      .5456      .3273  3421.6565    57.3302      .8721  2085.1130    71.1988    35.8775    49.3551      .3583
 1748.4852     1.0000      .5737      .3112  3418.9827    55.4570      .8806  2081.3694    75.6426    39.6112    48.9820      .3538
 1748.6376     1.0000      .5585      .3190  3429.7087    54.7682      .8812  2072.6794    75.3579    37.1883    48.9892      .3596
 1748.7900     1.0000      .5229      .3230  3420.3015    53.4801      .8810  2056.8235    77.0053    37.2760    49.9753      .4013
 1748.9424     1.0000      .5042      .3133  3423.7998    54.0931      .8807  2046.4968    74.5228    38.4524    51.1570      .4418
 1749.0948     1.0000      .4753      .3061  3433.5681    55.3225      .8804  2027.7802    73.8683    39.7419    52.7412      .4700
 1749.2472     1.0000      .4754      .2931  3431.7905    56.3563      .8785  2017.3524    74.4777    39.2894    53.2027      .4699
 1749.3996     1.0000      .4540      .2832  3443.5720    56.6027      .8778  2023.6356    75.3089    40.9426    53.9524      .4692
 1749.5520     1.0000      .4648      .2919  3444.3525    59.2809      .8787  2028.3148    77.4841    39.6618    54.4264      .4703
 1749.7044     1.0000      .4732      .2996  3455.5601    59.2930      .8725  2017.8871    72.8635    43.3075    54.3769      .4631
 1749.8568     1.0000      .4809      .2932  3486.0415    58.5987      .8676  2027.2454    81.2922    38.0833    54.6577      .4629
 1750.0092     1.0000      .4484      .2825  3509.2805    60.2410      .8698  2033.6625    75.7289    40.3136    54.7421      .4403
 1750.1616     1.0000      .4634      .2858  3523.3181    60.2191      .8768  2053.0476    83.6335    41.7282    54.4875      .4290
 1750.3140     1.0000      .4797      .2852  3524.1118    57.2869      .8753  2073.9033    77.1646    40.8270    53.3581      .4010
 1750.4664     1.0000      .5238      .3016  3534.4282    56.0241      .8698  2099.4377    75.9045    39.3744    52.1767      .3895
 1750.6188     1.0000      .5406      .3166  3502.8540    57.2853      .8714  2100.8020    79.4687    37.0588    52.5344      .3828
 1750.7712     1.0000      .4902      .3028  3496.9712    55.9770      .8683  2106.1497    79.6195    39.0966    53.1166      .3918
 1750.9236     1.0000      .4979      .2833  3489.1064    54.3876      .8699  2130.7485    76.1237    43.3424    53.9016      .3935
 1751.0760     1.0000      .4953      .2837  3465.8032    55.8904      .8693  2107.3528    78.4936    40.9039    54.0670      .3922
 1751.2284     1.0000      .5125      .3073  3445.2373    56.6412      .8769  2093.3154    76.8631    38.5468    53.7914      .3720
 1751.3808     1.0000      .5143      .2972  3425.8516    55.2909      .8772  2086.6311    81.0354    40.8658    53.1175      .3636
 1751.5332     1.0000      .5510      .3107  3425.0273    55.2611      .8754  2079.2781    75.2624    38.8398    52.1064      .3512
 1751.6856     1.0000      .5683      .3194  3408.3389    54.4678      .8777  2066.9785    74.8843    36.7421    51.3326      .3452
 1751.8380     1.0000      .5742      .3216  3369.5688    55.8973      .8809  2064.7058    80.2478    37.7935    51.3775      .3417
 1751.9904     1.0000      .5535      .3283  3382.2695    55.6675      .8908  2060.5615    79.5343    37.2190    50.7438      .3479
 1752.1428     1.0000      .5664      .3392  3376.3870    57.8975      .8924  2053.2087    76.5949    37.1029    50.1591      .3598
 1752.2952     1.0000      .5586      .3256  3403.1257    57.3735      .8948  2067.1123    75.3053    37.0939    49.8914      .3808
 1752.4476     1.0000      .5362      .3176  3413.9460    58.5122      .8887  2068.4492    70.7322    38.3971    50.5878      .3854
 1752.6000     1.0000      .5215      .3097  3425.4431    55.9340      .8801  2040.9093    78.0835    39.2992    51.3798      .4089
 1752.7524     1.0000      .5136      .2945  3459.0232    54.7266      .8763  2047.3263    70.2585    40.5907    51.7251      .4068
 1752.9048     1.0000      .4852      .2938  3457.8281    52.6750      .8757  2058.6902    76.9354    40.1042    51.7735      .4211
 1753.0572     1.0000      .4809      .2857  3456.3345    52.3179      .8818  2069.9202    71.1784    39.6356    51.1707      .4051
 1753.2096     1.0000      .5141      .2892  3470.9375    54.2873      .8855  2071.9255    70.4491    40.7358    50.3359      .4052
 1753.3620     1.0000      .5310      .3116  3492.3054    54.5442      .8822  2078.2146    71.5428    38.4648    49.6446      .3879
 1753.5144     1.0000      .5343      .3213  3509.6853    56.3512      .8778  2061.7705    77.1253    38.0377    49.6092      .3819
 1753.6668     1.0000      .5335      .2966  3491.6375    57.9567      .8703  2084.6316    76.4886    39.3221    50.4253      .3757
 1753.8192     1.0000      .4977      .2811  3487.3591    60.0998      .8660  2070.5940    73.1649    39.8119    51.1925      .3810
 1753.9716     1.0000      .5033      .2836  3455.0291    58.8066      .8668  2088.2410    72.0660    39.6609    51.6916      .3790
 1754.1240     1.0000      .5363      .2969  3431.6331    59.1445      .8689  2088.2463    73.8347    39.8397    51.0542      .3657
 1754.2764     1.0000      .5793      .3226  3408.7720    58.4695      .8681  2081.4006    73.5640    38.5520    49.9539      .3533
 1754.4288     1.0000      .6086      .3346  3389.1201    56.3364      .8678  2068.9678    72.7529    36.0800    49.0351      .3437
 1754.5812     1.0000      .5824      .3355  3418.3896    54.3610      .8670  2067.3633    80.0194    36.5072    48.7844      .3615
 1754.7336     1.0000      .5692      .3309  3439.1130    52.7082      .8708  2078.0317    72.3036    38.1310    49.3583      .3666
 1754.8860     1.0000      .5487      .3248  3404.4780    52.7593      .8693  2091.9092    77.4262    36.0698    50.3353      .3884
 1755.0384     1.0000      .5405      .3060  3418.5159    52.2322      .8686  2088.2939    77.3772    38.9922    51.4076      .3872
 1755.1908     1.0000      .4909      .2952  3437.9014    52.3086      .8790  2068.5359    78.0284    39.3400    52.2141      .4064
 1755.3432     1.0000      .4699      .2852  3444.7190    54.1155      .8781  2097.5186    74.3283    40.2436    53.4050      .4172
 1755.4956     1.0000      .4890      .2872  3435.8728    55.8524      .8765  2092.8394    75.8614    40.0959    53.0680      .4254
 1755.6480     1.0000      .4790      .2891  3441.0947    57.0413      .8743  2071.4490    78.0163    40.5103    53.5430      .4260
 1755.8004     1.0000      .4765      .2943  3438.7764    58.8777      .8801  2071.0425    74.1143    41.0071    53.3763      .4221
 1755.9528     1.0000      .4905      .2820  3472.2073    59.8756      .8816  2109.9741    74.2192    40.6734    54.2986      .4134
 1756.1052     1.0000      .4820      .2794  3490.5227    58.5147      .8535  2137.7871    76.9583    41.2585    54.9143      .3982
 1756.2576     1.0000      .4589      .2484  3439.0522    58.4803      .8455  2134.0439    80.2189    40.4129    54.3875      .3828
 1756.4100     1.0000      .4329      .2512  3406.8782    58.5727      .8558  2118.6689    84.0727    40.6631    53.2113      .3873
 1756.5624     1.0000      .5207      .3217  3442.4397    56.5626      .8737  2120.7063    77.0766    37.6178    51.9780      .3886
 1756.7148     1.0000      .5676      .3324  3413.1836    57.0524      .8809  2118.7009    76.9603    35.5644    51.3791      .3857
