~VERSION INFORMATION
VERS.                                                 2.0:   CWLS Log ASCII Standard-VERSION 2.0
WRAP.                                                  NO:   One line per depth step
~Well Information Block
STRT.M                                          1406.0424:   Top Depth
STOP.M                                          1903.9332:   Bottom Depth
STEP.M                                             .15240:   Depth Increment
NULL.                                            -999.250:   Null Value
FLD .                                          EEMSKANAAL:   Field Name
WELL.                                       EEMSKANAAL- 1:   NAME
EDF .m                                               5.58:   ELEV DRILL FLOOR
EPD .                                                   0:   ELEV PERM DATUM
EGL .m                                                -.9:   GROUND LEVEL
LMF .                                                  DF:   LOGS MEAS FROM
COMP.                                                 NAM:   OPERATOR
PDAT.                                                 NAP:   PERM DATUM
SPUD.                                          1970/11/08:   SPUD DATE
UWBI.                                      11000074112201:   UWBI
WELL.                                       EEMSKANAAL- 1:   HOLE NAME
~PARAMETER INFORMATION (log)
LNAM.                                RUN 07 RAW OH 9.625":   NAME
LTYP.                                                 07R:   LOG TYPE
LVSN.                                                   1:   LOG VERSION
BS  .5/8"                                               9:   BIT SIZE
BLI .M                                               2950:   BOTTOM DEPTH LOGGED
BHIS.                                            RCCCCCCC:   BRIEF HISTORY
FHIS.              RAW-TIGA/COPY/COPY/COPY/COPY/COPY/COPY:   FULL HISTORY
MRT .                                                    :   MAX REC TEMP
DFT .                                          SALT SPERS:   MUD TYPE
RMS .                                               0.074:   RM
MST .C                                                 26:   RM TEMP
RMCS.                                               0.144:   RMC
MCST.C                                                 17:   RMC TEMP
RMFS.                                               0.059:   RMF
MFST.C                                                 26:   RMF TEMP
TCS .                                                 N/A:   TIME SINCE CIRCLN
TLI .M                                             1406.5:   TOP DEPTH LOGGED
~Curve Information Block
#MNEM.UNIT                                        API CODE    No Description
#=========                                        ========    == ===========
DEPT.M                                       00 001 00 00:     1  DEPTH
LL9D.OHMM                                                :     2  Dual Laterolog 9 deep
LL9S.OHMM                                                :     3  Dual Laterolog 9 shallow
MSFL.OHMM                                                :     4  MICRO SPHERICALLY FOCUSSED LOG
~ASCII
# ...
 1461.5160     2.5040     2.1270     1.5580
 1461.6684     2.5370     2.1930     2.4290
 1461.8208     2.5250     2.1890     2.4090
 1461.9732     2.4930     2.1570     2.2630
 1462.1256     2.4240     2.0870     1.8800
 1462.2780     2.2780     1.9840     2.4740
 1462.4304     2.0100     1.7720     2.0910
 1462.5828     1.9520     1.6770     1.3090
 1462.7352     1.9450     1.6710     2.0220
 1462.8876     1.9630     1.7100     1.6040
 1463.0400     2.0770     1.8380     1.4950
 1463.1924     2.2840     2.1030     2.2050
 1463.3448     2.5330     2.3420     2.2240
 1463.4972     2.7800     2.4440     2.0420
 1463.6496     2.5650     2.4020     2.7530
 1463.8020     2.3840     2.2050     2.9570
 1463.9544     2.4080     2.1120     2.8910
 1464.1068     2.7530     2.1540     3.0370
 1464.2592     3.0250     2.4890     2.0250
 1464.4116     3.0500     2.6320     1.3780
 1464.5640     2.9870     2.6290     2.9090
 1464.7164     2.8960     2.5950     3.5920
 1464.8688     2.9360     2.5660     4.8690
 1465.0212     2.9840     2.5740     2.4670
 1465.1736     2.9490     2.6000     2.6050
 1465.3260     2.8340     2.5390     2.1930
 1465.4784     2.6640     2.3230     2.6900
 1465.6308     2.4510     2.1050     2.7160
 1465.7832     2.3290     1.9800     2.4770
 1465.9356     2.2900     1.9000     1.7860
 1466.0880     2.2820     1.8750     1.6740
 1466.2404     2.2850     1.8890     2.2050
 1466.3928     2.2940     1.9040     2.0990
 1466.5452     2.2980     1.9110     2.0880
 1466.6976     2.2350     1.8610     2.6030
 1466.8500     2.1790     1.8270     2.6040
 1467.0024     2.1590     1.8180     2.5180
 1467.1548     2.1760     1.8570     2.1650
 1467.3072     2.2740     1.9260     1.9160
 1467.4596     2.3970     1.9960     2.3710
 1467.6120     2.5020     2.0440     2.7200
 1467.7644     2.5340     2.0560     2.8340
 1467.9168     2.5330     2.0480     2.8930
 1468.0692     2.5230     2.0190     2.6050
 1468.2216     2.5010     1.9670     3.0470
 1468.3740     2.4780     1.9170     2.5980
 1468.5264     2.4470     1.8930     2.4790
 1468.6788     2.3990     1.8890     2.3790
 1468.8312     2.3530     1.8920     2.6320
 1468.9836     2.3500     1.8920     2.6850
 1469.1360     2.3630     1.8950     2.6650
 1469.2884     2.3600     1.8930     2.5580
 1469.4408     2.2790     1.8580     2.9880
 1469.5932     2.1330     1.7950     2.9880
 1469.7456     1.9770     1.6650     2.8000
 1469.8980     1.8970     1.5550     2.2650
 1470.0504     1.9330     1.5360     2.1110
 1470.2028     2.0420     1.5750     2.2370
 1470.3552     2.1580     1.6200     2.5420
 1470.5076     2.1790     1.6330     2.7120
 1470.6600     2.1370     1.5990     1.7560
 1470.8124     2.0550     1.5340     2.3820
 1470.9648     1.9520     1.4620     2.4770
 1471.1172     1.8490     1.4030     2.4150
 1471.2696     1.7620     1.3580     1.9960
 1471.4220     1.7050     1.3300     1.8520
 1471.5744     1.6980     1.3240     2.1140
 1471.7268     1.7190     1.3270     2.1010
 1471.8792     1.7690     1.3410     1.8270
 1472.0316     1.8270     1.3600     1.4250
 1472.1840     1.8830     1.3970     1.9620
 1472.3364     1.9550     1.4460     2.1820
 1472.4888     2.0270     1.4970     2.1350
 1472.6412     2.0770     1.5430     2.2280
 1472.7936     2.1140     1.5980     2.4680
 1472.9460     2.1360     1.6460     2.4460
 1473.0984     2.1470     1.6760     2.4510
 1473.2508     2.1260     1.6730     2.4080
 1473.4032     2.0510     1.5780     2.3550
 1473.5556     1.8000     1.4160     2.4040
 1473.7080     1.7490     1.3790     2.3170
 1473.8604     1.7650     1.3930     1.5060
 1474.0128     1.9190     1.5280      .7390
 1474.1652     2.3780     1.7800     1.8170
 1474.3176     2.5560     1.9700     2.3760
 1474.4700     2.5330     1.9410     2.0880
 1474.6224     2.5200     1.9160     1.3960
 1474.7748     2.5520     1.9530     1.9200
 1474.9272     2.6070     2.0440     1.9850
 1475.0796     2.6210     2.1270     2.3970
 1475.2320     2.5970     2.1010     2.5210
 1475.3844     2.4930     2.0130     2.7440
 1475.5368     2.4030     1.9090     2.8140
 1475.6892     2.3610     1.8710     2.6530
 1475.8416     2.3220     1.8470     2.4880
 1475.9940     2.2180     1.8030     2.3860
 1476.1464     2.0390     1.6780     2.3100
 1476.2988     1.8520     1.5320     2.1250
 1476.4512     1.7390     1.4190     1.7730
 1476.6036     1.6750     1.3490     2.1480
 1476.7560     1.6400     1.3330     2.0630
 1476.9084     1.6330     1.3480     1.9000
 1477.0608     1.6700     1.3980     1.8670
 1477.2132     1.7460     1.4660     1.8830
 1477.3656     1.8610     1.5420     1.9620
 1477.5180     1.9750     1.6270     2.0310
 1477.6704     2.0900     1.7050     2.0170
 1477.8228     2.2020     1.7880     2.0050
 1477.9752     2.3110     1.8800     1.5280
 1478.1276     2.4430     1.9760     1.5120
 1478.2800     2.5740     2.0860     2.5400
 1478.4324     2.6530     2.2110     2.6420
 1478.5848     2.7580     2.3580     2.2010
 1478.7372     3.0780     2.5850     2.3940
 1478.8896     3.5930     2.9080     2.8990
 1479.0420     4.1400     3.2700     2.8970
 1479.1944     4.3150     3.5620     2.1420
 1479.3468     4.1480     3.4650     2.5150
 1479.4992     3.5920     3.1250     4.6760
 1479.6516     3.3180     2.9590     3.9820
 1479.8040     3.0960     2.8570     3.3700
 1479.9564     2.8990     2.7670     2.8590
 1480.1088     2.5500     2.6350     2.4780
 1480.2612     2.2180     2.3960     1.5260
 1480.4136     1.9590     1.8320     1.4690
 1480.5660     1.8340     1.7830     2.1010
 1480.7184     1.8730     1.7970     2.0460
 1480.8708     2.4200     1.9510     1.5330
 1481.0232     3.3750     2.3690     1.3120
 1481.1756     4.3230     3.0920     2.6410
 1481.3280     4.8530     3.8160     2.8800
 1481.4804     5.1710     4.3660     2.9600
 1481.6328     5.2050     4.5220     4.6740
 1481.7852     5.0650     4.5240     4.8500
 1481.9376     4.8740     4.5010     4.5610
 1482.0900     4.7350     4.4450     3.4880
 1482.2424     4.6140     4.2680     4.8900
 1482.3948     4.4580     4.1980     3.2560
 1482.5472     4.1970     3.9360     4.3540
 1482.6996     3.7120     3.4770     3.2980
 1482.8520     2.9860     2.7440     2.6260
 1483.0044     2.6210     2.3860     1.8870
 1483.1568     2.5420     2.2770     2.1890
 1483.3092     2.5340     2.1930     2.8850
 1483.4616     2.5340     2.1380     2.3370
 1483.6140     2.5370     2.1210     2.4750
 1483.7664     2.5580     2.1360     2.3690
 1483.9188     2.6410     2.2240     2.4510
 1484.0712     2.8040     2.4180     2.7350
 1484.2236     3.1400     2.6760     2.8660
 1484.3760     3.4850     2.7630     2.8300
 1484.5284     3.4560     2.7560     2.7760
 1484.6808     3.3330     2.7160     3.3920
 1484.8332     3.0900     2.6380     3.2240
 1484.9856     2.7680     2.4970     1.2820
 1485.1380     2.5500     2.2780     2.7200
 1485.2904     2.4430     2.0970     2.9750
 1485.4428     2.4380     2.0700     2.8570
 1485.5952     2.4950     2.0900     2.3060
 1485.7476     2.6420     2.2330     2.3000
 1485.9000     2.9390     2.4580     2.6290
 1486.0524     3.2660     2.7240     2.7140
 1486.2048     3.3920     2.7780     2.9080
 1486.3572     3.3090     2.6440     2.5200
 1486.5096     3.0760     2.3980     1.4910
 1486.6620     2.8290     2.2120     2.1730
 1486.8144     2.6500     2.1370     3.0760
 1486.9668     2.6540     2.1440     3.0690
 1487.1192     2.7050     2.2350     3.1380
 1487.2716     2.8260     2.3530     2.9620
 1487.4240     2.8630     2.3740     3.0310
 1487.5764     2.5520     2.2810     3.2210
 1487.7288     2.3520     2.0660     2.6390
 1487.8812     2.2760     1.8890     2.5110
 1488.0336     2.2750     1.8750      .6870
 1488.1860     2.3800     1.9280     2.1390
 1488.3384     2.5270     2.1230     2.7180
 1488.4908     2.6270     2.1960     2.6420
 1488.6432     2.6860     2.1970     2.5530
 1488.7956     2.7220     2.1950     2.2490
 1488.9480     2.7020     2.1790     1.1620
 1489.1004     2.5340     2.0700     2.6980
