~VERSION INFORMATION
VERS.                                                 2.0:   CWLS Log ASCII Standard-VERSION 2.0
WRAP.                                                  NO:   One line per depth step
~Well Information Block
STRT.M                                            10.0584:   Top Depth
STOP.M                                          1400.8608:   Bottom Depth
STEP.M                                             .15240:   Depth Increment
NULL.                                            -999.250:   Null Value
FLD .                                          EEMSKANAAL:   Field Name
WELL.                                       EEMSKANAAL- 1:   NAME
EDF .m                                               5.58:   ELEV DRILL FLOOR
EPD .                                                   0:   ELEV PERM DATUM
EGL .m                                                -.9:   GROUND LEVEL
LMF .                                                  DF:   LOGS MEAS FROM
COMP.                                                 NAM:   OPERATOR
PDAT.                                                 NAP:   PERM DATUM
SPUD.                                          1970/11/08:   SPUD DATE
UWBI.                                      11000074112201:   UWBI
WELL.                                       EEMSKANAAL- 1:   HOLE NAME
~PARAMETER INFORMATION (log)
LNAM.                                RUN 02 RAW OH 14.75":   NAME
LTYP.                                                 02R:   LOG TYPE
LVSN.                                                   1:   LOG VERSION
BS  .3/4"                                              14:   BIT SIZE
BLI .M                                             1402.5:   BOTTOM DEPTH LOGGED
BHIS.                                            RCCCCCCC:   BRIEF HISTORY
FHIS.              RAW-TIGA/COPY/COPY/COPY/COPY/COPY/COPY:   FULL HISTORY
MRT .C                                                 50:   MAX REC TEMP
DFT .                                         CHALK WATER:   MUD TYPE
RMS .                                                1.44:   RM
MST .C                                                 11:   RM TEMP
RMCS.                                                1.93:   RMC
MCST.C                                                 19:   RMC TEMP
RMFS.                                               0.917:   RMF
MFST.C                                                 19:   RMF TEMP
TCS .                                                 N/A:   TIME SINCE CIRCLN
TLI .M                                                 10:   TOP DEPTH LOGGED
~Curve Information Block
#MNEM.UNIT                                        API CODE    No Description
#=========                                        ========    == ===========
DEPT.M                                       00 001 00 00:     1  DEPTH
BCSL.US/F                                                :     2  Interval Transit Time From Borehole Comp
GRIC.GAPI                                                :     3  GAMMA RAY LOG IN CASING
GRS.GAPI                                                 :     4  GAMMA RAY FROM SONIC LOG
~ASCII
# ...
 1175.0040    96.3000  -999.2500     6.4500
 1175.1564    95.6880  -999.2500     6.4840
 1175.3088    94.8920  -999.2500     6.5050
 1175.4612    93.8920  -999.2500     6.4780
 1175.6136    92.5860  -999.2500     6.5780
 1175.7660    91.9510  -999.2500     6.6300
 1175.9184    92.2510  -999.2500     6.5700
 1176.0708    91.2980  -999.2500     6.6230
 1176.2232    90.9780  -999.2500     7.3920
 1176.3756    91.2590  -999.2500     7.5350
 1176.5280    91.9160  -999.2500     6.7450
 1176.6804    92.4570  -999.2500     6.2490
 1176.8328    92.1990  -999.2500     6.6630
 1176.9852    92.0890  -999.2500     7.1920
 1177.1376    93.0280  -999.2500     7.3050
 1177.2900    94.7740  -999.2500     7.0680
 1177.4424    96.4860  -999.2500     6.6930
 1177.5948    97.8520  -999.2500     6.4410
 1177.7472    98.4960  -999.2500     6.3400
 1177.8996    97.8730  -999.2500     6.0460
 1178.0520    96.7120  -999.2500     5.7880
 1178.2044    96.1450  -999.2500     5.5500
 1178.3568    95.4730  -999.2500     5.6440
 1178.5092    94.8930  -999.2500     6.1150
 1178.6616    95.0430  -999.2500     6.3140
 1178.8140    95.5710  -999.2500     5.8130
 1178.9664    96.4220  -999.2500     5.3510
 1179.1188    97.0860  -999.2500     4.9900
 1179.2712    97.4720  -999.2500     4.6350
 1179.4236    97.5030  -999.2500     4.6150
 1179.5760    96.8180  -999.2500     4.8430
 1179.7284    94.7780  -999.2500     5.4040
 1179.8808    93.4130  -999.2500     5.9940
 1180.0332    92.7900  -999.2500     5.5510
 1180.1856    92.7870  -999.2500     4.8350
 1180.3380    93.0890  -999.2500     4.7440
 1180.4904    93.1880  -999.2500     4.8950
 1180.6428    92.3790  -999.2500     5.2880
 1180.7952    91.0530  -999.2500     5.6740
 1180.9476    89.9710  -999.2500     6.0250
 1181.1000    88.7400  -999.2500     6.2700
 1181.2524    89.0210  -999.2500     6.3930
 1181.4048    89.9460  -999.2500     6.5100
 1181.5572    90.7400  -999.2500     6.5100
 1181.7096    91.5460  -999.2500     6.4850
 1181.8620    92.4420  -999.2500     6.2500
 1182.0144    93.2630  -999.2500     6.1120
 1182.1668    93.8670  -999.2500     6.5000
 1182.3192    94.2550  -999.2500     7.3860
 1182.4716    94.9810  -999.2500     7.2170
 1182.6240    96.0050  -999.2500     6.7940
 1182.7764    96.9030  -999.2500     6.3950
 1182.9288    96.8030  -999.2500     6.0940
 1183.0812    94.8920  -999.2500     6.0300
 1183.2336    93.9620  -999.2500     6.0450
 1183.3860    93.7760  -999.2500     6.1650
 1183.5384    95.0600  -999.2500     6.2030
 1183.6908    96.6270  -999.2500     5.9570
 1183.8432    97.4960  -999.2500     5.5190
 1183.9956    97.9980  -999.2500     5.0820
 1184.1480    98.0500  -999.2500     4.6860
 1184.3004    97.5480  -999.2500     5.0560
 1184.4528    96.4050  -999.2500     5.4970
 1184.6052    95.1820  -999.2500     5.6670
 1184.7576    94.8200  -999.2500     5.6100
 1184.9100    95.0590  -999.2500     5.5630
 1185.0624    95.9890  -999.2500     5.5870
 1185.2148    96.8430  -999.2500     5.6490
 1185.3672    96.6930  -999.2500     5.8410
 1185.5196    94.9780  -999.2500     6.0120
 1185.6720    92.1990  -999.2500     5.9140
 1185.8244    90.1450  -999.2500     5.9430
 1185.9768    88.4230  -999.2500     6.1250
 1186.1292    87.5410  -999.2500     6.0680
 1186.2816    88.5390  -999.2500     5.8310
 1186.4340    90.0790  -999.2500     5.3620
 1186.5864    91.4200  -999.2500     4.7830
 1186.7388    92.5520  -999.2500     4.6020
 1186.8912    93.5890  -999.2500     4.7020
 1187.0436    93.3150  -999.2500     4.7100
 1187.1960    92.2820  -999.2500     4.7820
 1187.3484    90.5980  -999.2500     4.9550
 1187.5008    89.1540  -999.2500     5.0080
 1187.6532    88.1330  -999.2500     4.6280
 1187.8056    87.4400  -999.2500     4.7800
 1187.9580    86.9080  -999.2500     4.8890
 1188.1104    87.6850  -999.2500     4.6100
 1188.2628    88.6250  -999.2500     4.6500
 1188.4152    89.1820  -999.2500     4.6500
 1188.5676    90.3570  -999.2500     4.6300
 1188.7200    90.8800  -999.2500     4.5900
 1188.8724    90.6060  -999.2500     4.6120
 1189.0248    89.8590  -999.2500     4.6650
 1189.1772    88.7140  -999.2500     4.8720
 1189.3296    87.1560  -999.2500     5.1480
 1189.4820    87.1810  -999.2500     5.7390
 1189.6344    89.2830  -999.2500     6.0510
 1189.7868    92.1460  -999.2500     6.0900
 1189.9392    93.1820  -999.2500     6.0900
 1190.0916    92.9110  -999.2500     6.0350
 1190.2440    92.6700  -999.2500     5.9260
 1190.3964    91.2410  -999.2500     5.8210
 1190.5488    90.5620  -999.2500     5.7170
 1190.7012    90.3250  -999.2500     5.5040
 1190.8536    89.8520  -999.2500     5.4760
 1191.0060    91.3870  -999.2500     5.5500
 1191.1584    92.3050  -999.2500     5.5500
 1191.3108    91.4050  -999.2500     5.5560
 1191.4632    88.7300  -999.2500     5.6100
 1191.6156    86.3950  -999.2500     5.6890
 1191.7680    85.0210  -999.2500     5.7900
 1191.9204    84.9430  -999.2500     5.7780
 1192.0728    85.1940  -999.2500     5.6430
 1192.2252    85.2900  -999.2500     5.4110
 1192.3776    85.6610  -999.2500     5.0100
 1192.5300    86.4900  -999.2500     5.0220
 1192.6824    87.7960  -999.2500     5.5360
 1192.8348    88.9560  -999.2500     5.0610
 1192.9872    89.9440  -999.2500     4.7570
 1193.1396    90.7700  -999.2500     4.7550
 1193.2920    91.8370  -999.2500     4.8830
 1193.4444    92.1870  -999.2500     4.9970
 1193.5968    92.1130  -999.2500     5.2440
 1193.7492    90.2470  -999.2500     5.4810
 1193.9016    87.6550  -999.2500     5.4900
 1194.0540    86.8530  -999.2500     5.3860
 1194.2064    86.7920  -999.2500     5.1900
 1194.3588    88.5020  -999.2500     5.2690
 1194.5112    91.4820  -999.2500     5.5550
 1194.6636    93.6010  -999.2500     5.9590
 1194.8160    94.2550  -999.2500     5.5870
 1194.9684    95.3250  -999.2500     5.2070
 1195.1208    96.3630  -999.2500     5.0700
 1195.2732    97.3160  -999.2500     5.0700
 1195.4256    98.0120  -999.2500     5.0550
 1195.5780    98.4600  -999.2500     5.0100
 1195.7304    98.4390  -999.2500     5.1200
 1195.8828    96.9370  -999.2500     5.1300
 1196.0352    95.1930  -999.2500     5.3190
 1196.1876    93.3610  -999.2500     5.6420
 1196.3400    91.8160  -999.2500     5.7180
 1196.4924    90.5700  -999.2500     5.5200
 1196.6448    90.7270  -999.2500     5.4500
 1196.7972    89.2650  -999.2500     5.6350
 1196.9496    87.8640  -999.2500     6.0220
 1197.1020    86.9370  -999.2500     6.1330
 1197.2544    86.4450  -999.2500     5.9730
 1197.4068    86.7780  -999.2500     5.7750
 1197.5592    87.9940  -999.2500     5.4230
 1197.7116    88.9640  -999.2500     5.0040
 1197.8640    89.5980  -999.2500     4.8070
 1198.0164    90.0080  -999.2500     4.8370
 1198.1688    90.2000  -999.2500     4.8850
 1198.3212    89.7940  -999.2500     4.8900
 1198.4736    90.3540  -999.2500     4.8900
 1198.6260    89.7620  -999.2500     4.8670
 1198.7784    89.4940  -999.2500     4.8690
 1198.9308    89.9170  -999.2500     5.0760
 1199.0832    90.5460  -999.2500     5.3520
 1199.2356    91.2160  -999.2500     5.6310
 1199.3880    91.7260  -999.2500     5.6700
 1199.5404    91.2010  -999.2500     5.8830
 1199.6928    90.3260  -999.2500     5.9380
 1199.8452    89.5800  -999.2500     5.9700
 1199.9976    89.3010  -999.2500     5.9700
 1200.1500    89.3250  -999.2500     5.9700
 1200.3024    89.9550  -999.2500     5.9690
 1200.4548    90.7640  -999.2500     5.8990
 1200.6072    91.1610  -999.2500     5.7780
 1200.7596    90.5750  -999.2500     5.5620
 1200.9120    90.5670  -999.2500     5.3830
 1201.0644    89.8650  -999.2500     5.3310
 1201.2168    90.5830  -999.2500     5.3100
 1201.3692    92.3430  -999.2500     5.3100
 1201.5216    94.6020  -999.2500     5.3100
 1201.6740    96.7420  -999.2500     5.3100
 1201.8264    97.2910  -999.2500     5.3140
 1201.9788    95.9080  -999.2500     5.3600
 1202.1312    95.3410  -999.2500     5.3890
 1202.2836    95.3850  -999.2500     5.4800
 1202.4360    96.5260  -999.2500     5.5220
 1202.5884    97.2630  -999.2500     5.6600
