~VERSION INFORMATION
VERS.                                                 2.0:   CWLS Log ASCII Standard-VERSION 2.0
WRAP.                                                  NO:   One line per depth step
~Well Information Block
STRT.M                                          2687.1168:   Top Depth
STOP.M                                          3063.8496:   Bottom Depth
STEP.M                                             .15240:   Depth Increment
NULL.                                            -999.250:   Null Value
FLD .                                          EEMSKANAAL:   Field Name
WELL.                                       EEMSKANAAL- 1:   NAME
EDF .m                                               5.58:   ELEV DRILL FLOOR
EPD .                                                   0:   ELEV PERM DATUM
EGL .m                                                -.9:   GROUND LEVEL
LMF .                                                  DF:   LOGS MEAS FROM
COMP.                                                 NAM:   OPERATOR
PDAT.                                                 NAP:   PERM DATUM
SPUD.                                          1970/11/08:   SPUD DATE
UWBI.                                      11000074112201:   UWBI
WELL.                                       EEMSKANAAL- 1:   HOLE NAME
~PARAMETER INFORMATION (log)
LNAM.                                RUN 05 RAW OH 9.625":   NAME
LTYP.                                                 05R:   LOG TYPE
LVSN.                                                   1:   LOG VERSION
BS  .5/8"                                               9:   BIT SIZE
BLI .M                                               3063:   BOTTOM DEPTH LOGGED
BHIS.                                            RCCCCCCC:   BRIEF HISTORY
FHIS.              RAW-TIGA/COPY/COPY/COPY/COPY/COPY/COPY:   FULL HISTORY
MRT .C                                                 89:   MAX REC TEMP
DFT .                                          SALT SPERS:   MUD TYPE
RMS .                                               0.074:   RM
MST .C                                                 26:   RM TEMP
RMCS.                                               0.144:   RMC
MCST.C                                                 17:   RMC TEMP
RMFS.                                               0.059:   RMF
MFST.C                                                 26:   RMF TEMP
TCS .                                               5 HRS:   TIME SINCE CIRCLN
TLI .M                                               2690:   TOP DEPTH LOGGED
~Curve Information Block
#MNEM.UNIT                                        API CODE    No Description
#=========                                        ========    == ===========
DEPT.M                                       00 001 00 00:     1  DEPTH
LL7.OHMM                                                 :     2  LATEROLOG 7
SP.MV                                                    :     3  Spontaneous potential
~ASCII
# ...
 2946.3492     8.7340   -63.6100
 2946.5016     8.5610   -63.6110
 2946.6540     7.4810   -63.6990
 2946.8064     7.1760   -63.8160
 2946.9588     9.3980   -64.0390
 2947.1112    11.1130   -64.3370
 2947.2636    12.3790   -64.5530
 2947.4160    12.9990   -64.8220
 2947.5684    12.8110   -65.1410
 2947.7208     9.6970   -65.4880
 2947.8732     6.9340   -65.8420
 2948.0256     7.6580   -66.0580
 2948.1780     8.9020   -66.2410
 2948.3304    10.0300   -66.4510
 2948.4828    11.8760   -66.7220
 2948.6352    12.3630   -66.9920
 2948.7876    11.7280   -67.2100
 2948.9400     9.6370   -67.3920
 2949.0924     6.8500   -67.4700
 2949.2448     4.8870   -67.3580
 2949.3972     3.7900   -66.9670
 2949.5496     4.6520   -66.4070
 2949.7020     4.1320   -65.9360
 2949.8544     3.6720   -65.5980
 2950.0068     3.6360   -65.3970
 2950.1592     4.0880   -65.3960
 2950.3116     4.4120   -65.5340
 2950.4640     4.6950   -65.5600
 2950.6164     5.7170   -65.5200
 2950.7688     6.2810   -65.5410
 2950.9212     5.4210   -65.5600
 2951.0736     5.8090   -65.5600
 2951.2260     6.0270   -65.5600
 2951.3784     5.4370   -65.5600
 2951.5308     4.5070   -65.5420
 2951.6832     5.8120   -65.4840
 2951.8356     8.7800   -65.5410
 2951.9880    12.1990   -65.6130
 2952.1404    16.3190   -65.8270
 2952.2928    18.6200   -66.0610
 2952.4452    13.0700   -66.2980
 2952.5976    11.1920   -66.4970
 2952.7500    10.2760   -66.6050
 2952.9024    10.3120   -66.7000
 2953.0548    10.1220   -66.7100
 2953.2072     9.3690   -66.7100
 2953.3596     5.8480   -66.7100
 2953.5120     5.8570   -66.7100
 2953.6644    15.3140   -66.7040
 2953.8168     8.3530   -66.6600
 2953.9692     8.3070   -66.4580
 2954.1216     8.7410   -65.9710
 2954.2740    10.4170   -65.4280
 2954.4264    10.6450   -65.2140
 2954.5788     9.4260   -65.1620
 2954.7312     8.7240   -65.1080
 2954.8836     8.9670   -65.0800
 2955.0360    10.9430   -65.0260
 2955.1884    13.9440   -64.9650
 2955.3408    13.4720   -64.9480
 2955.4932    13.4720   -64.9210
 2955.6456    12.3840   -64.8800
 2955.7980     9.8610   -64.8800
 2955.9504     8.2270   -64.8800
 2956.1028     8.5720   -64.8800
 2956.2552    11.1750   -64.8800
 2956.4076    13.7840   -64.8400
 2956.5600    12.5310   -64.8400
 2956.7124    11.2990   -64.8800
 2956.8648    10.4750   -64.8800
 2957.0172     9.1380   -64.8950
 2957.1696     7.5850   -64.9200
 2957.3220     7.1020   -64.9770
 2957.4744     6.9480   -65.0300
 2957.6268     6.9680   -65.1190
 2957.7792     7.2180   -65.1940
 2957.9316     8.7310   -65.2430
 2958.0840    10.5460   -65.2920
 2958.2364    10.7330   -65.4560
 2958.3888     9.7370   -65.5820
 2958.5412     9.0090   -65.6570
 2958.6936     8.5760   -65.6800
 2958.8460     8.5010   -65.6800
 2958.9984     8.4770   -65.6800
 2959.1508     8.7020   -65.6800
 2959.3032     9.5020   -65.6800
 2959.4556    10.8500   -65.6800
 2959.6080    11.4770   -65.6800
 2959.7604    11.4710   -65.6800
 2959.9128    11.5920   -65.6750
 2960.0652    11.8980   -65.6400
 2960.2176    12.0310   -65.6350
 2960.3700    12.0400   -65.5820
 2960.5224    12.0190   -65.5600
 2960.6748    11.8940   -65.5600
 2960.8272    11.8040   -65.5600
 2960.9796    11.8200   -65.5600
 2961.1320    11.7700   -65.5370
 2961.2844    11.7280   -65.5550
 2961.4368    11.6330   -65.5670
 2961.5892    11.5060   -65.5800
 2961.7416    11.5200   -65.5830
 2961.8940    11.7330   -65.5600
 2962.0464    12.1910   -65.5880
 2962.1988    12.7780   -66.1040
 2962.3512    13.0020   -66.0990
 2962.5036    12.9630   -65.7610
 2962.6560    13.1070   -65.8280
 2962.8084    13.4020   -65.8920
 2962.9608    13.6070   -65.9340
 2963.1132    13.5410   -66.0080
 2963.2656    12.3810   -66.1190
 2963.4180    11.1650   -66.2430
 2963.5704    10.6720   -66.3630
 2963.7228    10.5830   -66.7610
 2963.8752    10.5830   -67.7970
 2964.0276    11.0590   -68.4750
 2964.1800    13.8050   -68.6200
 2964.3324    15.3140   -68.5540
 2964.4848    14.5810   -68.5000
 2964.6372    19.0300   -68.6670
 2964.7896    16.1700   -68.9680
 2964.9420    12.6100   -69.3170
 2965.0944     9.8090   -69.4950
 2965.2468     8.0410   -69.5400
 2965.3992     7.6890   -69.5400
 2965.5516     7.6750   -69.5400
 2965.7040     7.7910   -69.5400
 2965.8564     8.0440   -69.5400
 2966.0088     7.8620   -69.5400
 2966.1612     6.8490   -69.5400
 2966.3136     6.4130   -69.5840
 2966.4660     6.5840   -69.6170
 2966.6184     7.2250   -69.6500
 2966.7708     6.5910   -69.6500
 2966.9232     5.4590   -69.6500
 2967.0756     7.3710   -69.6800
 2967.2280     7.8710   -69.7300
 2967.3804     7.0700   -69.7300
 2967.5328     6.9090   -69.7340
 2967.6852     7.1230   -69.7660
 2967.8376     7.7600   -69.8510
 2967.9900     8.8700   -70.0280
 2968.1424     9.8290   -70.2740
 2968.2948     9.9920   -70.4640
 2968.4472     9.5630   -70.4900
 2968.5996     8.9520   -70.4900
 2968.7520     7.9670   -70.4900
 2968.9044     6.4710   -70.4890
 2969.0568     6.3060   -70.4590
 2969.2092     6.4320   -70.4450
 2969.3616     7.2100   -70.3780
 2969.5140     8.7520   -70.2490
 2969.6664    10.5220   -70.1470
 2969.8188    12.0970   -70.0110
 2969.9712    12.7470   -69.9420
 2970.1236    12.3120   -69.7300
 2970.2760    12.1300   -69.1970
 2970.4284    16.5370   -68.6960
 2970.5808    16.2740   -68.4630
 2970.7332    14.9590   -68.2440
 2970.8856    16.1170   -67.9880
 2971.0380    17.1980   -67.7490
 2971.1904    16.9150   -67.5870
 2971.3428    16.3270   -67.4930
 2971.4952    15.7160   -67.4420
 2971.6476    15.4000   -67.4300
 2971.8000    15.1720   -67.3900
 2971.9524    14.9550   -67.3900
 2972.1048    14.8960   -67.3880
 2972.2572    14.9220   -67.3500
 2972.4096    14.9650   -67.3500
 2972.5620    14.9770   -67.3380
 2972.7144    15.0900   -67.3040
 2972.8668    15.3550   -67.2500
 2973.0192    15.8810   -67.2190
 2973.1716    16.5740   -67.1560
 2973.3240    17.8640   -67.1000
 2973.4764    18.2180   -67.0390
 2973.6288    12.2220   -66.9660
 2973.7812    16.8990   -66.8570
 2973.9336    18.2400   -66.7900
 2974.0860    18.0250   -66.7560
 2974.2384    17.0020   -66.7110
 2974.3908    13.6900   -66.6710
 2974.5432    13.2140   -66.6410
 2974.6956    17.6710   -66.6300
 2974.8480    22.8140   -66.6300
 2975.0004    13.7820   -66.6300
 2975.1528    12.6250   -66.6300
 2975.3052    12.1040   -66.6090
 2975.4576    12.0620   -66.5790
 2975.6100    11.9840   -66.5550
 2975.7624    10.3590   -66.4980
 2975.9148    11.3270   -66.4210
 2976.0672    12.8850   -66.3360
 2976.2196    14.2380   -66.1850
 2976.3720    14.9370   -66.0010
 2976.5244    17.6600   -65.9030
 2976.6768    17.6550   -65.8800
 2976.8292    16.7960   -65.8800
 2976.9816    15.4020   -65.8800
 2977.1340    11.4930   -65.8800
 2977.2864    10.5130   -65.8800
 2977.4388    13.8350   -65.8960
 2977.5912    14.4020   -65.8930
 2977.7436    14.6600   -65.8800
 2977.8960    15.1840   -65.8420
 2978.0484    15.8530   -65.7210
 2978.2008    16.1820   -65.6000
 2978.3532    16.1130   -65.5280
 2978.5056    15.9330   -65.4500
 2978.6580    15.6010   -65.3360
 2978.8104    15.2170   -65.0500
 2978.9628    14.7100   -64.9600
 2979.1152    14.3980   -64.9600
 2979.2676    14.2280   -64.9600
 2979.4200    14.3400   -64.9600
 2979.5724    14.6350   -64.9600
 2979.7248    15.0530   -64.9600
 2979.8772    15.3160   -64.9450
 2980.0296    14.9980   -64.9200
 2980.1820    14.3560   -64.9200
 2980.3344    13.7660   -64.9200
 2980.4868    13.4650   -64.9200
 2980.6392    13.4370   -64.9200
 2980.7916    13.5850   -64.9200
 2980.9440    13.9960   -64.9200
 2981.0964    14.6070   -64.9200
 2981.2488    15.3430   -64.9100
 2981.4012    16.2490   -64.8800
 2981.5536    17.3080   -64.8800
 2981.7060    15.0250   -64.8800
 2981.8584    12.6520   -64.8580
 2982.0108    13.0720   -64.8400
 2982.1632    13.4290   -64.8210
 2982.3156    19.6270   -64.8250
 2982.4680    21.7790   -64.8000
 2982.6204    23.6550   -64.8000
 2982.7728    25.2260   -64.8000
 2982.9252    23.3140   -64.8000
 2983.0776    17.9310   -64.8000
 2983.2300    16.2000   -64.8000
