~VERSION INFORMATION
VERS.                                                 2.0:   CWLS Log ASCII Standard-VERSION 2.0
WRAP.                                                  NO:   One line per depth step
~Well Information Block
STRT.M                                          2684.0688:   Top Depth
STOP.M                                          2930.9568:   Bottom Depth
STEP.M                                             .15240:   Depth Increment
NULL.                                            -999.250:   Null Value
FLD .                                          EEMSKANAAL:   Field Name
WELL.                                       EEMSKANAAL- 1:   NAME
EDF .m                                               5.58:   ELEV DRILL FLOOR
EPD .                                                   0:   ELEV PERM DATUM
EGL .m                                                -.9:   GROUND LEVEL
LMF .                                                  DF:   LOGS MEAS FROM
COMP.                                                 NAM:   OPERATOR
PDAT.                                                 NAP:   PERM DATUM
SPUD.                                          1970/11/08:   SPUD DATE
UWBI.                                      11000074112201:   UWBI
WELL.                                       EEMSKANAAL- 1:   HOLE NAME
~PARAMETER INFORMATION (log)
LNAM.                                RUN 08 RAW OH 9.625":   NAME
LTYP.                                                 08R:   LOG TYPE
LVSN.                                                   1:   LOG VERSION
BS  .5/8"                                               9:   BIT SIZE
BLI .M                                               2950:   BOTTOM DEPTH LOGGED
BHIS.                                              MCCCCC:   BRIEF HISTORY
FHIS.                           MERGE/COPY/COPY/COPY/COPY:   FULL HISTORY
MRT .                                                    :   MAX REC TEMP
DFT .                                          SALT SPERS:   MUD TYPE
RMS .                                               0.074:   RM
MST .C                                                 26:   RM TEMP
RMCS.                                               0.144:   RMC
MCST.C                                                 17:   RMC TEMP
RMFS.                                               0.059:   RMF
MFST.C                                                 26:   RMF TEMP
TCS .                                                 N/A:   TIME SINCE CIRCLN
TLI .M                                             1406.5:   TOP DEPTH LOGGED
~Curve Information Block
#MNEM.UNIT                                        API CODE    No Description
#=========                                        ========    == ===========
DEPT.M                                       00 001 00 00:     1  DEPTH
LL9D.OHMM                                                :     2  Dual Laterolog 9 deep
LL9S.OHMM                                                :     3  Dual Laterolog 9 shallow
MSFL.OHMM                                                :     4  MICRO SPHERICALLY FOCUSSED LOG
~ASCII
# ...
 2767.2792     7.9610     5.6500     1.3170
 2767.4316    10.2550     7.2780     1.1550
 2767.5840    13.4810     9.6350     1.4920
 2767.7364    16.8430    11.3090    10.3830
 2767.8888    17.0350    10.5500    14.2550
 2768.0412    13.4860     8.4160     9.7950
 2768.1936     9.3770     6.1690     6.0220
 2768.3460     6.7350     5.1140     2.4040
 2768.4984     6.1070     4.6690     1.4650
 2768.6508     6.2000     4.7150     1.5440
 2768.8032     6.7300     4.8810     1.5730
 2768.9556     7.1120     5.0230     1.2340
 2769.1080     7.2870     5.1170     1.0750
 2769.2604     7.2830     5.2090      .8690
 2769.4128     7.3480     5.3300      .7850
 2769.5652     7.6200     5.4440      .8110
 2769.7176     8.0030     5.4800     1.0850
 2769.8700     8.3700     5.4950     1.8410
 2770.0224     8.5180     5.4930     2.1800
 2770.1748     8.5060     5.4540     1.5160
 2770.3272     8.4070     5.3940     1.0400
 2770.4796     8.0340     5.2060      .6990
 2770.6320     7.5810     4.8450      .7940
 2770.7844     7.0300     4.6280      .8690
 2770.9368     6.6400     4.5760     1.0570
 2771.0892     6.5860     4.6350     1.1470
 2771.2416     6.6440     4.9460     1.0240
 2771.3940     7.2220     5.2900     1.4530
 2771.5464     7.9250     5.2890     1.7870
 2771.6988     8.0650     5.1660     1.8560
 2771.8512     8.0240     4.9580     2.4620
 2772.0036     7.9930     4.8960     1.2640
 2772.1560     8.3340     5.0670      .9710
 2772.3084     9.2250     5.6280      .8610
 2772.4608     9.5920     5.5540      .9160
 2772.6132     9.2690     5.2800     1.0200
 2772.7656     8.7180     5.0320      .8980
 2772.9180     8.4280     4.8770      .7300
 2773.0704     8.2500     4.8330      .6460
 2773.2228     8.1610     4.8340      .6580
 2773.3752     7.9530     4.7110      .7710
 2773.5276     7.5320     4.4720      .7270
 2773.6800     7.1660     4.2780      .8080
 2773.8324     7.1170     4.2990      .8490
 2773.9848     7.3920     4.6960      .8660
 2774.1372     8.4110     5.3030      .9240
 2774.2896     9.3010     5.4640      .9950
 2774.4420     8.7730     5.0940     1.9210
 2774.5944     6.9640     4.3500     3.2480
 2774.7468     5.2760     3.5940     3.7160
 2774.8992     4.6810     3.2120     1.0630
 2775.0516     4.6590     3.2080      .8930
 2775.2040     4.8250     3.2940      .8810
 2775.3564     5.1840     3.5270      .9390
 2775.5088     5.4390     3.7060     1.1430
 2775.6612     5.5170     3.7270     1.2950
 2775.8136     5.5730     3.7160     1.2180
 2775.9660     5.8710     3.8260     1.3610
 2776.1184     6.6320     4.1290     1.2510
 2776.2708     7.7450     4.7440     1.3700
 2776.4232     8.2160     5.1980     2.1430
 2776.5756     7.8600     4.8010     4.2240
 2776.7280     7.1800     4.4540     1.2650
 2776.8804     6.5770     4.2370     1.7650
 2777.0328     6.1110     4.0120     1.7690
 2777.1852     5.9460     3.9330     1.0380
 2777.3376     6.4400     4.4110      .8960
 2777.4900     7.3020     5.0410      .9640
 2777.6424     7.7510     5.0680     1.0920
 2777.7948     8.1830     5.1550     1.0370
 2777.9472     8.9960     5.7520     2.8120
 2778.0996    10.4050     6.4460     3.2710
 2778.2520    12.9960     8.0030     1.7220
 2778.4044    14.6720     8.7970     2.5480
 2778.5568    13.3760     8.1210     5.3280
 2778.7092     9.1170     6.7080     7.0410
 2778.8616     8.1950     5.8980     4.3590
 2779.0140     8.0700     5.7820     2.4550
 2779.1664     8.2660     5.9190     2.2540
 2779.3188     8.5850     6.1240     2.2860
 2779.4712     9.2960     6.5090     2.6390
 2779.6236    11.5530     7.2750     2.5510
 2779.7760    14.9300     9.7140     2.7490
 2779.9284    18.2440    11.9880     2.9130
 2780.0808    19.4900    12.4670     3.9820
 2780.2332    18.2200    11.6770     4.1150
 2780.3856    15.7180    10.5040     5.0980
 2780.5380    13.4980     9.4200     6.5620
 2780.6904    11.4750     8.1150     4.1370
 2780.8428     9.4690     7.0840     4.3370
 2780.9952     8.3600     6.5820     4.8570
 2781.1476     7.8470     6.2840     3.5140
 2781.3000     7.3490     5.9240     2.4610
 2781.4524     7.0370     5.6310     2.7710
 2781.6048     6.8680     5.5120     2.4080
 2781.7572     6.8110     5.4830     2.4850
 2781.9096     6.9710     5.6480     1.4630
 2782.0620     7.9830     6.1550     2.0770
 2782.2144     8.3840     6.2110     1.9620
 2782.3668     7.9820     5.6480     1.4050
 2782.5192     7.9760     5.5610     1.5100
 2782.6716     8.1920     5.7790     1.0970
 2782.8240     8.8660     6.2200      .8880
 2782.9764     8.6220     6.1240     1.1390
 2783.1288     7.9580     5.3430     1.2850
 2783.2812     7.8810     5.1920     1.3380
 2783.4336     8.0980     5.4250     1.0750
 2783.5860     9.1600     6.2030      .9640
 2783.7384    10.8080     6.9970     1.9320
 2783.8908    11.2320     7.1090     3.0920
 2784.0432    10.8140     6.7300     4.0570
 2784.1956     9.8820     6.2460     2.4060
 2784.3480     9.4360     6.0640     1.8160
 2784.5004     9.3110     6.0170     1.8730
 2784.6528     8.9660     5.7120     1.9160
 2784.8052     8.4280     5.4830     1.5230
 2784.9576     8.4270     5.5230     1.4520
 2785.1100     8.6410     5.7690     1.6310
 2785.2624     9.0150     5.9940     1.3160
 2785.4148     9.1440     6.1150     1.3150
 2785.5672     9.1590     6.1030     1.3610
 2785.7196     9.1940     5.9740     1.7950
 2785.8720     9.3870     5.9180     1.2480
 2786.0244     9.6580     5.9160     1.3110
 2786.1768     9.8770     5.9330     1.0770
 2786.3292     9.9390     5.8860      .9500
 2786.4816     9.6710     5.6450     1.0950
 2786.6340     9.0960     5.3300      .8430
 2786.7864     8.4170     4.9120      .8850
 2786.9388     7.7280     4.2550      .8950
 2787.0912     6.9920     3.6720      .8590
 2787.2436     6.4100     3.5560      .9410
 2787.3960     6.1560     3.5430      .9230
 2787.5484     6.2480     3.5940      .7740
 2787.7008     6.4010     3.6560      .7640
 2787.8532     6.3260     3.5780     1.4240
 2788.0056     5.9470     3.3680     1.4890
 2788.1580     5.1930     2.9660     1.7410
 2788.3104     4.7960     2.7610     2.0400
 2788.4628     4.6910     2.7390     1.2200
 2788.6152     4.6530     2.7190      .8210
 2788.7676     4.5140     2.6400      .7850
 2788.9200     4.2670     2.5270      .7310
 2789.0724     3.9840     2.3830      .7120
 2789.2248     3.8640     2.2510      .6700
 2789.3772     3.9780     2.2320      .6310
 2789.5296     4.3780     2.3390      .6330
 2789.6820     4.9480     2.5190      .7390
 2789.8344     5.3010     2.8100     1.0020
 2789.9868     5.3540     2.9300     1.6090
 2790.1392     5.0080     2.7840     1.7070
 2790.2916     4.5730     2.5840     1.5460
 2790.4440     4.3730     2.5050     1.5380
 2790.5964     4.3630     2.5040      .9020
 2790.7488     4.5530     2.5300      .8590
 2790.9012     4.7640     2.5870      .9270
 2791.0536     4.9550     2.6920     1.1030
 2791.2060     5.0930     2.7790     1.0050
 2791.3584     5.1560     2.8420      .8670
 2791.5108     5.1490     2.8600     1.3850
 2791.6632     5.0310     2.8250     1.2780
 2791.8156     4.8730     2.7390     1.4990
 2791.9680     4.8350     2.7080     1.0760
 2792.1204     5.0120     2.7900     1.0550
 2792.2728     5.3760     2.9830     1.6330
 2792.4252     5.8990     3.1160     1.0830
 2792.5776     6.3450     3.1820     1.3590
 2792.7300     6.6180     3.2060     1.4240
 2792.8824     6.7030     3.2080      .9640
 2793.0348     6.7000     3.1800      .7620
 2793.1872     6.6250     3.0800      .8150
 2793.3396     6.2750     2.9460      .8020
 2793.4920     5.5400     2.7970      .7720
 2793.6444     4.9860     2.6460      .7380
 2793.7968     4.7310     2.5710      .7020
 2793.9492     4.7600     2.5580      .6600
 2794.1016     4.8970     2.5600      .6170
 2794.2540     5.0040     2.5840      .6160
 2794.4064     5.0080     2.5960      .8130
 2794.5588     4.9460     2.5960     1.3000
 2794.7112     4.9670     2.6460      .9230
 2794.8636     5.1900     2.9140      .8990
