~VERSION INFORMATION
VERS.                                                 2.0:   CWLS Log ASCII Standard-VERSION 2.0
WRAP.                                                  NO:   One line per depth step
~Well Information Block
STRT.M                                            10.0584:   Top Depth
STOP.M                                          1400.8608:   Bottom Depth
STEP.M                                             .15240:   Depth Increment
NULL.                                            -999.250:   Null Value
FLD .                                          EEMSKANAAL:   Field Name
WELL.                                       EEMSKANAAL- 1:   NAME
EDF .m                                               5.58:   ELEV DRILL FLOOR
EPD .                                                   0:   ELEV PERM DATUM
EGL .m                                                -.9:   GROUND LEVEL
LMF .                                                  DF:   LOGS MEAS FROM
COMP.                                                 NAM:   OPERATOR
PDAT.                                                 NAP:   PERM DATUM
SPUD.                                          1970/11/08:   SPUD DATE
UWBI.                                      11000074112201:   UWBI
WELL.                                       EEMSKANAAL- 1:   HOLE NAME
~PARAMETER INFORMATION (log)
LNAM.                                RUN 02 RAW OH 14.75":   NAME
LTYP.                                                 02R:   LOG TYPE
LVSN.                                                   1:   LOG VERSION
BS  .3/4"                                              14:   BIT SIZE
BLI .M                                             1402.5:   BOTTOM DEPTH LOGGED
BHIS.                                            RCCCCCCC:   BRIEF HISTORY
FHIS.              RAW-TIGA/COPY/COPY/COPY/COPY/COPY/COPY:   FULL HISTORY
MRT .C                                                 50:   MAX REC TEMP
DFT .                                         CHALK WATER:   MUD TYPE
RMS .                                                1.44:   RM
MST .C                                                 11:   RM TEMP
RMCS.                                                1.93:   RMC
MCST.C                                                 19:   RMC TEMP
RMFS.                                               0.917:   RMF
MFST.C                                                 19:   RMF TEMP
TCS .                                                 N/A:   TIME SINCE CIRCLN
TLI .M                                                 10:   TOP DEPTH LOGGED
~Curve Information Block
#MNEM.UNIT                                        API CODE    No Description
#=========                                        ========    == ===========
DEPT.M                                       00 001 00 00:     1  DEPTH
BCSL.US/F                                                :     2  Interval Transit Time From Borehole Comp
GRIC.GAPI                                                :     3  GAMMA RAY LOG IN CASING
GRS.GAPI                                                 :     4  GAMMA RAY FROM SONIC LOG
~ASCII
# ...
  648.0048   162.6120  -999.2500    50.8070
  648.1572   161.9500  -999.2500    50.0960
  648.3096   163.0740  -999.2500    49.9360
  648.4620   164.6030  -999.2500    50.3270
  648.6144   163.1490  -999.2500    50.9210
  648.7668   162.7500  -999.2500    51.2350
  648.9192   162.2050  -999.2500    50.8270
  649.0716   160.7130  -999.2500    50.0070
  649.2240   159.9750  -999.2500    49.0090
  649.3764   159.6780  -999.2500    47.8550
  649.5288   160.4510  -999.2500    46.8780
  649.6812   162.2870  -999.2500    46.3830
  649.8336   163.3380  -999.2500    46.3250
  649.9860   163.8500  -999.2500    46.5200
  650.1384   163.6730  -999.2500    46.6800
  650.2908   162.6850  -999.2500    47.2900
  650.4432   163.0470  -999.2500    48.7590
  650.5956   163.9900  -999.2500    50.5470
  650.7480   163.4480  -999.2500    51.0060
  650.9004   163.7500  -999.2500    50.2480
  651.0528   163.2470  -999.2500    49.3320
  651.2052   161.4250  -999.2500    48.3920
  651.3576   161.7370  -999.2500    47.8370
  651.5100   161.9220  -999.2500    48.6840
  651.6624   161.9700  -999.2500    49.8650
  651.8148   163.0950  -999.2500    49.1800
  651.9672   163.8480  -999.2500    47.9110
  652.1196   163.7640  -999.2500    47.3010
  652.2720   163.4810  -999.2500    47.5830
  652.4244   162.3040  -999.2500    48.7490
  652.5768   163.1120  -999.2500    49.8100
  652.7292   162.6070  -999.2500    50.7440
  652.8816   164.4460  -999.2500    51.5330
  653.0340   165.3160  -999.2500    52.4680
  653.1864   164.4730  -999.2500    53.0440
  653.3388   164.1890  -999.2500    53.6010
  653.4912   163.9120  -999.2500    54.1310
  653.6436   162.1920  -999.2500    54.6490
  653.7960   161.8130  -999.2500    55.1560
  653.9484   162.1900  -999.2500    55.7870
  654.1008   162.0140  -999.2500    56.3870
  654.2532   162.7020  -999.2500    56.8520
  654.4056   163.2440  -999.2500    57.2200
  654.5580   163.1630  -999.2500    57.3900
  654.7104   162.9120  -999.2500    57.3730
  654.8628   162.4390  -999.2500    56.8950
  655.0152   162.3010  -999.2500    56.0440
  655.1676   161.9980  -999.2500    55.2750
  655.3200   161.8760  -999.2500    54.2340
  655.4724   162.1970  -999.2500    54.4590
  655.6248   162.2630  -999.2500    55.4090
  655.7772   161.7920  -999.2500    55.7730
  655.9296   161.6850  -999.2500    55.7900
  656.0820   161.8750  -999.2500    55.3140
  656.2344   162.3340  -999.2500    54.4590
  656.3868   162.5140  -999.2500    53.7530
  656.5392   163.1080  -999.2500    53.1810
  656.6916   163.2430  -999.2500    52.5090
  656.8440   163.8230  -999.2500    52.1180
  656.9964   164.9110  -999.2500    51.9800
  657.1488   164.6650  -999.2500    51.7590
  657.3012   164.9290  -999.2500    51.6900
  657.4536   164.6310  -999.2500    51.8070
  657.6060   164.3460  -999.2500    51.8610
  657.7584   165.1130  -999.2500    51.5970
  657.9108   164.9400  -999.2500    50.8850
  658.0632   165.4490  -999.2500    49.8370
  658.2156   165.6140  -999.2500    48.4990
  658.3680   164.8520  -999.2500    48.1270
  658.5204   163.2470  -999.2500    49.5280
  658.6728   159.2660  -999.2500    50.5040
  658.8252   156.6010  -999.2500    51.0870
  658.9776   157.5240  -999.2500    51.1050
  659.1300   160.6750  -999.2500    50.4220
  659.2824   162.9510  -999.2500    49.7890
  659.4348   165.1390  -999.2500    49.3500
  659.5872   166.7560  -999.2500    49.3080
  659.7396   167.2270  -999.2500    50.6600
  659.8920   166.7200  -999.2500    52.0030
  660.0444   166.5510  -999.2500    53.0750
  660.1968   166.4950  -999.2500    53.7220
  660.3492   165.0690  -999.2500    53.0360
  660.5016   164.2170  -999.2500    52.0980
  660.6540   164.3950  -999.2500    51.2470
  660.8064   163.9910  -999.2500    51.4220
  660.9588   166.0710  -999.2500    52.2700
  661.1112   168.1570  -999.2500    52.9990
  661.2636   165.6300  -999.2500    53.2550
  661.4160   164.3340  -999.2500    52.8030
  661.5684   164.9290  -999.2500    51.7790
  661.7208   165.8650  -999.2500    50.5660
  661.8732   164.7350  -999.2500    49.4240
  662.0256   163.6140  -999.2500    49.2010
  662.1780   164.1860  -999.2500    49.5940
  662.3304   163.1700  -999.2500    50.2330
  662.4828   162.9270  -999.2500    50.7910
  662.6352   162.8410  -999.2500    51.5240
  662.7876   162.4970  -999.2500    52.3090
  662.9400   161.9920  -999.2500    51.2340
  663.0924   162.5550  -999.2500    50.0580
  663.2448   162.7090  -999.2500    49.4860
  663.3972   162.8530  -999.2500    50.6650
  663.5496   162.1620  -999.2500    52.7290
  663.7020   162.0770  -999.2500    54.2320
  663.8544   161.8070  -999.2500    55.9840
  664.0068   160.9750  -999.2500    57.8730
  664.1592   160.3910  -999.2500    59.5180
  664.3116   159.6210  -999.2500    60.7060
  664.4640   160.0810  -999.2500    61.7320
  664.6164   159.4900  -999.2500    62.7240
  664.7688   158.1200  -999.2500    63.1910
  664.9212   157.2680  -999.2500    62.2020
  665.0736   156.8950  -999.2500    61.7410
  665.2260   157.4920  -999.2500    60.9600
  665.3784   160.1220  -999.2500    58.6660
  665.5308   164.0750  -999.2500    57.6680
  665.6832   165.6260  -999.2500    57.3500
  665.8356   164.8020  -999.2500    57.6040
  665.9880   162.9960  -999.2500    56.9470
  666.1404   162.5290  -999.2500    54.9660
  666.2928   162.1630  -999.2500    53.1850
  666.4452   161.6840  -999.2500    52.8870
  666.5976   161.1740  -999.2500    53.4050
  666.7500   161.1750  -999.2500    54.1120
  666.9024   160.2280  -999.2500    55.0130
  667.0548   159.6230  -999.2500    55.3430
  667.2072   159.3980  -999.2500    55.0840
  667.3596   157.9850  -999.2500    54.1880
  667.5120   157.1480  -999.2500    53.1700
  667.6644   157.2410  -999.2500    52.3280
  667.8168   156.8290  -999.2500    51.5200
  667.9692   157.0820  -999.2500    51.2700
  668.1216   158.1010  -999.2500    51.6860
  668.2740   158.4640  -999.2500    53.2030
  668.4264   159.3780  -999.2500    55.9170
  668.5788   159.9790  -999.2500    59.1590
  668.7312   159.7860  -999.2500    61.7660
  668.8836   159.9500  -999.2500    61.6720
  669.0360   160.4540  -999.2500    58.7580
  669.1884   160.9840  -999.2500    56.7690
  669.3408   160.1380  -999.2500    56.0140
  669.4932   159.4710  -999.2500    55.5400
  669.6456   159.4760  -999.2500    54.9250
  669.7980   160.2890  -999.2500    53.9830
  669.9504   160.7550  -999.2500    53.9430
  670.1028   160.9750  -999.2500    55.7350
  670.2552   160.9400  -999.2500    55.9710
  670.4076   160.6190  -999.2500    55.9040
  670.5600   160.6820  -999.2500    56.5650
  670.7124   160.5000  -999.2500    57.6180
  670.8648   160.6990  -999.2500    58.5410
  671.0172   161.0770  -999.2500    59.9360
  671.1696   161.7060  -999.2500    60.6010
  671.3220   161.9590  -999.2500    59.9400
  671.4744   161.4930  -999.2500    58.6140
  671.6268   160.7920  -999.2500    57.7090
  671.7792   159.8440  -999.2500    57.3280
  671.9316   159.3580  -999.2500    57.0810
  672.0840   158.7990  -999.2500    56.3690
  672.2364   158.5040  -999.2500    55.4260
  672.3888   158.1250  -999.2500    53.9560
  672.5412   157.8330  -999.2500    52.6040
  672.6936   159.6590  -999.2500    52.0070
  672.8460   162.8220  -999.2500    51.9780
  672.9984   163.5630  -999.2500    52.3600
  673.1508   164.0670  -999.2500    53.4240
  673.3032   164.3420  -999.2500    54.4450
  673.4556   164.0100  -999.2500    55.3840
  673.6080   162.3020  -999.2500    57.2740
  673.7604   160.6850  -999.2500    58.4300
  673.9128   160.6520  -999.2500    58.6350
  674.0652   158.5240  -999.2500    58.5300
  674.2176   158.8730  -999.2500    58.4590
  674.3700   159.9750  -999.2500    58.2420
  674.5224   160.3970  -999.2500    57.6500
  674.6748   162.0420  -999.2500    58.0930
  674.8272   163.2200  -999.2500    59.6620
  674.9796   163.9050  -999.2500    61.2540
  675.1320   164.2720  -999.2500    61.1150
  675.2844   163.5700  -999.2500    59.8250
  675.4368   163.2200  -999.2500    58.8370
  675.5892   161.2420  -999.2500    58.0200
