~VERSION INFORMATION
VERS.                                                 2.0:   CWLS Log ASCII Standard-VERSION 2.0
WRAP.                                                  NO:   One line per depth step
~Well Information Block
STRT.M                                          1407.1092:   Top Depth
STOP.M                                          3062.9352:   Bottom Depth
STEP.M                                             .15240:   Depth Increment
NULL.                                            -999.250:   Null Value
FLD .                                          EEMSKANAAL:   Field Name
WELL.                                       EEMSKANAAL- 1:   NAME
EDF .m                                               5.58:   ELEV DRILL FLOOR
EPD .                                                   0:   ELEV PERM DATUM
EGL .m                                                -.9:   GROUND LEVEL
LMF .                                                  DF:   LOGS MEAS FROM
COMP.                                                 NAM:   OPERATOR
PDAT.                                                 NAP:   PERM DATUM
SPUD.                                          1970/11/08:   SPUD DATE
UWBI.                                      11000074112201:   UWBI
WELL.                                       EEMSKANAAL- 1:   HOLE NAME
~PARAMETER INFORMATION (log)
LNAM.                                RUN 03 RAW OH 9.625":   NAME
LTYP.                                                 03R:   LOG TYPE
LVSN.                                                   1:   LOG VERSION
BS  .5/8"                                               9:   BIT SIZE
BLI .M                                               3064:   BOTTOM DEPTH LOGGED
BHIS.                                            RCCCCCCC:   BRIEF HISTORY
FHIS.              RAW-TIGA/COPY/COPY/COPY/COPY/COPY/COPY:   FULL HISTORY
MRT .C                                                 98:   MAX REC TEMP
DFT .                                          SALT SPERS:   MUD TYPE
RMS .                                                    :   RM
MST .                                                    :   RM TEMP
RMCS.                                                    :   RMC
MCST.                                                    :   RMC TEMP
RMFS.                                                    :   RMF
MFST.                                                    :   RMF TEMP
TCS .                                               4 HRS:   TIME SINCE CIRCLN
TLI .M                                               1407:   TOP DEPTH LOGGED
~Curve Information Block
#MNEM.UNIT                                        API CODE    No Description
#=========                                        ========    == ===========
DEPT.M                                       00 001 00 00:     1  DEPTH
CALF.IN                                                  :     2  CALIPER FROM FORMATION DENSITY LOG
FDC.g/c3                                                 :     3  Formation Density Log (Compensated Open
GR.GAPI                                                  :     4  Gamma Ray
~ASCII
# ...
 1961.8452    10.6450     1.8590    80.9150
 1961.9976    10.6520     1.8700    85.8210
 1962.1500    10.6580     1.8470    90.6900
 1962.3024    10.7650     1.7820    96.1890
 1962.4548    10.8610     1.7320    96.5600
 1962.6072    10.8920     1.7170    92.2900
 1962.7596    10.9080     1.7180    89.4250
 1962.9120    10.9170     1.7390    89.5170
 1963.0644    10.9240     1.7550    85.8990
 1963.2168    10.9380     1.7680    76.8890
 1963.3692    10.9510     1.7820    71.8770
 1963.5216    10.9530     1.7960    68.9730
 1963.6740    10.9560     1.8050    67.4500
 1963.8264    10.9510     1.8130    72.7430
 1963.9788    10.9010     1.8060    75.7350
 1964.1312    10.8450     1.7870    78.9440
 1964.2836    10.8210     1.7640    81.7430
 1964.4360    10.8220     1.7420    84.1780
 1964.5884    10.8250     1.7430    86.2860
 1964.7408    10.8100     1.7490    85.6360
 1964.8932    10.7530     1.7510    84.5890
 1965.0456    10.6600     1.7640    84.2390
 1965.1980    10.6130     1.7650    82.7920
 1965.3504    10.6130     1.7630    82.6500
 1965.5028    10.6130     1.7700    81.0340
 1965.6552    10.5960     1.7650    79.0170
 1965.8076    10.5370     1.7610    79.2960
 1965.9600    10.4550     1.7690    75.6780
 1966.1124    10.4310     1.7750    69.5280
 1966.2648    10.4170     1.7800    64.8860
 1966.4172    10.3930     1.7940    64.5590
 1966.5696    10.3500     1.8100    65.0290
 1966.7220    10.2840     1.8290    66.8530
 1966.8744    10.2280     1.8370    64.0330
 1967.0268    10.1900     1.8460    56.3810
 1967.1792    10.1690     1.8670    45.1380
 1967.3316    10.1770     1.8910    38.9660
 1967.4840    10.2040     1.9320    30.7860
 1967.6364    10.2550     2.0100    23.5800
 1967.7888    10.3240     2.0450    19.5180
 1967.9412    10.3650     2.0160    20.5370
 1968.0936    10.3840     2.0120    22.8770
 1968.2460    10.3840     1.9980    24.0910
 1968.3984    10.3800     1.9980    23.0300
 1968.5508    10.3820     2.0100    19.7860
 1968.7032    10.3840     2.0280    19.3250
 1968.8556    10.3800     2.0470    17.7190
 1969.0080    10.3840     2.0600    15.9810
 1969.1604    10.3850     2.0510    16.0500
 1969.3128    10.4160     2.0440    15.6750
 1969.4652    10.4870     2.0430    14.7250
 1969.6176    10.6240     2.0430    13.5840
 1969.7700    10.7560     2.0600    12.7290
 1969.9224    10.8120     2.0560    11.6520
 1970.0748    10.8310     2.0570    10.0070
 1970.2272    10.8470     2.0570     8.8460
 1970.3796    10.8630     2.0620     8.2120
 1970.5320    10.8810     2.0690     8.1470
 1970.6844    10.9070     2.0700     8.3610
 1970.8368    10.9200     2.0650    10.0830
 1970.9892    10.9360     2.0640    11.5630
 1971.1416    10.9220     2.0640    13.4150
 1971.2940    10.7890     2.0630    17.0330
 1971.4464    10.5600     2.0580    29.8450
 1971.5988    10.3170     2.0730    41.5740
 1971.7512    10.2990     2.0810    59.5890
 1971.9036    10.4910     2.0780    78.4850
 1972.0560    10.5500     2.0530    74.1680
 1972.2084    10.6530     2.0460    64.9460
 1972.3608    10.8250     2.0500    66.7240
 1972.5132    10.7760     2.0640    76.4370
 1972.6656    10.6960     2.0980    79.0170
 1972.8180    10.8570     2.0940    73.2860
 1972.9704    11.0020     2.0450    57.1560
 1973.1228    11.0280     2.0010    41.0130
 1973.2752    11.1270     2.0100    39.5660
 1973.4276    11.3050     2.0120    48.9290
 1973.5800    11.2900     2.0340    62.8080
 1973.7324    11.1910     2.0440    76.3290
 1973.8848    11.0230     2.1050    89.9800
 1974.0372    10.9120     2.1580   100.4050
 1974.1896    10.7890     2.1720   102.9680
 1974.3420    10.5280     2.1440    99.6970
 1974.4944    10.3220     2.0800    94.1830
 1974.6468    10.2710     2.0550    88.8040
 1974.7992    10.6360     2.0490    79.5750
 1974.9516    10.9970     1.9920    66.0200
 1975.1040    11.2290     1.9240    61.0130
 1975.2564    11.2850     1.8910    58.2670
 1975.4088    11.2850     1.8820    61.6230
 1975.5612    11.2940     1.8260    65.1010
 1975.7136    11.3310     1.7900    63.9930
 1975.8660    11.3350     1.7880    63.6310
 1976.0184    11.2860     1.8020    66.6420
 1976.1708    11.2480     1.8210    69.3970
 1976.3232    11.2010     1.8470    66.6630
 1976.4756    11.1600     1.8720    58.9130
 1976.6280    11.1650     1.8860    50.7210
 1976.7804    11.1870     1.9100    41.2820
 1976.9328    11.1660     1.9800    27.8390
 1977.0852    11.0990     2.0210    24.0640
 1977.2376    11.0690     2.0180    21.8490
 1977.3900    11.0730     2.0180    20.5720
 1977.5424    11.0990     2.0060    20.6500
 1977.6948    11.1080     2.0000    21.7660
 1977.8472    11.1150     1.9950    21.1780
 1977.9996    11.1170     2.0140    18.8760
 1978.1520    11.1170     2.0300    15.8290
 1978.3044    11.1170     2.0260    14.0970
 1978.4568    11.1160     2.0250    14.0400
 1978.6092    11.1140     2.0320    14.0450
 1978.7616    11.1440     2.0470    14.1920
 1978.9140    11.2380     2.0440    14.8230
 1979.0664    11.2510     2.0160    15.8280
 1979.2188    11.2540     1.9960    17.1850
 1979.3712    11.2470     1.9960    18.6340
 1979.5236    11.1860     1.9580    20.0550
 1979.6760    11.0790     1.9490    20.5930
 1979.8284    11.1140     1.9720    20.0980
 1979.9808    11.1390     1.9850    18.1990
 1980.1332    11.0200     2.0150    17.5860
 1980.2856    10.8950     2.0220    16.5500
 1980.4380    11.0820     2.0360    14.3680
 1980.5904    11.1050     2.0410    11.6020
 1980.7428    11.0780     2.0330     9.3420
 1980.8952    11.0330     2.0360     8.4610
 1981.0476    10.9880     2.0350     8.7780
 1981.2000    11.0110     2.0420     9.4800
 1981.3524    11.0070     2.0410     9.8460
 1981.5048    11.0230     2.0180     9.9490
 1981.6572    11.0120     2.0230     9.5120
 1981.8096    10.9420     2.0330     8.6700
 1981.9620    10.9050     2.0450     7.7880
 1982.1144    10.8970     2.0570     9.0150
 1982.2668    10.8970     2.0590     9.6460
 1982.4192    10.8970     2.0670     9.9950
 1982.5716    10.9000     2.0700    10.4190
 1982.7240    10.9380     2.0520    10.5460
 1982.8764    11.0500     2.0470    10.7750
 1983.0288    11.0620     2.0370    12.3610
 1983.1812    11.1290     2.0320    14.3880
 1983.3336    11.1620     2.0180    16.2530
 1983.4860    10.9780     2.0120    17.3800
 1983.6384    10.9350     2.0090    15.7020
 1983.7908    10.9290     2.0160    13.1080
 1983.9432    10.9220     2.0340    11.1820
 1984.0956    10.9210     2.0510    11.5780
 1984.2480    10.9210     2.0570    12.2620
 1984.4004    10.9210     2.0650     9.8970
 1984.5528    10.9210     2.0660     9.5250
 1984.7052    10.9210     2.0620     9.6340
 1984.8576    10.9230     2.0700     8.4820
 1985.0100    10.9250     2.0670     7.3210
 1985.1624    10.9290     2.0490     7.5500
 1985.3148    10.9440     2.0480     8.2310
 1985.4672    10.9590     2.0390    10.0630
 1985.6196    10.9600     2.0280    12.7290
 1985.7720    10.9200     2.0290    15.2530
 1985.9244    10.8390     2.0110    19.8760
 1986.0768    10.7170     1.9920    26.4450
 1986.2292    10.5540     1.9730    31.7340
 1986.3816    10.5870     1.9950    26.7110
 1986.5340    10.8990     2.0230    19.1450
 1986.6864    11.1770     2.0400    13.7640
 1986.8388    11.3510     2.0430    10.1530
 1986.9912    11.4110     2.0440     9.9050
 1987.1436    11.4250     2.0380    10.1160
 1987.2960    11.4250     2.0380    12.0510
 1987.4484    11.3650     2.0440    13.2360
 1987.6008    10.9760     2.0200    13.8770
 1987.7532    11.1660     2.0240    13.7930
 1987.9056    11.4110     2.0310    12.8030
 1988.0580    11.3660     2.0320    12.3340
 1988.2104    11.3350     2.0270    13.7630
 1988.3628    11.2900     2.0210    15.2320
 1988.5152    11.1920     2.0280    16.3460
 1988.6676    11.2190     2.0420    14.2920
 1988.8200    11.2830     2.0540    13.0830
 1988.9724    11.2730     2.0510    13.3510
 1989.1248    11.2730     2.0560    13.2600
 1989.2772    11.2710     2.0660    13.0630
 1989.4296    11.2670     2.0650    12.1420
