~VERSION INFORMATION
VERS.                                                 2.0:   CWLS Log ASCII Standard-VERSION 2.0
WRAP.                                                  NO:   One line per depth step
~Well Information Block
STRT.M                                           836.5236:   Top Depth
STOP.M                                          2800.0452:   Bottom Depth
STEP.M                                             .15240:   Depth Increment
NULL.                                            -999.250:   Null Value
FLD .                                          EEMSKANAAL:   Field Name
WELL.                                       EEMSKANAAL- 2:   NAME
APD .M                                               5.62:   ABOVE PERM DATUM
CTRY.                                                  NE:   COUNTRY
EDF .m                                               5.62:   ELEV DRILL FLOOR
EPD .                                                   0:   ELEV PERM DATUM
EGL .m                                              -1.06:   GROUND LEVEL
LMF .                                                  DF:   LOGS MEAS FROM
COMP.                                                 NAM:   OPERATOR
PDAT.                                                 NAP:   PERM DATUM
SPUD.                                          1971/03/17:   SPUD DATE
STAT.                                           Unknown m:   STATE
UWBI.                                      11000074112601:   UWBI
WELL.                                       EEMSKANAAL- 2:   HOLE NAME
~PARAMETER INFORMATION (log)
LNAM.                              RUN 04 RAW CH OCT 2002:   NAME
LTYP.                                                 04R:   LOG TYPE
LVSN.                                                   1:   LOG VERSION
BHT .DEGC                                             101:   BH TEMP
BS  .IN                                             9.625:   BIT SIZE
BHS .                                                CASE:   BOREHOLE STATUS
BLI .M                                               2800:   BOTTOM DEPTH LOGGED
BHIS.                                                  RC:   BRIEF HISTORY
CS  .IN                                             7.625:   CASING SIZE
CSW .LB/F                                            52.3:   CASING WEIGHT
R1  .                                 Log correlated with:   COMMENT  1
R2  .       Compensated formation density log 1-April-197:   COMMENT  2
R4  .          Weight expendable tubing 18.6 lbs per foot:   COMMENT  4
R5  .              Weight 7 5/8" casing 33.7 lbs per foot:   COMMENT  5
R7  .                                      Set CSID 5.98":   COMMENT  7
R8  .                   Set CWEI 33.7 + 18.6  =  52.3 LBS:   COMMENT  8
R9  .                                    Set CSIZ 7.625 ":   COMMENT  9
DMF .                                                 ORT:   DRILL MEAS FROM
EDF .M                                               5.62:   ELEV DRILL FLOOR
ELZ .                                              5.62 M:   ELEVATION LOG ZERO
ENGI.                                         M. Riedeman:   ENGINEER
FHIS.                                            RAW-DLIS:   FULL HISTORY
HIDE.                                               RST-C:   HEADER ID
LCNM.                                        Schlumberger:   LOGGING CONTRACTOR
LMF .                                                 ORT:   LOGS MEAS FROM
MATR.                                                LIME:   MATRIX
MRT .DEGC                                             101:   MAX REC TEMP
DFT .                                                 gas:   MUD TYPE
CN  .                                                 NAM:   OPERATOR
RUN .                                                   1:   RUN
DATE.                                          2002/10/25:   RUN DATE
RW  .OHMM                                               1:   RW
STEM.DEGC                                              18:   SURFACE TEMPERATURE
TLAB.                                                1100:   TIME LOGGER ON BOT
TLI .M                                                840:   TOP DEPTH LOGGED
WITN.                           P van der Zee & S. Yntema:   WITNESS
~Curve Information Block
#MNEM.UNIT                                        API CODE    No Description
#=========                                        ========    == ===========
DEPT.M                                       00 001 00 00:     1  DEPTH
AIRB.                                                    :     2  RST Air Borehole Diagnostic
CIRF.                                                    :     3  RST Capture to Inelastic Ratio Far
CIRN.                                                    :     4  RST Capture to Inelastic Ratio Near
FBAC.CPS                                                 :     5  Far Background Count Rate
GR.API                                                   :     6  Gamma Ray
IRAT.                                                    :     7  RST Inelastic Ratio
NBAC.CPS                                                 :     8  Near Background Count Rate
SBNA.CU                                                  :     9  RST Sigma Borehole Near Apparent
SFNA.CU                                                  :    10  RST Sigma Formation Near Apparent
SIGM.CU                                                  :    11  Formation Sigma (Neutron Capture Cross S
TPHI.FRAC                                                :    12  Thermal Decay Porosity
~ASCII
# ...
 2788.7676     1.0000      .7609      .3323  3241.0510    68.3627      .7297  1824.7472    74.4767    30.0459    35.3310      .2343
 2788.9200     1.0000      .8182      .3487  3238.3774    66.5555      .7278  1819.3995    70.7052    30.1236    33.2457      .2032
 2789.0724     1.0000      .8520      .3596  3235.7039    64.6052      .7311  1825.9460    75.7647    27.7789    31.7714      .1838
 2789.2248     1.0000      .8079      .3190  3250.1423    62.8078      .7350  1848.4059    73.6078    30.9906    31.8184      .1695
 2789.3772     1.0000      .8057      .3491  3230.7654    63.1241      .7391  1832.8981    71.4401    29.6329    32.1148      .1833
 2789.5296     1.0000      .8787      .3714  3261.7812    62.5042      .7416  1817.5184    69.8943    29.3173    32.8144      .2039
 2789.6820     1.0000      .8148      .3484  3253.2251    64.9690      .7334  1850.1387    70.0861    30.4456    34.0743      .2192
 2789.8344     1.0000      .6856      .3062  3291.0674    69.3397      .7214  1854.4169    80.3720    33.2746    37.0797      .2575
 2789.9868     1.0000      .5115      .2251  3273.7031    75.7814      .7143  1873.6683    77.3854    39.2610    40.3048      .3015
 2790.1392     1.0000      .4911      .2436  3282.2593    79.6265      .7162  1893.9890    72.9618    40.8899    42.1002      .3357
 2790.2916     1.0000      .5838      .2616  3249.6384    78.6472      .7277  1895.0582    74.5168    35.7105    41.3591      .3170
 2790.4440     1.0000      .7075      .3206  3241.0823    72.8270      .7362  1895.4641    73.2236    33.6990    38.5046      .2661
 2790.5964     1.0000      .9461      .4176  3250.7078    66.7103      .7418  1910.4375    74.8282    27.5554    35.5810      .2340
 2790.7488     1.0000     1.0236      .4576  3260.2080    63.4917      .7424  1908.2987    70.9349    26.0636    34.5457      .2263
 2790.9012     1.0000      .8385      .3884  3274.6467    69.0699      .7322  1909.3679    76.4061    27.5195    36.1449      .2598
 2791.0536     1.0000      .5852      .2644  3276.9111    75.0213      .7204  1929.1539    72.5623    37.6071    40.8075      .3052
 2791.2060     1.0000      .4174      .1964  3258.0693    82.5498      .7078  1924.3411    76.3107    45.4569    45.0129      .3783
 2791.3584     1.0000      .4592      .2079  3257.4092    83.2233      .7124  1902.9508    69.0050    43.9784    46.3113      .3969
 2791.5108     1.0000      .5926      .3064  3245.2346    88.6480      .7194  1906.1594    77.8861    34.2205    43.7490      .3969
 2791.6632     1.0000      .8203      .4025  3267.4124    88.0295      .7205  1902.9510    71.3053    31.1770    41.7591      .3586
 2791.8156     1.0000      .7612      .3449  3258.3213    91.0779      .7180  1889.0472    69.5382    31.9821    42.5627      .3273
 2791.9680     1.0000      .5876      .2570  3272.8857    95.0989      .7194  1877.9458    78.3212    36.6260    45.5902      .3008
 2792.1204     1.0000      .5754      .2542  3264.8643   103.2301      .7194  1891.8500    77.7838    38.3982    46.7428      .2783
 2792.2728     1.0000      .6274      .2766  3258.9819   103.2301      .7193  1878.3519    79.1581    34.9136    46.4815      .2975
 2792.4252     1.0000      .6535      .2960  3255.7734   103.2301      .7219  1884.2343    70.6034    34.5239    44.8624      .3021
 2792.5776     1.0000      .6187      .2997  3227.9658   103.2301      .7216  1895.9991    77.2143    34.0227    45.5024      .3247
 2792.7300     1.0000      .5988      .2701  3233.5811   103.2301      .7231  1894.9296    76.8453    35.9957    47.2182      .3354
 2792.8824     1.0000      .5277      .2510  3273.2788   103.2301      .7135  1882.7637    75.3130    40.0945    50.0469      .3753
 2793.0348     1.0000      .4904      .2363  3272.3345   103.2301      .7145  1862.4429    75.3071    44.3024    51.9053      .4103
 2793.1872     1.0000      .4458      .2207  3263.2437   103.2301      .7102  1831.9614    76.0245    41.9636    53.5857      .4444
 2793.3396     1.0000      .4421      .2182  3260.5696   103.2301      .7087  1821.2664    73.5992    43.9271    54.6411      .4558
 2793.4920     1.0000      .4575      .2262  3295.2039   103.2301      .7097  1803.6193    79.6090    43.2458    54.0317      .4643
 2793.6444     1.0000      .4565      .2392  3290.9260   103.2301      .7097  1784.9027    78.5070    41.5945    53.8701      .4731
 2793.7968     1.0000      .4551      .2433  3313.9209   103.2301      .7082  1795.7264    74.2340    39.1591    53.7873      .4859
 2793.9492     1.0000      .4303      .2281  3346.5413   103.2301      .7016  1796.3903    75.2630    44.6089    55.4066      .4954
 2794.1016     1.0000      .4054      .2122  3366.4529   103.2301      .6946  1803.8770    78.7261    45.8270    56.6108      .5026
 2794.2540     1.0000      .3903      .2101  3377.1477   103.2301      .6972  1794.2515    71.3395    44.1117    57.4862      .5063
 2794.4064     1.0000      .3887      .2143  3379.5540   103.2301      .6984  1780.3477    75.3424    45.8302    57.6526      .5043
 2794.5588     1.0000      .4084      .2156  3339.9819   103.2301      .6968  1794.6523    80.9002    42.1984    56.6053      .5005
 2794.7112     1.0000      .4169      .2112  3334.6345   103.2301      .6986  1824.5989    72.7390    46.2619    55.9165      .4986
 2794.8636     1.0000      .4057      .2233  3357.5039   103.2301      .6996  1854.5454    69.1295    45.0493    55.2125      .4951
 2795.0160     1.0000      .4203      .2089  3358.0173   103.2301      .7128  1882.8876    74.7862    45.9286    54.2759      .4674
 2795.1684     1.0000      .4819      .2440  3374.5937   103.2301      .7134  1932.6797    77.8607    40.6691    51.9487      .4362
 2795.3208     1.0000      .6178      .2973  3332.6667   103.2301      .7140  1927.7312    71.4659    34.2719    48.9117      .3998
 2795.4732     1.0000      .6461      .3127  3309.3464   103.2301      .7107  1925.8824    74.6672    34.1929    47.6358      .3873
 2795.6256     1.0000      .5792      .2786  3557.4512   103.2301      .7152  2015.6862    78.6208    37.2899    50.3055      .4264
 2795.7780     1.0000      .5085      .2413  4170.2529   103.2301      .5681  2158.8235    83.5890    39.2715    52.5616      .4777
 2795.9304     1.0000      .5290      .2549  3795.5981   103.2301      .5666  2826.3359    78.7860    38.4288    56.2599      .5251
 2796.0828     1.0000  -999.2500  -999.2500  -999.2500   103.2301  -999.2500  -999.2500  -999.2500  -999.2500    56.1824      .5263
 2796.2352     1.0000  -999.2500  -999.2500  -999.2500   103.2301  -999.2500  -999.2500  -999.2500  -999.2500  -999.2500  -999.2500
 2796.3876  -999.2500  -999.2500  -999.2500  -999.2500   103.2301  -999.2500  -999.2500  -999.2500  -999.2500  -999.2500  -999.2500
 2796.5400  -999.2500  -999.2500  -999.2500  -999.2500   103.2301  -999.2500  -999.2500  -999.2500  -999.2500  -999.2500  -999.2500
 2796.6924  -999.2500  -999.2500  -999.2500  -999.2500   103.2301  -999.2500  -999.2500  -999.2500  -999.2500  -999.2500  -999.2500
 2796.8448  -999.2500  -999.2500  -999.2500  -999.2500   103.2301  -999.2500  -999.2500  -999.2500  -999.2500  -999.2500  -999.2500
 2796.9972  -999.2500  -999.2500  -999.2500  -999.2500   103.2301  -999.2500  -999.2500  -999.2500  -999.2500  -999.2500  -999.2500
 2797.1496  -999.2500  -999.2500  -999.2500  -999.2500   103.2301  -999.2500  -999.2500  -999.2500  -999.2500  -999.2500  -999.2500
 2797.3020  -999.2500  -999.2500  -999.2500  -999.2500   103.2301  -999.2500  -999.2500  -999.2500  -999.2500  -999.2500  -999.2500
 2797.4544  -999.2500  -999.2500  -999.2500  -999.2500   103.2301  -999.2500  -999.2500  -999.2500  -999.2500  -999.2500  -999.2500
 2797.6068  -999.2500  -999.2500  -999.2500  -999.2500   103.2301  -999.2500  -999.2500  -999.2500  -999.2500  -999.2500  -999.2500
 2797.7592  -999.2500  -999.2500  -999.2500  -999.2500   103.2301  -999.2500  -999.2500  -999.2500  -999.2500  -999.2500  -999.2500
 2797.9116  -999.2500  -999.2500  -999.2500  -999.2500   103.2301  -999.2500  -999.2500  -999.2500  -999.2500  -999.2500  -999.2500
