~VERSION INFORMATION
VERS.                                                 2.0:   CWLS Log ASCII Standard-VERSION 2.0
WRAP.                                                  NO:   One line per depth step
~Well Information Block
STRT.M                                            10.0584:   Top Depth
STOP.M                                          1400.8608:   Bottom Depth
STEP.M                                             .15240:   Depth Increment
NULL.                                            -999.250:   Null Value
FLD .                                          EEMSKANAAL:   Field Name
WELL.                                       EEMSKANAAL- 1:   NAME
EDF .m                                               5.58:   ELEV DRILL FLOOR
EPD .                                                   0:   ELEV PERM DATUM
EGL .m                                                -.9:   GROUND LEVEL
LMF .                                                  DF:   LOGS MEAS FROM
COMP.                                                 NAM:   OPERATOR
PDAT.                                                 NAP:   PERM DATUM
SPUD.                                          1970/11/08:   SPUD DATE
UWBI.                                      11000074112201:   UWBI
WELL.                                       EEMSKANAAL- 1:   HOLE NAME
~PARAMETER INFORMATION (log)
LNAM.                                RUN 02 RAW OH 14.75":   NAME
LTYP.                                                 02R:   LOG TYPE
LVSN.                                                   1:   LOG VERSION
BS  .3/4"                                              14:   BIT SIZE
BLI .M                                             1402.5:   BOTTOM DEPTH LOGGED
BHIS.                                            RCCCCCCC:   BRIEF HISTORY
FHIS.              RAW-TIGA/COPY/COPY/COPY/COPY/COPY/COPY:   FULL HISTORY
MRT .C                                                 50:   MAX REC TEMP
DFT .                                         CHALK WATER:   MUD TYPE
RMS .                                                1.44:   RM
MST .C                                                 11:   RM TEMP
RMCS.                                                1.93:   RMC
MCST.C                                                 19:   RMC TEMP
RMFS.                                               0.917:   RMF
MFST.C                                                 19:   RMF TEMP
TCS .                                                 N/A:   TIME SINCE CIRCLN
TLI .M                                                 10:   TOP DEPTH LOGGED
~Curve Information Block
#MNEM.UNIT                                        API CODE    No Description
#=========                                        ========    == ===========
DEPT.M                                       00 001 00 00:     1  DEPTH
BCSL.US/F                                                :     2  Interval Transit Time From Borehole Comp
GRIC.GAPI                                                :     3  GAMMA RAY LOG IN CASING
GRS.GAPI                                                 :     4  GAMMA RAY FROM SONIC LOG
~ASCII
# ...
  398.3736  -999.2500    20.6450  -999.2500
  398.5260  -999.2500    20.5960  -999.2500
  398.6784  -999.2500    20.7580  -999.2500
  398.8308  -999.2500    21.0550  -999.2500
  398.9832  -999.2500    21.4550  -999.2500
  399.1356  -999.2500    21.9780  -999.2500
  399.2880  -999.2500    22.3580  -999.2500
  399.4404  -999.2500    22.4910  -999.2500
  399.5928  -999.2500    22.5450  -999.2500
  399.7452  -999.2500    22.7420  -999.2500
  399.8976  -999.2500    23.3440  -999.2500
  400.0500  -999.2500    24.1650  -999.2500
  400.2024  -999.2500    25.2320  -999.2500
  400.3548  -999.2500    25.9380  -999.2500
  400.5072  -999.2500    25.8300  -999.2500
  400.6596  -999.2500    25.4740  -999.2500
  400.8120  -999.2500    25.1500  -999.2500
  400.9644  -999.2500    24.9080  -999.2500
  401.1168  -999.2500    24.6350  -999.2500
  401.2692  -999.2500    24.5750  -999.2500
  401.4216  -999.2500    24.7120  -999.2500
  401.5740  -999.2500    25.2770  -999.2500
  401.7264  -999.2500    26.3140  -999.2500
  401.8788  -999.2500    26.9100  -999.2500
  402.0312  -999.2500    26.7240  -999.2500
  402.1836  -999.2500    26.1440  -999.2500
  402.3360  -999.2500    26.1490  -999.2500
  402.4884  -999.2500    26.8340  -999.2500
  402.6408  -999.2500    28.0250  -999.2500
  402.7932  -999.2500    29.7940  -999.2500
  402.9456  -999.2500    32.3870  -999.2500
  403.0980  -999.2500    34.7840  -999.2500
  403.2504  -999.2500    35.4450  -999.2500
  403.4028  -999.2500    35.4470  -999.2500
  403.5552  -999.2500    35.6940  -999.2500
  403.7076  -999.2500    36.5450  -999.2500
  403.8600  -999.2500    37.8480  -999.2500
  404.0124   173.6910  -999.2500    39.2310
  404.1648   176.0370  -999.2500    42.0540
  404.3172   178.3850  -999.2500    44.1170
  404.4696   180.7250  -999.2500    45.1820
  404.6220   183.4790  -999.2500    45.5030
  404.7744   187.0310  -999.2500    45.3570
  404.9268   189.2200  -999.2500    44.5770
  405.0792   193.5620  -999.2500    43.9460
  405.2316   198.0890  -999.2500    43.7040
  405.3840   197.2080  -999.2500    43.0690
  405.5364   196.9130  -999.2500    41.8550
  405.6888   198.2700  -999.2500    41.0320
  405.8412   198.1660  -999.2500    40.6360
  405.9936   196.7480  -999.2500    40.7120
  406.1460   195.7360  -999.2500    41.7240
  406.2984   195.0010  -999.2500    43.1690
  406.4508   194.0960  -999.2500    44.4810
  406.6032   191.0930  -999.2500    45.5300
  406.7556   186.7790  -999.2500    46.5250
  406.9080   183.6630  -999.2500    47.6080
  407.0604   181.2380  -999.2500    48.7140
  407.2128   179.3840  -999.2500    49.6380
  407.3652   176.5870  -999.2500    50.1480
  407.5176   174.5230  -999.2500    49.8810
  407.6700   173.1240  -999.2500    49.5180
  407.8224   172.6760  -999.2500    49.9440
  407.9748   172.5610  -999.2500    50.3620
  408.1272   172.2000  -999.2500    49.8410
  408.2796   171.9050  -999.2500    49.0640
  408.4320   171.7720  -999.2500    48.2120
  408.5844   172.1720  -999.2500    47.6500
  408.7368   172.2810  -999.2500    48.0230
  408.8892   172.5280  -999.2500    49.3600
  409.0416   173.0580  -999.2500    51.0700
  409.1940   172.5330  -999.2500    53.1190
  409.3464   172.4170  -999.2500    55.3250
  409.4988   172.1540  -999.2500    57.5530
  409.6512   171.4960  -999.2500    55.9580
  409.8036   170.5890  -999.2500    54.8460
  409.9560   170.5320  -999.2500    55.4420
  410.1084   170.2080  -999.2500    56.3380
  410.2608   169.9950  -999.2500    56.6950
  410.4132   169.5190  -999.2500    56.4090
  410.5656   174.6970  -999.2500    55.4320
  410.7180   174.5200  -999.2500    54.1680
  410.8704   170.0700  -999.2500    52.7540
  411.0228   171.4980  -999.2500    51.4350
  411.1752   170.6710  -999.2500    50.3690
  411.3276   170.7220  -999.2500    50.2060
  411.4800   169.1920  -999.2500    50.9610
  411.6324   166.1350  -999.2500    52.0030
  411.7848   164.7860  -999.2500    53.0550
  411.9372   171.2490  -999.2500    53.8420
  412.0896   175.4150  -999.2500    54.0840
  412.2420   176.2810  -999.2500    53.3780
  412.3944   173.0680  -999.2500    52.1450
  412.5468   175.1560  -999.2500    50.9990
  412.6992   174.5150  -999.2500    50.9980
  412.8516   164.9810  -999.2500    52.0090
  413.0040   164.0180  -999.2500    52.5920
  413.1564   162.6840  -999.2500    52.6080
  413.3088   163.5850  -999.2500    52.3600
  413.4612   172.3510  -999.2500    52.1550
  413.6136   173.7920  -999.2500    52.7870
  413.7660   164.3570  -999.2500    53.5850
  413.9184   163.3290  -999.2500    53.2910
  414.0708   162.7270  -999.2500    52.8820
  414.2232   161.9090  -999.2500    52.9620
  414.3756   162.2470  -999.2500    53.3950
  414.5280   162.1850  -999.2500    54.2500
  414.6804   162.5620  -999.2500    55.1180
  414.8328   162.8750  -999.2500    56.0420
  414.9852   163.7300  -999.2500    56.5810
  415.1376   163.2710  -999.2500    56.1500
  415.2900   163.3630  -999.2500    55.0960
  415.4424   162.5830  -999.2500    53.6830
  415.5948   161.0870  -999.2500    52.2770
  415.7472   161.4720  -999.2500    51.1870
  415.8996   162.9570  -999.2500    50.6560
  416.0520   162.9540  -999.2500    50.4060
  416.2044   163.4170  -999.2500    50.3750
  416.3568   163.4220  -999.2500    50.6030
  416.5092   161.9480  -999.2500    51.1310
  416.6616   161.4790  -999.2500    51.8630
  416.8140   161.7980  -999.2500    52.7280
  416.9664   160.8440  -999.2500    53.5440
  417.1188   161.9060  -999.2500    54.1690
  417.2712   164.3080  -999.2500    54.7340
  417.4236   165.4470  -999.2500    54.9560
  417.5760   166.3470  -999.2500    54.9440
  417.7284   165.2400  -999.2500    54.8140
  417.8808   164.8450  -999.2500    54.9820
  418.0332   164.0010  -999.2500    55.5390
  418.1856   163.6820  -999.2500    56.4330
  418.3380   164.4600  -999.2500    57.3470
  418.4904   164.3590  -999.2500    57.5360
  418.6428   163.2640  -999.2500    56.7540
  418.7952   162.3500  -999.2500    56.3910
  418.9476   161.2950  -999.2500    56.8230
  419.1000   162.0700  -999.2500    56.9550
  419.2524   164.4680  -999.2500    56.1620
  419.4048   165.7120  -999.2500    55.5130
  419.5572   165.3540  -999.2500    55.5880
  419.7096   164.5110  -999.2500    55.7980
  419.8620   164.0600  -999.2500    55.1980
  420.0144   163.5650  -999.2500    53.6500
  420.1668   162.5320  -999.2500    52.3140
  420.3192   160.9380  -999.2500    51.3050
  420.4716   158.7680  -999.2500    50.2720
  420.6240   156.9980  -999.2500    49.8270
  420.7764   155.9090  -999.2500    50.0900
  420.9288   155.3890  -999.2500    49.8490
  421.0812   153.5550  -999.2500    49.2700
  421.2336   152.4050  -999.2500    48.3330
  421.3860   148.2140  -999.2500    47.3530
  421.5384   145.5880  -999.2500    46.8290
  421.6908   144.0870  -999.2500    47.1880
  421.8432   143.9900  -999.2500    48.1220
  421.9956   144.5480  -999.2500    48.2760
  422.1480   145.3310  -999.2500    46.5490
  422.3004   146.0220  -999.2500    44.8630
  422.4528   146.8790  -999.2500    44.5250
  422.6052   147.6610  -999.2500    44.6090
  422.7576   147.5410  -999.2500    44.5600
  422.9100   147.0250  -999.2500    44.4840
  423.0624   147.0350  -999.2500    44.3740
  423.2148   146.2150  -999.2500    44.1420
  423.3672   145.8380  -999.2500    43.6270
  423.5196   145.9980  -999.2500    42.7110
  423.6720   146.3030  -999.2500    41.8130
  423.8244   147.0330  -999.2500    41.3110
  423.9768   147.4520  -999.2500    41.8300
  424.1292   147.5550  -999.2500    43.7800
  424.2816   147.8210  -999.2500    44.7890
  424.4340   147.8790  -999.2500    45.3860
  424.5864   147.9150  -999.2500    45.6550
  424.7388   147.9120  -999.2500    46.1320
  424.8912   147.5060  -999.2500    46.8310
  425.0436   147.5010  -999.2500    47.6030
  425.1960   147.7430  -999.2500    48.1410
  425.3484   147.5470  -999.2500    47.9870
  425.5008   148.1300  -999.2500    47.4060
  425.6532   150.1730  -999.2500    45.5350
  425.8056   151.2680  -999.2500    43.8790
  425.9580   150.4040  -999.2500    42.8630
