~VERSION INFORMATION
VERS.                                                 2.0:   CWLS Log ASCII Standard-VERSION 2.0
WRAP.                                                  NO:   One line per depth step
~Well Information Block
STRT.M                                          1407.1092:   Top Depth
STOP.M                                          3062.9352:   Bottom Depth
STEP.M                                             .15240:   Depth Increment
NULL.                                            -999.250:   Null Value
FLD .                                          EEMSKANAAL:   Field Name
WELL.                                       EEMSKANAAL- 1:   NAME
EDF .m                                               5.58:   ELEV DRILL FLOOR
EPD .                                                   0:   ELEV PERM DATUM
EGL .m                                                -.9:   GROUND LEVEL
LMF .                                                  DF:   LOGS MEAS FROM
COMP.                                                 NAM:   OPERATOR
PDAT.                                                 NAP:   PERM DATUM
SPUD.                                          1970/11/08:   SPUD DATE
UWBI.                                      11000074112201:   UWBI
WELL.                                       EEMSKANAAL- 1:   HOLE NAME
~PARAMETER INFORMATION (log)
LNAM.                                RUN 03 RAW OH 9.625":   NAME
LTYP.                                                 03R:   LOG TYPE
LVSN.                                                   1:   LOG VERSION
BS  .5/8"                                               9:   BIT SIZE
BLI .M                                               3064:   BOTTOM DEPTH LOGGED
BHIS.                                            RCCCCCCC:   BRIEF HISTORY
FHIS.              RAW-TIGA/COPY/COPY/COPY/COPY/COPY/COPY:   FULL HISTORY
MRT .C                                                 98:   MAX REC TEMP
DFT .                                          SALT SPERS:   MUD TYPE
RMS .                                                    :   RM
MST .                                                    :   RM TEMP
RMCS.                                                    :   RMC
MCST.                                                    :   RMC TEMP
RMFS.                                                    :   RMF
MFST.                                                    :   RMF TEMP
TCS .                                               4 HRS:   TIME SINCE CIRCLN
TLI .M                                               1407:   TOP DEPTH LOGGED
~Curve Information Block
#MNEM.UNIT                                        API CODE    No Description
#=========                                        ========    == ===========
DEPT.M                                       00 001 00 00:     1  DEPTH
CALF.IN                                                  :     2  CALIPER FROM FORMATION DENSITY LOG
FDC.g/c3                                                 :     3  Formation Density Log (Compensated Open
GR.GAPI                                                  :     4  Gamma Ray
~ASCII
# ...
 1629.0036    10.1190     2.4780    88.2100
 1629.1560    10.1440     2.4860    89.4390
 1629.3084    10.2490     2.4890    93.3810
 1629.4608    10.2790     2.4950    96.9020
 1629.6132    10.2890     2.5030    99.5790
 1629.7656    10.2850     2.4940    96.5040
 1629.9180    10.2650     2.4890    96.1950
 1630.0704    10.1920     2.4910    96.9160
 1630.2228    10.1990     2.4930    95.0930
 1630.3752    10.1790     2.4950    92.7750
 1630.5276    10.1450     2.4910    93.1480
 1630.6800    10.1160     2.4910    99.1440
 1630.8324    10.0990     2.5030   102.1230
 1630.9848    10.0940     2.5100   109.8520
 1631.1372    10.0950     2.5200   113.9130
 1631.2896    10.0880     2.5010   115.4250
 1631.4420    10.0410     2.4820   119.8900
 1631.5944    10.0220     2.4870   123.0420
 1631.7468    10.0180     2.5080   124.0090
 1631.8992    10.0220     2.5320   126.0180
 1632.0516    10.0580     2.5110   127.6440
 1632.2040    10.0920     2.4840   125.5720
 1632.3564    10.0910     2.5040   122.4240
 1632.5088    10.1100     2.5070   117.7350
 1632.6612    10.1410     2.5130   111.3650
 1632.8136    10.1610     2.5270    97.1820
 1632.9660    10.1670     2.5370    88.6380
 1633.1184    10.1710     2.5330    87.5440
 1633.2708    10.2180     2.5100    91.3800
 1633.4232    10.3180     2.4700    96.1670
 1633.5756    10.3240     2.4480    94.0600
 1633.7280    10.3240     2.4440    92.6480
 1633.8804    10.3240     2.4570    89.8990
 1634.0328    10.3240     2.4750    86.2170
 1634.1852    10.3240     2.4880    92.2340
 1634.3376    10.3200     2.5020    97.1380
 1634.4900    10.3200     2.5220   100.6590
 1634.6424    10.3200     2.5300   104.6320
 1634.7948    10.3100     2.4790   108.2990
 1634.9472    10.2990     2.4950   107.7310
 1635.0996    10.2770     2.4940    94.1270
 1635.2520    10.2130     2.4980    90.1610
 1635.4044    10.1680     2.4870    88.4610
 1635.5568    10.0810     2.4650    87.1610
 1635.7092    10.1990     2.4330    85.1270
 1635.8616    10.3440     2.4540    90.0650
 1636.0140    10.4060     2.4850    92.8220
 1636.1664    10.4220     2.5000    89.7990
 1636.3188    10.4240     2.5230    87.0170
 1636.4712    10.4210     2.5490    86.1990
 1636.6236    10.4160     2.5030    85.7100
 1636.7760    10.4070     2.5070    89.1490
 1636.9284    10.3860     2.5140    92.3990
 1637.0808    10.3610     2.5060    95.4160
 1637.2332    10.3180     2.4940    94.5320
 1637.3856    10.2780     2.4930    90.3680
 1637.5380    10.2450     2.5040    85.4480
 1637.6904    10.2260     2.4990    81.8290
 1637.8428    10.2200     2.4990    86.0330
 1637.9952    10.2320     2.5080    85.2740
 1638.1476    10.2570     2.5190    83.4000
 1638.3000    10.2690     2.5170    83.7000
 1638.4524    10.2750     2.4900    81.4920
 1638.6048    10.2720     2.4840    82.2010
 1638.7572    10.2660     2.4570    84.2640
 1638.9096    10.2580     2.4500    85.8430
 1639.0620    10.2530     2.4550    84.0400
 1639.2144    10.2690     2.4720    83.4650
 1639.3668    10.2710     2.4750    84.4810
 1639.5192    10.2680     2.4720    85.6790
 1639.6716    10.2640     2.4780    86.2540
 1639.8240    10.2530     2.4530    86.1700
 1639.9764    10.2250     2.4460    86.5600
 1640.1288    10.2000     2.4490    91.5820
 1640.2812    10.1810     2.4630    93.9490
 1640.4336    10.1670     2.4950    91.7950
 1640.5860    10.1620     2.5090    93.3900
 1640.7384    10.1730     2.4940    96.8340
 1640.8908    10.1470     2.4680    99.8980
 1641.0432    10.0900     2.4500    96.3550
 1641.1956     9.9980     2.4510    90.2650
 1641.3480     9.9290     2.4730    88.8080
 1641.5004     9.9040     2.5020    87.7400
 1641.6528     9.9770     2.5160    89.5450
 1641.8052     9.9900     2.5190    89.8550
 1641.9576     9.9470     2.5380    90.2920
 1642.1100     9.8870     2.5320    91.2120
 1642.2624     9.8070     2.4730    91.4070
 1642.4148     9.7710     2.4580    87.9100
 1642.5672     9.8010     2.4730    85.6480
 1642.7196     9.8150     2.5200    88.4800
 1642.8720     9.8060     2.5190    90.5090
 1643.0244     9.7910     2.4820    91.9880
 1643.1768     9.7490     2.4880    92.7990
 1643.3292     9.7780     2.4990    92.6580
 1643.4816     9.8470     2.5260    91.8990
 1643.6340     9.8830     2.5400    89.1330
 1643.7864     9.8660     2.5520    85.0750
 1643.9388     9.8830     2.5470    82.9720
 1644.0912     9.9810     2.5280    81.2240
 1644.2436    10.0330     2.5110    83.3990
 1644.3960    10.0750     2.5190    84.9790
 1644.5484    10.1270     2.5110    86.9700
 1644.7008    10.1790     2.4970    88.8870
 1644.8532    10.1980     2.4980    90.2740
 1645.0056    10.2120     2.4670    92.2480
 1645.1580    10.2120     2.4490    96.4940
 1645.3104    10.2120     2.4630    99.1720
 1645.4628    10.2120     2.4450   101.2500
 1645.6152    10.2130     2.4370    96.0530
 1645.7676    10.2130     2.4640    92.1290
 1645.9200    10.2120     2.5020    89.4030
 1646.0724    10.2120     2.5260    93.2060
 1646.2248    10.1420     2.5360    94.6990
 1646.3772     9.9650     2.5230    93.5700
 1646.5296     9.8080     2.5040    90.5320
 1646.6820     9.7050     2.4880    83.9740
 1646.8344     9.6850     2.4820    78.7560
 1646.9868     9.6910     2.4850    77.5900
 1647.1392     9.7000     2.4770    77.5750
 1647.2916     9.7120     2.4870    79.0840
 1647.4440     9.7330     2.5020    80.6600
 1647.5964     9.7640     2.5010    81.7250
 1647.7488     9.8020     2.4630    85.1490
 1647.9012     9.8700     2.4720    88.6940
 1648.0536     9.9180     2.4810    91.7150
 1648.2060     9.9440     2.4940    94.2280
 1648.3584     9.9480     2.5140    91.5030
 1648.5108     9.9480     2.5050    89.4820
 1648.6632     9.9480     2.5000    87.6060
 1648.8156     9.9450     2.4830    90.2040
 1648.9680     9.9430     2.4730    97.5600
 1649.1204     9.9280     2.4880   101.6950
 1649.2728     9.9000     2.5080   104.3820
 1649.4252     9.8860     2.5210   101.9040
 1649.5776     9.8820     2.5140   100.3050
 1649.7300     9.8990     2.5140   100.4350
 1649.8824     9.9150     2.5210   101.2470
 1650.0348     9.9180     2.5160    99.1890
 1650.1872     9.8950     2.4980    94.7600
 1650.3396     9.8650     2.4960    97.6990
 1650.4920     9.8350     2.5290    92.3550
 1650.6444     9.8160     2.5380    88.2900
 1650.7968     9.8080     2.5210    89.0160
 1650.9492     9.8100     2.5200    92.1760
 1651.1016     9.8170     2.5290    92.5410
 1651.2540     9.8460     2.5280    91.8270
 1651.4064     9.8720     2.5230    92.1510
 1651.5588     9.8670     2.5400    93.1150
 1651.7112     9.8750     2.5520    93.8050
 1651.8636     9.9470     2.5810    89.6880
 1652.0160    10.0400     2.5720    88.1260
 1652.1684    10.0850     2.5380    90.3630
 1652.3208    10.1300     2.5190    93.7890
 1652.4732    10.1540     2.5020    99.2890
 1652.6256    10.1650     2.5200   105.8860
 1652.7780    10.1820     2.5140   107.0630
 1652.9304    10.1870     2.5290   104.9130
 1653.0828    10.1950     2.5400   100.1400
 1653.2352    10.2050     2.5240    95.6990
 1653.3876    10.2200     2.5210    90.8540
 1653.5400    10.2300     2.5170    87.4740
 1653.6924    10.2320     2.5270    86.5860
 1653.8448    10.2360     2.5190    87.5310
 1653.9972    10.2370     2.5300    88.7570
 1654.1496    10.2400     2.5250    91.7490
 1654.3020    10.2400     2.5220    89.4660
 1654.4544    10.2300     2.5150    87.9390
 1654.6068    10.2060     2.5060    85.9950
 1654.7592    10.1800     2.5290    87.5140
 1654.9116    10.1530     2.5430    91.1070
 1655.0640    10.1190     2.5220    95.3470
 1655.2164    10.0690     2.5230    95.8920
 1655.3688    10.0300     2.5230    93.5360
 1655.5212    10.0280     2.5080    90.4330
 1655.6736    10.0350     2.5090    90.8410
 1655.8260    10.0480     2.5050    91.6370
 1655.9784    10.0540     2.5150    91.4620
 1656.1308    10.0610     2.5150    93.1850
 1656.2832    10.0640     2.5110    91.5330
 1656.4356    10.0640     2.5170    91.6260
 1656.5880    10.0600     2.5170    87.1810
