~VERSION INFORMATION
VERS.                                                 2.0:   CWLS Log ASCII Standard-VERSION 2.0
WRAP.                                                  NO:   One line per depth step
~Well Information Block
STRT.M                                          1407.1092:   Top Depth
STOP.M                                          3062.9352:   Bottom Depth
STEP.M                                             .15240:   Depth Increment
NULL.                                            -999.250:   Null Value
FLD .                                          EEMSKANAAL:   Field Name
WELL.                                       EEMSKANAAL- 1:   NAME
EDF .m                                               5.58:   ELEV DRILL FLOOR
EPD .                                                   0:   ELEV PERM DATUM
EGL .m                                                -.9:   GROUND LEVEL
LMF .                                                  DF:   LOGS MEAS FROM
COMP.                                                 NAM:   OPERATOR
PDAT.                                                 NAP:   PERM DATUM
SPUD.                                          1970/11/08:   SPUD DATE
UWBI.                                      11000074112201:   UWBI
WELL.                                       EEMSKANAAL- 1:   HOLE NAME
~PARAMETER INFORMATION (log)
LNAM.                                RUN 03 RAW OH 9.625":   NAME
LTYP.                                                 03R:   LOG TYPE
LVSN.                                                   1:   LOG VERSION
BS  .5/8"                                               9:   BIT SIZE
BLI .M                                               3064:   BOTTOM DEPTH LOGGED
BHIS.                                            RCCCCCCC:   BRIEF HISTORY
FHIS.              RAW-TIGA/COPY/COPY/COPY/COPY/COPY/COPY:   FULL HISTORY
MRT .C                                                 98:   MAX REC TEMP
DFT .                                          SALT SPERS:   MUD TYPE
RMS .                                                    :   RM
MST .                                                    :   RM TEMP
RMCS.                                                    :   RMC
MCST.                                                    :   RMC TEMP
RMFS.                                                    :   RMF
MFST.                                                    :   RMF TEMP
TCS .                                               4 HRS:   TIME SINCE CIRCLN
TLI .M                                               1407:   TOP DEPTH LOGGED
~Curve Information Block
#MNEM.UNIT                                        API CODE    No Description
#=========                                        ========    == ===========
DEPT.M                                       00 001 00 00:     1  DEPTH
CALF.IN                                                  :     2  CALIPER FROM FORMATION DENSITY LOG
FDC.g/c3                                                 :     3  Formation Density Log (Compensated Open
GR.GAPI                                                  :     4  Gamma Ray
~ASCII
# ...
 1739.9508    10.0500     2.5080    90.4110
 1740.1032    10.0420     2.5100    92.4110
 1740.2556    10.0160     2.4970    92.6180
 1740.4080    10.0600     2.5020    89.3270
 1740.5604    10.2180     2.4960    85.3320
 1740.7128    10.2640     2.4840    88.2380
 1740.8652    10.2700     2.4860    91.2060
 1741.0176    10.2760     2.4840    91.9250
 1741.1700    10.2840     2.4890    93.5670
 1741.3224    10.3020     2.4980    93.9360
 1741.4748    10.3290     2.4980    84.5750
 1741.6272    10.3600     2.5060    81.0580
 1741.7796    10.3790     2.5110    82.4000
 1741.9320    10.3790     2.5170    84.2090
 1742.0844    10.3380     2.5190    85.6660
 1742.2368    10.2790     2.5180    83.5720
 1742.3892    10.3530     2.4880    85.1370
 1742.5416    10.2640     2.4730    84.6410
 1742.6940    10.2050     2.4660    82.9840
 1742.8464    10.2050     2.4640    82.8760
 1742.9988    10.2140     2.4750    81.9980
 1743.1512    10.2330     2.4750    80.9980
 1743.3036    10.2450     2.4800    79.9170
 1743.4560    10.2630     2.4860    81.1270
 1743.6084    10.2810     2.4960    81.2950
 1743.7608    10.3050     2.5060    79.6360
 1743.9132    10.3240     2.5120    79.6730
 1744.0656    10.3320     2.5270    81.8920
 1744.2180    10.3230     2.5240    82.9150
 1744.3704    10.3090     2.5110    82.5650
 1744.5228    10.2860     2.4910    82.1980
 1744.6752    10.2390     2.4970    82.9070
 1744.8276    10.1840     2.4820    84.8500
 1744.9800    10.1380     2.5010    86.2050
 1745.1324    10.1300     2.5230    86.4300
 1745.2848    10.1480     2.5330    86.1750
 1745.4372    10.1810     2.5360    84.8720
 1745.5896    10.2240     2.5420    84.7880
 1745.7420    10.2520     2.5380    84.9960
 1745.8944    10.2770     2.5310    85.0400
 1746.0468    10.2870     2.5280    87.4540
 1746.1992    10.2880     2.5150    88.6010
 1746.3516    10.2860     2.5050    83.7210
 1746.5040    10.2780     2.5040    82.7090
 1746.6564    10.2700     2.4970    85.7080
 1746.8088    10.2630     2.5020    89.7080
 1746.9612    10.2540     2.4890    85.3790
 1747.1136    10.2420     2.4820    85.8600
 1747.2660    10.2260     2.4850    90.3420
 1747.4184    10.2050     2.4750    94.0090
 1747.5708    10.1890     2.4870    96.5280
 1747.7232    10.1740     2.4920    98.5690
 1747.8756    10.1630     2.4890    98.0950
 1748.0280    10.1540     2.4780    95.0570
 1748.1804    10.1430     2.4710    91.1250
 1748.3328    10.1360     2.4770    90.1210
 1748.4852    10.1360     2.4970    88.5980
 1748.6376    10.1340     2.5170    85.7220
 1748.7900    10.1300     2.5520    84.5720
 1748.9424    10.1330     2.5600    82.8100
 1749.0948    10.1450     2.5470    81.1850
 1749.2472    10.1600     2.5200    80.1180
 1749.3996    10.1770     2.5140    83.0610
 1749.5520    10.1980     2.4810    86.1970
 1749.7044    10.2080     2.4690    86.6570
 1749.8568    10.2190     2.4830    88.1630
 1750.0092    10.2260     2.4870    90.0830
 1750.1616    10.2340     2.4940    87.9150
 1750.3140    10.2360     2.4950    84.2690
 1750.4664    10.2330     2.4760    83.1210
 1750.6188    10.2260     2.4900    84.9750
 1750.7712    10.2160     2.5040    86.2240
 1750.9236    10.2030     2.5100    85.1190
 1751.0760    10.1940     2.5070    85.0150
 1751.2284    10.1800     2.5080    85.5210
 1751.3808    10.1650     2.5000    86.3330
 1751.5332    10.1360     2.4980    87.6540
 1751.6856    10.1010     2.4960    88.5740
 1751.8380    10.0840     2.4960    89.9020
 1751.9904    10.0770     2.5190    93.3480
 1752.1428    10.0760     2.5410    93.4380
 1752.2952    10.0760     2.5350    91.2690
 1752.4476    10.0760     2.5220    88.8650
 1752.6000    10.0720     2.5210    84.9300
 1752.7524    10.0720     2.5310    79.1180
 1752.9048    10.0710     2.5550    76.3770
 1753.0572    10.0660     2.5870    78.8000
 1753.2096    10.0590     2.5780    81.9360
 1753.3620    10.0530     2.5860    84.3680
 1753.5144    10.0490     2.5780    83.5220
 1753.6668    10.0410     2.5750    78.7010
 1753.8192    10.0320     2.5580    76.7090
 1753.9716    10.0320     2.5350    80.6950
 1754.1240    10.0320     2.5220    80.6180
 1754.2764    10.0320     2.5190    82.2080
 1754.4288    10.0320     2.5090    86.0910
 1754.5812    10.0320     2.5040    89.9610
 1754.7336    10.0330     2.5110    89.2770
 1754.8860    10.0390     2.5210    87.3950
 1755.0384    10.0360     2.5100    86.4970
 1755.1908    10.0370     2.5070    88.6480
 1755.3432    10.0380     2.4960    86.8210
 1755.4956    10.0400     2.5020    85.8180
 1755.6480    10.0420     2.4970    83.2330
 1755.8004    10.0480     2.4980    78.0630
 1755.9528    10.0500     2.4960    84.3590
 1756.1052    10.0520     2.4930    87.0860
 1756.2576    10.0350     2.4920    83.3500
 1756.4100    10.0320     2.4940    81.7800
 1756.5624    10.0340     2.4990    80.1250
 1756.7148    10.0310     2.5160    82.7860
 1756.8672    10.0160     2.5110    84.9140
 1757.0196     9.9450     2.5120    88.9080
 1757.1720     9.8840     2.5220    91.7040
 1757.3244     9.8760     2.5320    92.8990
 1757.4768     9.8800     2.5120    89.9970
 1757.6292     9.8790     2.4990    88.6980
 1757.7816     9.8760     2.5000    90.1920
 1757.9340     9.8760     2.4980    89.3800
 1758.0864     9.8760     2.5110    85.4760
 1758.2388     9.8800     2.5210    89.2600
 1758.3912     9.8800     2.5220    91.0090
 1758.5436     9.8770     2.5080    94.5500
 1758.6960     9.8760     2.4680    96.6020
 1758.8484     9.8770     2.4600    93.1210
 1759.0008     9.8800     2.4610    92.3890
 1759.1532     9.8800     2.4700    90.3540
 1759.3056     9.8800     2.4860    89.7990
 1759.4580     9.8830     2.5180    90.8350
 1759.6104     9.8880     2.5390    88.8030
 1759.7628     9.8920     2.5310    86.9760
 1759.9152     9.8870     2.5340    85.7290
 1760.0676     9.8840     2.5380    84.5300
 1760.2200     9.8840     2.5280    84.0540
 1760.3724     9.8840     2.4990    84.2090
 1760.5248     9.8840     2.5120    84.4860
 1760.6772     9.8840     2.5540    83.5810
 1760.8296     9.8870     2.5510    83.2780
 1760.9820     9.8920     2.5350    81.2210
 1761.1344     9.8980     2.5500    81.6570
 1761.2868     9.9000     2.5460    83.9960
 1761.4392     9.9040     2.5390    87.4570
 1761.5916     9.9040     2.5360    90.0360
 1761.7440     9.9020     2.5710    84.7230
 1761.8964     9.9000     2.6200    73.9490
 1762.0488     9.8620     2.6340    66.2710
 1762.2012     9.8120     2.6220    62.0670
 1762.3536     9.8290     2.5740    67.2590
 1762.5060     9.8560     2.5470    75.3580
 1762.6584     9.8520     2.5710    80.0640
 1762.8108     9.8390     2.5740    83.1130
 1762.9632     9.8280     2.5530    86.5000
 1763.1156     9.8160     2.5470    84.8980
 1763.2680     9.8160     2.5500    82.1010
 1763.4204     9.8160     2.5490    83.9110
 1763.5728     9.8130     2.5520    86.5650
 1763.7252     9.8120     2.5670    87.3450
 1763.8776     9.8120     2.5950    87.5240
 1764.0300     9.8120     2.5770    89.3910
 1764.1824     9.8100     2.5530    91.4520
 1764.3348     9.8080     2.5450    87.6010
 1764.4872     9.8080     2.5600    81.6430
 1764.6396     9.8090     2.5880    78.0620
 1764.7920     9.8120     2.5810    75.5300
 1764.9444     9.8100     2.5720    73.4630
 1765.0968     9.8120     2.5620    75.7630
 1765.2492     9.8130     2.5680    77.1140
 1765.4016     9.8160     2.5710    79.9670
 1765.5540     9.8160     2.5570    85.4830
 1765.7064     9.8150     2.5530    88.1290
 1765.8588     9.8120     2.5550    88.4280
 1766.0112     9.8120     2.5430    86.5970
 1766.1636     9.8160     2.5260    81.3220
 1766.3160     9.8160     2.5270    83.9750
 1766.4684     9.8160     2.5200    89.0230
 1766.6208     9.8160     2.5210    92.6690
 1766.7732     9.8160     2.5090    94.7700
 1766.9256     9.8140     2.4960    92.2500
 1767.0780     9.8120     2.4980    88.9910
 1767.2304     9.8120     2.5090    86.7350
 1767.3828     9.8090     2.5190    84.8090
 1767.5352     9.8110     2.5230    82.3870
