~VERSION INFORMATION
VERS.                                                 2.0:   CWLS Log ASCII Standard-VERSION 2.0
WRAP.                                                  NO:   One line per depth step
~Well Information Block
STRT.M                                            10.0584:   Top Depth
STOP.M                                          1400.8608:   Bottom Depth
STEP.M                                             .15240:   Depth Increment
NULL.                                            -999.250:   Null Value
FLD .                                          EEMSKANAAL:   Field Name
WELL.                                       EEMSKANAAL- 1:   NAME
EDF .m                                               5.58:   ELEV DRILL FLOOR
EPD .                                                   0:   ELEV PERM DATUM
EGL .m                                                -.9:   GROUND LEVEL
LMF .                                                  DF:   LOGS MEAS FROM
COMP.                                                 NAM:   OPERATOR
PDAT.                                                 NAP:   PERM DATUM
SPUD.                                          1970/11/08:   SPUD DATE
UWBI.                                      11000074112201:   UWBI
WELL.                                       EEMSKANAAL- 1:   HOLE NAME
~PARAMETER INFORMATION (log)
LNAM.                                RUN 02 RAW OH 14.75":   NAME
LTYP.                                                 02R:   LOG TYPE
LVSN.                                                   1:   LOG VERSION
BS  .3/4"                                              14:   BIT SIZE
BLI .M                                             1402.5:   BOTTOM DEPTH LOGGED
BHIS.                                            RCCCCCCC:   BRIEF HISTORY
FHIS.              RAW-TIGA/COPY/COPY/COPY/COPY/COPY/COPY:   FULL HISTORY
MRT .C                                                 50:   MAX REC TEMP
DFT .                                         CHALK WATER:   MUD TYPE
RMS .                                                1.44:   RM
MST .C                                                 11:   RM TEMP
RMCS.                                                1.93:   RMC
MCST.C                                                 19:   RMC TEMP
RMFS.                                               0.917:   RMF
MFST.C                                                 19:   RMF TEMP
TCS .                                                 N/A:   TIME SINCE CIRCLN
TLI .M                                                 10:   TOP DEPTH LOGGED
~Curve Information Block
#MNEM.UNIT                                        API CODE    No Description
#=========                                        ========    == ===========
DEPT.M                                       00 001 00 00:     1  DEPTH
BCSL.US/F                                                :     2  Interval Transit Time From Borehole Comp
GRIC.GAPI                                                :     3  GAMMA RAY LOG IN CASING
GRS.GAPI                                                 :     4  GAMMA RAY FROM SONIC LOG
~ASCII
# ...
 1230.4776    81.2370  -999.2500     6.1170
 1230.6300    82.2880  -999.2500     6.2220
 1230.7824    84.8500  -999.2500     6.1860
 1230.9348    85.8330  -999.2500     5.8880
 1231.0872    86.1180  -999.2500     5.8980
 1231.2396    85.7430  -999.2500     6.2360
 1231.3920    84.4270  -999.2500     6.1790
 1231.5444    82.9700  -999.2500     5.7840
 1231.6968    82.3380  -999.2500     5.0560
 1231.8492    82.4770  -999.2500     4.4420
 1232.0016    83.8080  -999.2500     4.2480
 1232.1540    85.8390  -999.2500     4.5220
 1232.3064    88.2460  -999.2500     4.7330
 1232.4588    90.4730  -999.2500     4.8800
 1232.6112    91.8680  -999.2500     4.9450
 1232.7636    92.4530  -999.2500     5.0250
 1232.9160    92.8670  -999.2500     4.9820
 1233.0684    92.3300  -999.2500     5.2240
 1233.2208    90.7180  -999.2500     5.5270
 1233.3732    89.0640  -999.2500     5.7250
 1233.5256    87.3390  -999.2500     5.7820
 1233.6780    85.9310  -999.2500     5.5750
 1233.8304    85.4120  -999.2500     5.4040
 1233.9828    84.4070  -999.2500     5.2480
 1234.1352    82.3110  -999.2500     5.1590
 1234.2876    81.9140  -999.2500     5.0380
 1234.4400    80.2040  -999.2500     5.0250
 1234.5924    79.4620  -999.2500     5.0390
 1234.7448    79.7840  -999.2500     5.2270
 1234.8972    79.2460  -999.2500     5.4410
 1235.0496    78.9240  -999.2500     5.4150
 1235.2020    79.5200  -999.2500     5.2750
 1235.3544    81.0910  -999.2500     5.0090
 1235.5068    82.7340  -999.2500     5.1460
 1235.6592    83.8670  -999.2500     5.4140
 1235.8116    84.7980  -999.2500     5.3980
 1235.9640    85.5060  -999.2500     5.1880
 1236.1164    85.9840  -999.2500     5.1450
 1236.2688    86.5330  -999.2500     5.1450
 1236.4212    88.2000  -999.2500     5.1580
 1236.5736    90.0000  -999.2500     5.2270
 1236.7260    90.4900  -999.2500     5.2650
 1236.8784    89.8630  -999.2500     5.2650
 1237.0308    87.6790  -999.2500     5.1450
 1237.1832    85.1370  -999.2500     5.2070
 1237.3356    83.5130  -999.2500     5.3460
 1237.4880    82.9520  -999.2500     5.3320
 1237.6404    81.9900  -999.2500     5.8830
 1237.7928    81.9950  -999.2500     6.7750
 1237.9452    82.1730  -999.2500     7.2230
 1238.0976    81.9940  -999.2500     7.2760
 1238.2500    82.7850  -999.2500     6.8470
 1238.4024    82.7200  -999.2500     6.3830
 1238.5548    84.0990  -999.2500     6.0210
 1238.7072    85.0650  -999.2500     5.8150
 1238.8596    85.3090  -999.2500     5.7810
 1239.0120    86.7790  -999.2500     5.9470
 1239.1644    87.7110  -999.2500     6.1060
 1239.3168    88.0640  -999.2500     6.2950
 1239.4692    88.4820  -999.2500     6.4930
 1239.6216    87.1550  -999.2500     6.7270
 1239.7740    85.9120  -999.2500     7.1040
 1239.9264    84.7020  -999.2500     7.4690
 1240.0788    83.6830  -999.2500     7.7790
 1240.2312    83.2580  -999.2500     8.0370
 1240.3836    83.3540  -999.2500     8.3180
 1240.5360    84.1340  -999.2500     8.2600
 1240.6884    83.8040  -999.2500     7.6250
 1240.8408    84.1890  -999.2500     7.0180
 1240.9932    83.8020  -999.2500     6.7170
 1241.1456    84.6090  -999.2500     6.4540
 1241.2980    85.8450  -999.2500     6.4050
 1241.4504    86.6320  -999.2500     6.4050
 1241.6028    86.9430  -999.2500     6.5120
 1241.7552    86.5010  -999.2500     6.5850
 1241.9076    85.9060  -999.2500     6.6350
 1242.0600    85.1600  -999.2500     6.6990
 1242.2124    85.6880  -999.2500     6.6540
 1242.3648    86.0600  -999.2500     6.4890
 1242.5172    86.8050  -999.2500     6.1640
 1242.6696    87.6950  -999.2500     5.8250
 1242.8220    88.0450  -999.2500     5.7210
 1242.9744    88.2810  -999.2500     6.0170
 1243.1268    88.3300  -999.2500     6.3010
 1243.2792    87.5930  -999.2500     6.2020
 1243.4316    86.0020  -999.2500     6.0100
 1243.5840    84.7460  -999.2500     6.1390
 1243.7364    84.5600  -999.2500     6.4000
 1243.8888    84.5600  -999.2500     6.8950
 1244.0412    84.2720  -999.2500     7.1650
 1244.1936    83.2880  -999.2500     6.6010
 1244.3460    82.0780  -999.2500     6.2490
 1244.4984    80.8620  -999.2500     6.2250
 1244.6508    81.1130  -999.2500     6.2550
 1244.8032    80.0310  -999.2500     6.4050
 1244.9556    80.8480  -999.2500     6.4050
 1245.1080    81.0340  -999.2500     6.5080
 1245.2604    79.9610  -999.2500     6.7230
 1245.4128    79.5490  -999.2500     6.8780
 1245.5652    81.5570  -999.2500     7.1720
 1245.7176    82.4040  -999.2500     7.3090
 1245.8700    82.8840  -999.2500     6.8820
 1246.0224    82.9930  -999.2500     6.1850
 1246.1748    81.3350  -999.2500     6.0790
 1246.3272    81.7840  -999.2500     6.2180
 1246.4796    83.4280  -999.2500     6.3960
 1246.6320    84.4710  -999.2500     6.4050
 1246.7844    83.9520  -999.2500     6.3540
 1246.9368    83.2310  -999.2500     6.3450
 1247.0892    82.1600  -999.2500     6.3450
 1247.2416    80.8880  -999.2500     6.3200
 1247.3940    80.1030  -999.2500     6.2290
 1247.5464    79.9800  -999.2500     6.1050
 1247.6988    78.7770  -999.2500     6.1790
 1247.8512    78.1820  -999.2500     6.4210
 1248.0036    77.9070  -999.2500     6.4630
 1248.1560    77.9080  -999.2500     6.3710
 1248.3084    78.6250  -999.2500     6.2810
 1248.4608    79.3870  -999.2500     6.1940
 1248.6132    80.1010  -999.2500     6.3350
 1248.7656    80.4860  -999.2500     6.3860
 1248.9180    80.1390  -999.2500     6.0820
 1249.0704    79.5020  -999.2500     6.2770
 1249.2228    79.1280  -999.2500     7.0300
 1249.3752    79.3310  -999.2500     7.3090
 1249.5276    80.1240  -999.2500     7.2620
 1249.6800    81.0020  -999.2500     7.3050
 1249.8324    80.8540  -999.2500     7.4040
 1249.9848    80.7310  -999.2500     7.5490
 1250.1372    81.3680  -999.2500     7.7680
 1250.2896    80.9430  -999.2500     7.9570
 1250.4420    81.3200  -999.2500     8.2540
 1250.5944    82.7430  -999.2500     8.4270
 1250.7468    80.5340  -999.2500     8.0850
 1250.8992    80.6840  -999.2500     7.8160
 1251.0516    82.2660  -999.2500     7.5580
 1251.2040    80.3620  -999.2500     7.2350
 1251.3564    80.3590  -999.2500     6.9290
 1251.5088    81.1130  -999.2500     6.7900
 1251.6612    80.1550  -999.2500     6.3920
 1251.8136    80.2470  -999.2500     6.0450
 1251.9660    81.9550  -999.2500     6.0050
 1252.1184    81.3850  -999.2500     5.9770
 1252.2708    80.9150  -999.2500     5.9510
 1252.4232    80.5600  -999.2500     6.0330
 1252.5756    79.2270  -999.2500     6.0900
 1252.7280    79.2370  -999.2500     6.1220
 1252.8804    80.1620  -999.2500     6.2370
 1253.0328    80.1400  -999.2500     6.3750
 1253.1852    81.2420  -999.2500     6.4730
 1253.3376    82.8800  -999.2500     6.5890
 1253.4900    81.6100  -999.2500     6.6720
 1253.6424    80.7130  -999.2500     6.7300
 1253.7948    79.1450  -999.2500     6.8080
 1253.9472    78.4320  -999.2500     6.7370
 1254.0996    79.1880  -999.2500     6.7050
 1254.2520    79.9160  -999.2500     6.7050
 1254.4044    81.2380  -999.2500     6.7100
 1254.5568    80.9560  -999.2500     6.9270
 1254.7092    80.8880  -999.2500     7.4260
 1254.8616    80.9090  -999.2500     8.0880
 1255.0140    80.0660  -999.2500     8.3680
 1255.1664    79.8800  -999.2500     8.4050
 1255.3188    78.9870  -999.2500     8.3210
 1255.4712    79.2670  -999.2500     7.8650
 1255.6236    79.5720  -999.2500     7.2830
 1255.7760    79.0850  -999.2500     6.8370
 1255.9284    79.8490  -999.2500     6.5980
 1256.0808    80.8490  -999.2500     6.2380
 1256.2332    79.6650  -999.2500     6.2100
 1256.3856    80.2080  -999.2500     6.4500
 1256.5380    81.4620  -999.2500     7.2120
 1256.6904    81.9680  -999.2500     8.0090
 1256.8428    83.3080  -999.2500     8.5220
 1256.9952    83.8250  -999.2500     8.9680
 1257.1476    85.4780  -999.2500     9.3570
 1257.3000    84.9400  -999.2500     9.4650
 1257.4524    85.0220  -999.2500     9.4650
 1257.6048    82.7580  -999.2500     9.4390
 1257.7572    81.3350  -999.2500     9.0880
 1257.9096    80.3680  -999.2500     8.6480
 1258.0620    79.0350  -999.2500     8.2130
