~VERSION INFORMATION
VERS.                                                 2.0:   CWLS Log ASCII Standard-VERSION 2.0
WRAP.                                                  NO:   One line per depth step
~Well Information Block
STRT.M                                          1789.0236:   Top Depth
STOP.M                                          2779.9284:   Bottom Depth
STEP.M                                             .15240:   Depth Increment
NULL.                                            -999.250:   Null Value
FLD .                                          EEMSKANAAL:   Field Name
WELL.                                       EEMSKANAAL- 2:   NAME
APD .M                                               5.62:   ABOVE PERM DATUM
CTRY.                                                  NE:   COUNTRY
EDF .m                                               5.62:   ELEV DRILL FLOOR
EPD .                                                   0:   ELEV PERM DATUM
EGL .m                                              -1.06:   GROUND LEVEL
LMF .                                                  DF:   LOGS MEAS FROM
COMP.                                                 NAM:   OPERATOR
PDAT.                                                 NAP:   PERM DATUM
SPUD.                                          1971/03/17:   SPUD DATE
STAT.                                           Unknown m:   STATE
UWBI.                                      11000074112601:   UWBI
WELL.                                       EEMSKANAAL- 2:   HOLE NAME
~PARAMETER INFORMATION (log)
LNAM.                                RUN 01 RAW OH 9 5/8":   NAME
LTYP.                                                 01R:   LOG TYPE
LVSN.                                                   1:   LOG VERSION
BS  .5/8"                                               9:   BIT SIZE
BLI .M                                             2778.0:   BOTTOM DEPTH LOGGED
BHIS.                                                MCCC:   BRIEF HISTORY
FHIS.                                     MERGE/COPY/COPY:   FULL HISTORY
MRT .DEGC                                              84:   MAX REC TEMP
DFD .G/CC                                            1.54:   MUD DENSITY
DFT .                                   SALT SAT SPERSENE:   MUD TYPE
RMS .                                                    :   RM
MST .                                                    :   RM TEMP
RMCS.                                                    :   RMC
MCST.                                                    :   RMC TEMP
RMFS.                                                    :   RMF
MFST.                                                    :   RMF TEMP
TCS .                                                 N/A:   TIME SINCE CIRCLN
TLI .M                                             1800.0:   TOP DEPTH LOGGED
~Curve Information Block
#MNEM.UNIT                                        API CODE    No Description
#=========                                        ========    == ===========
DEPT.M                                       00 001 00 00:     1  DEPTH
CALF.IN                                                  :     2  CALIPER FROM FORMATION DENSITY LOG
FDC.G/C3                                                 :     3  Formation Density Log (Compensated Open
GR.API                                                   :     4  Gamma Ray
~ASCII
# ...
 2648.8644    10.0810     2.1330     7.3490
 2649.0168    10.0830     2.1390     7.4300
 2649.1692    10.0810     2.1410     7.5820
 2649.3216    10.0780     2.1460     6.2740
 2649.4740    10.0570     2.1360     5.2250
 2649.6264    10.0400     2.1420     5.9310
 2649.7788    10.0440     2.1480     6.8400
 2649.9312    10.0550     2.1510     7.0500
 2650.0836    10.0640     2.1420     6.3210
 2650.2360    10.0730     2.1200     5.8480
 2650.3884    10.0770     2.1070     6.1640
 2650.5408    10.0500     2.1090     6.5830
 2650.6932    10.0370     2.1160     5.9180
 2650.8456    10.0490     2.1210     5.2620
 2650.9980    10.0610     2.1230     5.2640
 2651.1504    10.0900     2.1180     5.7910
 2651.3028    10.1130     2.1160     6.1650
 2651.4552    10.1050     2.1100     5.8920
 2651.6076    10.0730     2.1050     4.3790
 2651.7600    10.0580     2.1030     3.7890
 2651.9124    10.0610     2.1030     4.0950
 2652.0648    10.0730     2.1110     4.7870
 2652.2172    10.0950     2.1210     5.3740
 2652.3696    10.1120     2.1340     5.7980
 2652.5220    10.1010     2.1250     5.9150
 2652.6744    10.0630     2.1210     5.5450
 2652.8268    10.0460     2.1290     5.5830
 2652.9792    10.0510     2.1430     6.1560
 2653.1316    10.0630     2.1440     5.7770
 2653.2840    10.0780     2.1400     5.6290
 2653.4364    10.0980     2.1320     5.6430
 2653.5888    10.1000     2.1240     6.1800
 2653.7412    10.0540     2.1190     4.9110
 2653.8936    10.0300     2.1190     4.4840
 2654.0460    10.0270     2.1220     4.8600
 2654.1984    10.0380     2.1150     4.8760
 2654.3508    10.0610     2.1110     3.8900
 2654.5032    10.0880     2.1130     4.5290
 2654.6556    10.0970     2.1270     4.6910
 2654.8080    10.0780     2.1240     3.8410
 2654.9604    10.0540     2.1220     3.8830
 2655.1128    10.0410     2.1260     4.5600
 2655.2652    10.0440     2.1270     5.7200
 2655.4176    10.0590     2.1200     5.9970
 2655.5700    10.0770     2.1240     5.6490
 2655.7224    10.0880     2.1280     5.5850
 2655.8748    10.0660     2.1390     5.8120
 2656.0272    10.0340     2.1420     5.4430
 2656.1796    10.0200     2.1430     4.5170
 2656.3320    10.0180     2.1400     4.0560
 2656.4844    10.0260     2.1420     4.1700
 2656.6368    10.0460     2.1380     4.4950
 2656.7892    10.0690     2.1270     4.5630
 2656.9416    10.0830     2.1220     4.3740
 2657.0940    10.0770     2.1210     4.3090
 2657.2464    10.0540     2.1210     4.3790
 2657.3988    10.0290     2.1200     5.0780
 2657.5512    10.0290     2.1240     5.0720
 2657.7036    10.0330     2.1350     4.5170
 2657.8560    10.0460     2.1260     4.7010
 2658.0084    10.0610     2.1080     4.8850
 2658.1608    10.0710     2.1000     4.5100
 2658.3132    10.0670     2.1110     4.3910
 2658.4656    10.0510     2.1300     4.6980
 2658.6180    10.0540     2.1470     5.1080
 2658.7704    10.0550     2.1580     5.3960
 2658.9228    10.0460     2.1470     5.1200
 2659.0752    10.0540     2.1370     4.2180
 2659.2276    10.0640     2.1340     3.8720
 2659.3800    10.0280     2.1430     4.1790
 2659.5324    10.0050     2.1390     3.9030
 2659.6848    10.0060     2.1320     3.6090
 2659.8372    10.0230     2.1300     4.0260
 2659.9896    10.0480     2.1260     4.9030
 2660.1420    10.0720     2.1300     5.6480
 2660.2944    10.0610     2.1370     5.7200
 2660.4468    10.0300     2.1430     5.0790
 2660.5992    10.0070     2.1450     4.6210
 2660.7516    10.0080     2.1430     4.9020
 2660.9040    10.0220     2.1480     5.2040
 2661.0564    10.0450     2.1480     5.0570
 2661.2088    10.0650     2.1400     4.9210
 2661.3612    10.0670     2.1410     5.2690
 2661.5136    10.0540     2.1450     5.5450
 2661.6660    10.0250     2.1530     5.2670
 2661.8184    10.0060     2.1440     5.1040
 2661.9708    10.0110     2.1340     5.0730
 2662.1232    10.0380     2.1330     4.5310
 2662.2756    10.0790     2.1350     4.2920
 2662.4280    10.0840     2.1360     4.5530
 2662.5804    10.0660     2.1340     5.2820
 2662.7328    10.0510     2.1420     5.3810
 2662.8852    10.0450     2.1370     5.2210
 2663.0376    10.0460     2.1290     5.4250
 2663.1900    10.0610     2.1200     5.7670
 2663.3424    10.0730     2.1050     5.8650
 2663.4948    10.0790     2.0970     5.7650
 2663.6472    10.0750     2.1060     5.5960
 2663.7996    10.0580     2.1150     5.0120
 2663.9520    10.0480     2.1140     4.9510
 2664.1044    10.0510     2.1150     5.0450
 2664.2568    10.0650     2.1180     5.2390
 2664.4092    10.0800     2.1270     5.5820
 2664.5616    10.0900     2.1370     5.4950
 2664.7140    10.0900     2.1350     4.4970
 2664.8664    10.0550     2.1290     3.8810
 2665.0188    10.0330     2.1270     3.9060
 2665.1712    10.0340     2.1320     3.7940
 2665.3236    10.0480     2.1400     3.2080
 2665.4760    10.0660     2.1420     3.7560
 2665.6284    10.0890     2.1420     4.4800
 2665.7808    10.0810     2.1430     4.6830
 2665.9332    10.0260     2.1370     4.3000
 2666.0856     9.9940     2.1340     4.1310
 2666.2380     9.9810     2.1240     4.3760
 2666.3904     9.9880     2.1240     4.9020
 2666.5428    10.0300     2.1390     5.2330
 2666.6952    10.0540     2.1510     5.1960
 2666.8476    10.0500     2.1480     4.9400
 2667.0000    10.0110     2.1350     4.7250
 2667.1524     9.9860     2.1170     4.7800
 2667.3048     9.9850     2.1110     5.1480
 2667.4572    10.0050     2.1110     5.7110
 2667.6096    10.0340     2.1120     5.9910
 2667.7620    10.0610     2.1320     5.9330
 2667.9144    10.0780     2.1350     5.3540
 2668.0668    10.0450     2.1320     4.5740
 2668.2192    10.0080     2.1290     4.1730
 2668.3716    10.0030     2.1400     4.3610
 2668.5240    10.0180     2.1440     5.0560
 2668.6764    10.0370     2.1430     5.3640
 2668.8288    10.0520     2.1530     5.2470
 2668.9812    10.0610     2.1580     5.0450
 2669.1336    10.0380     2.1600     4.9750
 2669.2860    10.0110     2.1620     4.8620
 2669.4384    10.0120     2.1610     4.2370
 2669.5908    10.0180     2.1620     4.2710
 2669.7432    10.0360     2.1580     4.7600
 2669.8956    10.0560     2.1540     4.9310
 2670.0480    10.0680     2.1460     4.8470
 2670.2004    10.0540     2.1450     4.8620
 2670.3528    10.0370     2.1400     5.5930
 2670.5052    10.0370     2.1340     5.5300
 2670.6576    10.0460     2.1440     4.9960
 2670.8100    10.0580     2.1580     4.6530
 2670.9624    10.0740     2.1700     4.5080
 2671.1148    10.0820     2.1790     4.5630
 2671.2672    10.0820     2.1780     4.7460
 2671.4196    10.0400     2.1810     4.8450
 2671.5720    10.0290     2.1730     4.7480
 2671.7244    10.0350     2.1720     4.7020
 2671.8768    10.0540     2.1730     4.7350
 2672.0292    10.0800     2.1710     4.4710
 2672.1816    10.1010     2.1700     4.4260
 2672.3340    10.1060     2.1660     4.8180
 2672.4864    10.0820     2.1640     5.5860
 2672.6388    10.0460     2.1600     6.0910
 2672.7912    10.0300     2.1590     6.1830
 2672.9436    10.0330     2.1540     5.9780
 2673.0960    10.0550     2.1570     5.8670
 2673.2484    10.0870     2.1600     5.5540
 2673.4008    10.1190     2.1580     4.7420
 2673.5532    10.1140     2.1570     5.2450
 2673.7056    10.0830     2.1700     5.0240
 2673.8580    10.0580     2.1700     4.0010
 2674.0104    10.0530     2.1640     3.7740
 2674.1628    10.0650     2.1550     4.0340
 2674.3152    10.0770     2.1350     4.2880
 2674.4676    10.0660     2.1290     4.6620
 2674.6200    10.0410     2.1360     4.3530
 2674.7724    10.0300     2.1570     4.2450
 2674.9248    10.0300     2.1620     4.2900
 2675.0772    10.0390     2.1470     4.5310
 2675.2296    10.0530     2.1360     4.7560
 2675.3820    10.0760     2.1330     4.9410
 2675.5344    10.0860     2.1430     5.1730
 2675.6868    10.0850     2.1370     5.7440
 2675.8392    10.0730     2.1320     6.1860
 2675.9916    10.0550     2.1330     5.5690
 2676.1440    10.0460     2.1450     5.2910
 2676.2964    10.0500     2.1570     5.6430
 2676.4488    10.0570     2.1600     6.0350
