~VERSION INFORMATION
VERS.                                                 2.0:   CWLS Log ASCII Standard-VERSION 2.0
WRAP.                                                  NO:   One line per depth step
~Well Information Block
STRT.M                                          1406.0424:   Top Depth
STOP.M                                          1903.9332:   Bottom Depth
STEP.M                                             .15240:   Depth Increment
NULL.                                            -999.250:   Null Value
FLD .                                          EEMSKANAAL:   Field Name
WELL.                                       EEMSKANAAL- 1:   NAME
EDF .m                                               5.58:   ELEV DRILL FLOOR
EPD .                                                   0:   ELEV PERM DATUM
EGL .m                                                -.9:   GROUND LEVEL
LMF .                                                  DF:   LOGS MEAS FROM
COMP.                                                 NAM:   OPERATOR
PDAT.                                                 NAP:   PERM DATUM
SPUD.                                          1970/11/08:   SPUD DATE
UWBI.                                      11000074112201:   UWBI
WELL.                                       EEMSKANAAL- 1:   HOLE NAME
~PARAMETER INFORMATION (log)
LNAM.                                RUN 07 RAW OH 9.625":   NAME
LTYP.                                                 07R:   LOG TYPE
LVSN.                                                   1:   LOG VERSION
BS  .5/8"                                               9:   BIT SIZE
BLI .M                                               2950:   BOTTOM DEPTH LOGGED
BHIS.                                            RCCCCCCC:   BRIEF HISTORY
FHIS.              RAW-TIGA/COPY/COPY/COPY/COPY/COPY/COPY:   FULL HISTORY
MRT .                                                    :   MAX REC TEMP
DFT .                                          SALT SPERS:   MUD TYPE
RMS .                                               0.074:   RM
MST .C                                                 26:   RM TEMP
RMCS.                                               0.144:   RMC
MCST.C                                                 17:   RMC TEMP
RMFS.                                               0.059:   RMF
MFST.C                                                 26:   RMF TEMP
TCS .                                                 N/A:   TIME SINCE CIRCLN
TLI .M                                             1406.5:   TOP DEPTH LOGGED
~Curve Information Block
#MNEM.UNIT                                        API CODE    No Description
#=========                                        ========    == ===========
DEPT.M                                       00 001 00 00:     1  DEPTH
LL9D.OHMM                                                :     2  Dual Laterolog 9 deep
LL9S.OHMM                                                :     3  Dual Laterolog 9 shallow
MSFL.OHMM                                                :     4  MICRO SPHERICALLY FOCUSSED LOG
~ASCII
# ...
 1572.4632     1.6550     1.6590     1.5600
 1572.6156     1.6920     1.6190     1.8280
 1572.7680     1.5650     1.4540     2.0120
 1572.9204     1.4180     1.4270     1.9530
 1573.0728     1.4090     1.4320     2.0000
 1573.2252     1.4360     1.4870     1.9990
 1573.3776     1.4640     1.5530     1.6200
 1573.5300     1.5070     1.5900     1.5250
 1573.6824     1.5600     1.6110     1.5200
 1573.8348     1.5730     1.6200     1.5630
 1573.9872     1.5580     1.6190     1.7390
 1574.1396     1.5290     1.5970     1.8460
 1574.2920     1.5070     1.5600     1.8480
 1574.4444     1.4880     1.5160     1.7320
 1574.5968     1.4670     1.4790     1.5940
 1574.7492     1.4600     1.4700     1.6190
 1574.9016     1.4680     1.4800     1.6380
 1575.0540     1.5050     1.4980     1.5490
 1575.2064     1.5400     1.4990     1.6890
 1575.3588     1.5330     1.4940     1.7350
 1575.5112     1.4740     1.4860     1.7270
 1575.6636     1.4070     1.4770     1.6850
 1575.8160     1.3770     1.4670     1.6820
 1575.9684     1.3750     1.4640     1.6880
 1576.1208     1.3780     1.4630     1.4720
 1576.2732     1.3820     1.4590     1.5950
 1576.4256     1.3820     1.4540     1.7540
 1576.5780     1.3860     1.4530     1.7310
 1576.7304     1.4010     1.4580     1.5760
 1576.8828     1.4110     1.4910     1.8220
 1577.0352     1.5140     1.5840     1.9760
 1577.1876     1.6350     1.6930     1.9720
 1577.3400     1.6900     1.7450     2.1030
 1577.4924     1.7080     1.7630     2.2130
 1577.6448     1.7070     1.7620     2.0280
 1577.7972     1.6810     1.7600     2.0030
 1577.9496     1.6400     1.7540     2.0890
 1578.1020     1.6290     1.7500     2.0120
 1578.2544     1.6560     1.7570     1.9180
 1578.4068     1.7080     1.7710     1.8920
 1578.5592     1.7470     1.7930     2.0810
 1578.7116     1.7460     1.7970     2.1330
 1578.8640     1.6990     1.7520     2.1830
 1579.0164     1.5800     1.6370     2.2500
 1579.1688     1.4990     1.5500     2.1140
 1579.3212     1.4650     1.5200     1.8820
 1579.4736     1.4330     1.4990     1.6380
 1579.6260     1.3780     1.4690     1.7420
 1579.7784     1.3100     1.4130     1.3720
 1579.9308     1.3030     1.3490     1.3960
 1580.0832     1.3310     1.3210     1.6050
 1580.2356     1.4120     1.3660     1.3860
 1580.3880     1.6250     1.4540     1.2200
 1580.5404     1.8750     1.6110     1.4460
 1580.6928     2.0830     1.9420     2.0080
 1580.8452     2.1550     2.1720     2.0570
 1580.9976     2.1210     2.1440     1.8540
 1581.1500     1.9130     1.9230     2.0750
 1581.3024     1.6940     1.7740     2.4000
 1581.4548     1.6010     1.6470     2.0630
 1581.6072     1.5620     1.5830     1.8540
 1581.7596     1.5890     1.5870     1.6470
 1581.9120     1.6280     1.6210     1.5850
 1582.0644     1.6210     1.6340     1.7210
 1582.2168     1.5500     1.6070     1.9400
 1582.3692     1.5280     1.5660     1.7850
 1582.5216     1.5290     1.5560     1.5860
 1582.6740     1.5600     1.5670     1.5010
 1582.8264     1.6240     1.5750     1.5200
 1582.9788     1.6860     1.5910     1.5580
 1583.1312     1.7010     1.5960     1.5770
 1583.2836     1.6200     1.5910     1.5770
 1583.4360     1.5100     1.5480     1.7220
 1583.5884     1.4100     1.3690     1.6190
 1583.7408     1.2610     1.2700      .9890
 1583.8932     1.2190     1.2300      .7280
 1584.0456     1.2130     1.2140     1.2890
 1584.1980     1.2130     1.2110     1.3500
 1584.3504     1.2120     1.2080     1.0070
 1584.5028     1.2030     1.1960      .6850
 1584.6552     1.1780     1.1720      .3550
 1584.8076     1.1250     1.1340      .3560
 1584.9600     1.0700     1.0850      .5460
 1585.1124     1.0120     1.0340     1.0440
 1585.2648      .9570      .9740      .4600
 1585.4172      .9040      .9220      .2710
 1585.5696      .8700      .8830      .2730
 1585.7220      .8620      .8660      .3180
 1585.8744      .8620      .8570      .1690
 1586.0268      .8710      .8560      .2160
 1586.1792      .8890      .8600      .1740
 1586.3316      .9010      .8610      .1550
 1586.4840      .8970      .8540      .1660
 1586.6364      .8540      .8100      .2000
 1586.7888      .7340      .7330      .1820
 1586.9412      .6690      .6600      .1110
 1587.0936      .6640      .6410      .1050
 1587.2460      .7130      .6650      .1050
 1587.3984      .8020      .7870      .1070
 1587.5508     1.1040     1.4330      .1360
 1587.7032     1.8670     1.6540      .4170
 1587.8556     1.8930     1.6800     1.7040
 1588.0080     1.8490     1.6130     1.7880
 1588.1604     1.7220     1.5170     1.7250
 1588.3128     1.6380     1.4480     1.7920
 1588.4652     1.6170     1.4190     1.7700
 1588.6176     1.6250     1.4310     1.6920
 1588.7700     1.6850     1.4650     1.6480
 1588.9224     1.7210     1.5180     1.6360
 1589.0748     1.7270     1.5700     1.6370
 1589.2272     1.7280     1.6120     1.7410
 1589.3796     1.7240     1.6270     1.7570
 1589.5320     1.7150     1.6300     1.7450
 1589.6844     1.6900     1.6180     1.7970
 1589.8368     1.6460     1.5990     1.6300
 1589.9892     1.6000     1.5680     1.5600
 1590.1416     1.5070     1.5140     1.6710
 1590.2940     1.3900     1.4480     1.5820
 1590.4464     1.3010     1.3540     1.5040
 1590.5988     1.2300     1.2470     1.4440
 1590.7512     1.1380     1.1350     1.0500
 1590.9036     1.1130     1.0970      .2420
 1591.0560     1.2320     1.2070      .1140
 1591.2084     1.3940     1.3910      .1850
 1591.3608     1.5290     1.5270      .8420
 1591.5132     1.6450     1.6650      .7520
 1591.6656     1.7700     1.7920     1.1120
 1591.8180     1.9560     1.8510     1.9960
 1591.9704     1.9690     1.8600     1.9680
 1592.1228     1.8860     1.7850     1.8350
 1592.2752     1.7730     1.6860     1.5270
 1592.4276     1.7040     1.6450     1.3200
 1592.5800     1.6940     1.6310     1.7090
 1592.7324     1.7420     1.6120     1.8020
 1592.8848     1.7910     1.5880     1.7330
 1593.0372     1.7740     1.5520     1.7560
 1593.1896     1.6360     1.4500     1.8050
 1593.3420     1.3330     1.1200     1.0170
 1593.4944     1.0290      .8470      .1440
 1593.6468      .8250      .7110      .1090
 1593.7992      .7320      .6530      .1090
 1593.9516      .7180      .6470      .1090
 1594.1040      .7230      .6510      .1090
 1594.2564      .7410      .6610      .1100
 1594.4088      .7670      .6700      .1140
 1594.5612      .8030      .6880      .1080
 1594.7136      .8440      .7110      .1070
 1594.8660      .8670      .7420      .1100
 1595.0184      .8740      .7470      .1360
 1595.1708      .8360      .7150      .1240
 1595.3232      .8250      .7000      .1090
 1595.4756      .8330      .7000      .1090
 1595.6280      .8370      .7010      .1090
 1595.7804      .8290      .6880      .1090
 1595.9328      .7910      .6400      .1150
 1596.0852      .7980      .6470      .1140
 1596.2376      .9030      .7180      .1210
 1596.3900     1.1860      .8280      .1410
 1596.5424     1.4740     1.0340      .4600
 1596.6948     1.8560     1.3360     1.2580
 1596.8472     1.8510     1.5450     1.4750
 1596.9996     1.7620     1.5410     1.4790
 1597.1520     1.6540     1.4670     1.1780
 1597.3044     1.5700     1.4050      .7940
 1597.4568     1.5230     1.3830      .9240
 1597.6092     1.4960     1.3930     1.0820
 1597.7616     1.5010     1.4390     1.1040
 1597.9140     1.5420     1.5160     1.4120
 1598.0664     1.5860     1.5870     1.7180
 1598.2188     1.5920     1.6110     1.7660
 1598.3712     1.5830     1.6110     1.6090
 1598.5236     1.6010     1.6390     1.5400
 1598.6760     2.0630     1.8980     1.9850
 1598.8284     2.5920     2.4110     2.7070
 1598.9808     2.8580     2.8470     2.6670
 1599.1332     3.1790     3.2560     3.8560
 1599.2856     3.3870     3.4920     6.4530
 1599.4380     3.3320     3.3570     4.8870
 1599.5904     3.2340     3.2900     9.7990
 1599.7428     3.2200     3.2970     5.8800
 1599.8952     3.3390     3.4400     2.8600
 1600.0476     3.6710     3.7790     3.1310
