~VERSION INFORMATION
VERS.                                                 2.0:   CWLS Log ASCII Standard-VERSION 2.0
WRAP.                                                  NO:   One line per depth step
~Well Information Block
STRT.M                                           836.5236:   Top Depth
STOP.M                                          2800.0452:   Bottom Depth
STEP.M                                             .15240:   Depth Increment
NULL.                                            -999.250:   Null Value
FLD .                                          EEMSKANAAL:   Field Name
WELL.                                       EEMSKANAAL- 2:   NAME
APD .M                                               5.62:   ABOVE PERM DATUM
CTRY.                                                  NE:   COUNTRY
EDF .m                                               5.62:   ELEV DRILL FLOOR
EPD .                                                   0:   ELEV PERM DATUM
EGL .m                                              -1.06:   GROUND LEVEL
LMF .                                                  DF:   LOGS MEAS FROM
COMP.                                                 NAM:   OPERATOR
PDAT.                                                 NAP:   PERM DATUM
SPUD.                                          1971/03/17:   SPUD DATE
STAT.                                           Unknown m:   STATE
UWBI.                                      11000074112601:   UWBI
WELL.                                       EEMSKANAAL- 2:   HOLE NAME
~PARAMETER INFORMATION (log)
LNAM.                              RUN 04 RAW CH OCT 2002:   NAME
LTYP.                                                 04R:   LOG TYPE
LVSN.                                                   1:   LOG VERSION
BHT .DEGC                                             101:   BH TEMP
BS  .IN                                             9.625:   BIT SIZE
BHS .                                                CASE:   BOREHOLE STATUS
BLI .M                                               2800:   BOTTOM DEPTH LOGGED
BHIS.                                                  RC:   BRIEF HISTORY
CS  .IN                                             7.625:   CASING SIZE
CSW .LB/F                                            52.3:   CASING WEIGHT
R1  .                                 Log correlated with:   COMMENT  1
R2  .       Compensated formation density log 1-April-197:   COMMENT  2
R4  .          Weight expendable tubing 18.6 lbs per foot:   COMMENT  4
R5  .              Weight 7 5/8" casing 33.7 lbs per foot:   COMMENT  5
R7  .                                      Set CSID 5.98":   COMMENT  7
R8  .                   Set CWEI 33.7 + 18.6  =  52.3 LBS:   COMMENT  8
R9  .                                    Set CSIZ 7.625 ":   COMMENT  9
DMF .                                                 ORT:   DRILL MEAS FROM
EDF .M                                               5.62:   ELEV DRILL FLOOR
ELZ .                                              5.62 M:   ELEVATION LOG ZERO
ENGI.                                         M. Riedeman:   ENGINEER
FHIS.                                            RAW-DLIS:   FULL HISTORY
HIDE.                                               RST-C:   HEADER ID
LCNM.                                        Schlumberger:   LOGGING CONTRACTOR
LMF .                                                 ORT:   LOGS MEAS FROM
MATR.                                                LIME:   MATRIX
MRT .DEGC                                             101:   MAX REC TEMP
DFT .                                                 gas:   MUD TYPE
CN  .                                                 NAM:   OPERATOR
RUN .                                                   1:   RUN
DATE.                                          2002/10/25:   RUN DATE
RW  .OHMM                                               1:   RW
STEM.DEGC                                              18:   SURFACE TEMPERATURE
TLAB.                                                1100:   TIME LOGGER ON BOT
TLI .M                                                840:   TOP DEPTH LOGGED
WITN.                           P van der Zee & S. Yntema:   WITNESS
~Curve Information Block
#MNEM.UNIT                                        API CODE    No Description
#=========                                        ========    == ===========
DEPT.M                                       00 001 00 00:     1  DEPTH
AIRB.                                                    :     2  RST Air Borehole Diagnostic
CIRF.                                                    :     3  RST Capture to Inelastic Ratio Far
CIRN.                                                    :     4  RST Capture to Inelastic Ratio Near
FBAC.CPS                                                 :     5  Far Background Count Rate
GR.API                                                   :     6  Gamma Ray
IRAT.                                                    :     7  RST Inelastic Ratio
NBAC.CPS                                                 :     8  Near Background Count Rate
SBNA.CU                                                  :     9  RST Sigma Borehole Near Apparent
SFNA.CU                                                  :    10  RST Sigma Formation Near Apparent
SIGM.CU                                                  :    11  Formation Sigma (Neutron Capture Cross S
TPHI.FRAC                                                :    12  Thermal Decay Porosity
~ASCII
# ...
 1226.9724     1.0000      .4803      .2592  3371.6924    17.0417      .8356  2151.2146    83.4396    37.1202    49.0507      .3084
 1227.1248     1.0000      .4896      .2783  3393.3501    16.0456      .8401  2130.3589    86.9306    35.6395    48.5160      .3028
 1227.2772     1.0000      .4987      .2796  3401.7725    15.2922      .8372  2124.6050    87.2522    34.5248    47.8161      .3011
 1227.4296     1.0000      .4911      .2822  3414.8921    14.2070      .8356  2120.0593    82.4298    34.6631    47.0025      .3095
 1227.5820     1.0000      .4984      .2727  3413.7827    14.1810      .8344  2111.6311    84.7207    35.4533    46.4103      .2970
 1227.7344     1.0000      .4915      .2837  3425.5476    14.3768      .8420  2107.2190    89.7082    35.8675    46.5150      .2880
 1227.8868     1.0000      .5003      .2786  3415.9211    14.7886      .8486  2118.9839    88.1416    32.3125    46.0443      .2776
 1228.0392     1.0000      .4965      .2834  3403.4883    14.8742      .8414  2123.7966    86.5095    34.8305    46.1375      .2886
 1228.1916     1.0000      .5073      .2817  3412.7212    15.4586      .8361  2141.7112    85.4347    34.1757    45.4781      .2876
 1228.3440     1.0000      .5037      .2764  3412.1868    15.2941      .8289  2134.0908    87.0292    34.7505    45.6067      .2924
 1228.4964     1.0000      .4991      .2777  3415.2617    15.1851      .8262  2158.6897    82.9121    34.5228    44.7193      .2900
 1228.6488     1.0000      .5277      .2842  3387.4531    15.2792      .8259  2145.0535    84.3542    36.2798    44.5539      .3011
 1228.8012     1.0000      .5180      .2850  3364.0576    15.2898      .8294  2123.1282    80.1372    35.5596    44.8013      .3000
 1228.9536     1.0000      .4957      .2820  3357.1057    14.6355      .8389  2169.2512    83.8968    34.2691    45.1221      .2969
 1229.1060     1.0000      .5160      .2795  3358.4250    14.8402      .8390  2184.2244    86.5404    34.1379    45.1006      .2915
 1229.2584     1.0000      .5173      .2902  3365.2649    14.5309      .8390  2096.0784    83.9097    34.2570    44.7642      .3108
 1229.4108     1.0000      .4881      .2832  3352.8401    14.3727      .8355  2025.4902    80.4175    33.6666    44.6155      .3055
 1229.5632     1.0000      .4966      .2903  3340.5408    15.0899      .8344  1858.8235    92.3311    34.1661    44.5941      .2868
 1229.7156     1.0000      .5048      .2622  3353.9099    15.8006      .8286  2477.9412    93.7858    35.6898    44.9322      .2593
 1229.8680     1.0000      .5099      .2812  3329.3096    15.7114      .8278  2106.8184    88.2571    33.8723    45.2471      .2666
 1230.0204     1.0000      .5023      .2876  3348.9624    15.5451      .8271  2101.4707    90.4149    32.8523    45.6807      .2884
 1230.1728     1.0000      .5114      .2919  3325.4333    16.1607      .8301  2089.4387    87.1348    33.9246    45.8339      .2892
 1230.3252     1.0000      .5174      .2906  3349.4978    16.0714      .8329  2104.9468    92.3013    35.3420    45.9831      .2800
 1230.4776     1.0000      .5031      .2828  3378.2415    16.2498      .8346  2125.8025    93.5276    34.4295    45.9839      .2578
 1230.6300     1.0000      .5028      .2836  3379.8455    16.6066      .8355  2066.9788    95.1643    35.3282    45.6358      .2510
 1230.7824     1.0000      .5043      .2776  3352.5728    16.6868      .8380  2063.2354    89.5717    33.8291    45.3247      .2407
 1230.9348     1.0000      .5137      .2770  3357.2517    16.4377      .8355  2089.4387    93.2171    35.9132    44.6946      .2351
 1231.0872     1.0000      .5129      .2844  3361.1208    16.4080      .8321  2098.7969    93.4508    33.5699    44.2460      .2321
 1231.2396     1.0000      .5255      .2828  3393.3318    15.1550      .8310  2104.6790    89.9523    32.7341    43.9458      .2334
 1231.3920     1.0000      .5220      .2806  3376.2275    14.6198      .8332  2106.2834    93.5881    33.5440    43.9360      .2417
 1231.5444     1.0000      .4887      .2782  3413.2522    15.0627      .8352  2116.0430    93.0940    35.2596    43.5511      .2504
 1231.6968     1.0000      .5063      .2878  3401.8882    15.1367      .8351  2114.9734    91.6759    32.0906    43.9266      .2586
 1231.8492     1.0000      .4982      .2743  3426.3618    13.8249      .8379  2126.0164    92.2306    35.9735    43.9269      .2652
 1232.0016     1.0000      .5040      .2817  3407.6453    14.2781      .8398  2132.9685    86.9334    34.0283    44.8214      .2495
 1232.1540     1.0000      .4952      .2761  3401.6292    14.6349      .8436  2127.4922    96.4235    34.3113    44.7978      .2483
 1232.3064     1.0000      .4819      .2665  3367.2791    14.9025      .8390  2138.8555    90.3297    34.7092    45.6881      .2449
 1232.4588     1.0000      .4692      .2618  3414.4717    14.3667      .8394  2107.3049    90.8837    34.6528    45.7040      .2714
 1232.6112     1.0000      .4929      .2793  3395.2202    15.6404      .8298  2098.0803    86.1526    34.0486    46.0853      .2779
 1232.7636     1.0000      .5065      .2829  3405.3806    14.8549      .8345  2114.5242    89.3355    33.4473    45.2574      .2747
 1232.9160     1.0000      .5231      .2846  3374.7422    15.1505      .8333  2090.5938    92.1140    34.2082    45.3326      .2650
 1233.0684     1.0000      .5110      .2876  3417.1133    14.5261      .8383  2081.2354    85.5693    34.1199    44.8995      .2636
 1233.2208     1.0000      .5282      .2853  3386.0977    14.5261      .8468  2081.7703    89.1308    33.7098    45.1693      .2676
 1233.3732     1.0000      .4980      .2939  3395.4556    14.2490      .8487  2077.0911    92.4050    34.3825    44.5513      .2748
 1233.5256     1.0000      .5154      .3001  3403.9814    15.3024      .8589  2043.8555    90.0026    32.5671    44.6661      .2837
 1233.6780     1.0000      .5132      .3023  3444.3474    14.1148      .8510  2023.6683    89.6419    32.3570    44.1774      .2821
 1233.8304     1.0000      .5115      .2925  3453.0374    13.6711      .8456  2050.5347    91.2088    34.3124    44.1180      .2662
 1233.9828     1.0000      .4625      .2548  3489.5264    14.9171      .8368  2053.8767    93.1893    33.3091    44.7288      .2440
 1234.1352     1.0000      .4623      .2603  3455.9475    15.1693      .8412  2078.4756    95.4377    32.2736    45.0363      .2414
 1234.2876     1.0000      .5077      .2777  3447.7922    13.5621      .8429  2085.8289    93.2670    34.4931    45.3382      .2556
 1234.4400     1.0000      .5052      .2909  3436.9717    13.7405      .8446  2050.0000    83.9955    33.4716    44.9419      .2842
 1234.5924     1.0000      .5301      .2988  3455.1775    14.2766      .8430  2072.8611    83.7803    33.3548    45.1747      .3082
 1234.7448     1.0000      .5218      .2978  3430.4534    12.8494      .8383  2068.6897    85.1422    33.7791    45.7396      .3173
 1234.8972     1.0000      .5122      .3007  3444.4907    12.2250      .8381  2082.0586    88.1969    34.1320    46.3199      .3138
 1235.0496     1.0000      .5084      .2957  3432.4585    13.5614      .8364  2090.0801    89.2893    35.6152    45.8503      .2908
 1235.2020     1.0000      .5120      .2815  3409.2185    13.7421      .8413  2109.5986    92.8627    35.0290    45.4105      .2796
 1235.3544     1.0000      .5066      .2839  3371.1169    13.8281      .8412  2110.2671    86.9619    33.5971    45.3919      .2637
 1235.5068     1.0000      .4856      .2800  3343.7102    14.4557      .8426  2096.8982    94.8776    32.8604    45.8906      .2687
 1235.6592     1.0000      .4990      .2837  3310.0205    15.6592      .8463  2112.2725    91.9278    32.1728    46.2076      .2656
 1235.8116     1.0000      .5055      .2789  3313.3625    15.0371      .8494  2097.8340    85.2812    33.1058    46.4802      .2668
 1235.9640     1.0000      .5268      .2911  3333.7725    15.3024      .8548  2077.1121    87.2384    34.2304    45.6889      .2675
 1236.1164     1.0000      .5271      .3014  3343.5234    15.1272      .8344  2097.1655    88.2457    35.0551    45.1127      .2779
