~VERSION INFORMATION
VERS.                                                 2.0:   CWLS Log ASCII Standard-VERSION 2.0
WRAP.                                                  NO:   One line per depth step
~Well Information Block
STRT.M                                           836.5236:   Top Depth
STOP.M                                          2800.0452:   Bottom Depth
STEP.M                                             .15240:   Depth Increment
NULL.                                            -999.250:   Null Value
FLD .                                          EEMSKANAAL:   Field Name
WELL.                                       EEMSKANAAL- 2:   NAME
APD .M                                               5.62:   ABOVE PERM DATUM
CTRY.                                                  NE:   COUNTRY
EDF .m                                               5.62:   ELEV DRILL FLOOR
EPD .                                                   0:   ELEV PERM DATUM
EGL .m                                              -1.06:   GROUND LEVEL
LMF .                                                  DF:   LOGS MEAS FROM
COMP.                                                 NAM:   OPERATOR
PDAT.                                                 NAP:   PERM DATUM
SPUD.                                          1971/03/17:   SPUD DATE
STAT.                                           Unknown m:   STATE
UWBI.                                      11000074112601:   UWBI
WELL.                                       EEMSKANAAL- 2:   HOLE NAME
~PARAMETER INFORMATION (log)
LNAM.                              RUN 04 RAW CH OCT 2002:   NAME
LTYP.                                                 04R:   LOG TYPE
LVSN.                                                   1:   LOG VERSION
BHT .DEGC                                             101:   BH TEMP
BS  .IN                                             9.625:   BIT SIZE
BHS .                                                CASE:   BOREHOLE STATUS
BLI .M                                               2800:   BOTTOM DEPTH LOGGED
BHIS.                                                  RC:   BRIEF HISTORY
CS  .IN                                             7.625:   CASING SIZE
CSW .LB/F                                            52.3:   CASING WEIGHT
R1  .                                 Log correlated with:   COMMENT  1
R2  .       Compensated formation density log 1-April-197:   COMMENT  2
R4  .          Weight expendable tubing 18.6 lbs per foot:   COMMENT  4
R5  .              Weight 7 5/8" casing 33.7 lbs per foot:   COMMENT  5
R7  .                                      Set CSID 5.98":   COMMENT  7
R8  .                   Set CWEI 33.7 + 18.6  =  52.3 LBS:   COMMENT  8
R9  .                                    Set CSIZ 7.625 ":   COMMENT  9
DMF .                                                 ORT:   DRILL MEAS FROM
EDF .M                                               5.62:   ELEV DRILL FLOOR
ELZ .                                              5.62 M:   ELEVATION LOG ZERO
ENGI.                                         M. Riedeman:   ENGINEER
FHIS.                                            RAW-DLIS:   FULL HISTORY
HIDE.                                               RST-C:   HEADER ID
LCNM.                                        Schlumberger:   LOGGING CONTRACTOR
LMF .                                                 ORT:   LOGS MEAS FROM
MATR.                                                LIME:   MATRIX
MRT .DEGC                                             101:   MAX REC TEMP
DFT .                                                 gas:   MUD TYPE
CN  .                                                 NAM:   OPERATOR
RUN .                                                   1:   RUN
DATE.                                          2002/10/25:   RUN DATE
RW  .OHMM                                               1:   RW
STEM.DEGC                                              18:   SURFACE TEMPERATURE
TLAB.                                                1100:   TIME LOGGER ON BOT
TLI .M                                                840:   TOP DEPTH LOGGED
WITN.                           P van der Zee & S. Yntema:   WITNESS
~Curve Information Block
#MNEM.UNIT                                        API CODE    No Description
#=========                                        ========    == ===========
DEPT.M                                       00 001 00 00:     1  DEPTH
AIRB.                                                    :     2  RST Air Borehole Diagnostic
CIRF.                                                    :     3  RST Capture to Inelastic Ratio Far
CIRN.                                                    :     4  RST Capture to Inelastic Ratio Near
FBAC.CPS                                                 :     5  Far Background Count Rate
GR.API                                                   :     6  Gamma Ray
IRAT.                                                    :     7  RST Inelastic Ratio
NBAC.CPS                                                 :     8  Near Background Count Rate
SBNA.CU                                                  :     9  RST Sigma Borehole Near Apparent
SFNA.CU                                                  :    10  RST Sigma Formation Near Apparent
SIGM.CU                                                  :    11  Formation Sigma (Neutron Capture Cross S
TPHI.FRAC                                                :    12  Thermal Decay Porosity
~ASCII
# ...
 1487.2716     1.0000      .9876      .5054  3509.1790     9.4483      .8746  2109.4919    71.6365    24.3081    21.7303      .2118
 1487.4240     1.0000      .9651      .5163  3475.9126     9.3533      .8779  2089.6787    68.8696    26.0814    22.1112      .2049
 1487.5764     1.0000      .9723      .5095  3442.7576    10.1272      .8854  2078.3154    75.6308    25.1759    22.2789      .2059
 1487.7288     1.0000     1.0044      .5248  3417.9141    11.7657      .8831  2057.4597    66.3072    25.0103    21.9819      .1920
 1487.8812     1.0000     1.0154      .5184  3416.5771    12.4857      .8838  2049.7058    72.8238    23.6820    21.2711      .1836
 1488.0336     1.0000     1.0173      .5240  3409.3579    12.6795      .8812  2072.5667    74.3062    24.9140    20.3470      .1592
 1488.1860     1.0000     1.0429      .5317  3382.9939    12.1620      .8844  2068.8232    74.5600    23.8717    19.3894      .1478
 1488.3384     1.0000     1.0529      .5135  3360.2664    11.0409      .8864  2056.2295    72.0507    23.3976    18.6975      .1361
 1488.4908     1.0000     1.0326      .5199  3335.1328    10.3328      .8849  2062.9138    72.0049    23.3905    18.2491      .1268
 1488.6432     1.0000     1.0263      .4951  3337.2944    10.3352      .8808  2064.5181    75.2341    23.4546    18.0355      .1235
 1488.7956     1.0000     1.0314      .4910  3344.4954    11.0230      .8749  2078.3955    69.5048    23.3566    17.8600      .1195
 1488.9480     1.0000     1.0342      .5015  3344.4954    11.0511      .8790  2072.5132    72.5499    24.0424    17.5168      .1146
 1489.1004     1.0000     1.0391      .5012  3363.2119    10.8786      .8780  2079.3582    75.4740    22.7627    17.3457      .1021
 1489.2528     1.0000     1.0592      .4984  3387.6860    11.1555      .8795  2086.1765    76.7704    22.6471    17.2071      .0992
 1489.4052     1.0000     1.0373      .5070  3398.6484     9.4896      .8766  2117.1924    73.6796    23.1983    17.2857      .0990
 1489.5576     1.0000     1.0441      .4966  3410.0120     8.7866      .8798  2118.9304    77.7835    22.8210    17.1116      .1071
 1489.7100     1.0000     1.0242      .5032  3423.9155     8.3273      .8857  2106.8984    71.6753    22.8299    17.2116      .1159
 1489.8624     1.0000     1.0310      .5096  3421.9104     8.4998      .8843  2106.8984    70.7568    23.2043    17.3176      .1204
 1490.0148     1.0000     1.0057      .4920  3433.5732     8.1337      .8842  2140.4819    76.8303    23.2657    17.6620      .1244
 1490.1672     1.0000     1.0151      .5056  3458.0383     9.7197      .8834  2127.6475    75.1732    24.0209    17.8287      .1323
 1490.3196     1.0000      .9764      .5019  3470.4797     9.7348      .8883  2113.2092    70.1572    23.2491    17.8823      .1337
 1490.4720     1.0000     1.0133      .5109  3429.3032    10.6835      .8921  2123.7969    78.0027    23.2909    17.6544      .1342
 1490.6244     1.0000     1.0292      .5063  3416.6025    10.8702      .8809  2120.9949    72.2368    23.4965    17.7885      .1272
 1490.7768     1.0000     1.0373      .5012  3417.9397    11.5813      .8755  2120.3264    71.5822    23.2473    17.8657      .1330
 1490.9292     1.0000     1.0408      .5094  3437.7258    10.9706      .8756  2122.7061    71.0243    23.4276    17.8296      .1263
 1491.0816     1.0000     1.0492      .5087  3423.6890    10.7098      .8753  2103.9893    72.8566    23.3919    17.4972      .1188
 1491.2340     1.0000     1.0686      .4970  3380.7898    10.4510      .8811  2112.6792    73.1932    22.6074    17.2496      .1063
 1491.3864     1.0000     1.0577      .5287  3370.6062    10.3505      .8883  2104.3960    77.3138    23.2562    17.0836      .1038
 1491.5388     1.0000     1.0463      .5239  3372.0767    10.0143      .9030  2098.7810    76.0800    22.5808    17.0754      .1127
 1491.6912     1.0000     1.0288      .5055  3387.3088    10.4438      .9078  2068.1660    66.9394    23.3359    16.8762      .1218
 1491.8436     1.0000     1.0287      .5152  3366.0525    10.9636      .8977  2087.6846    70.4687    23.1838    16.6986      .1302
 1491.9960     1.0000     1.0409      .5037  3380.3486    11.3948      .8863  2076.9897    69.5750    21.9693    16.5019      .1305
 1492.1484     1.0000     1.0472      .5046  3387.7102    11.5673      .8741  2053.1926    65.3515    22.4343    16.6733      .1253
 1492.3008     1.0000     1.0332      .4892  3411.7744    11.0412      .8799  2073.6418    74.8653    23.0964    16.9077      .1134
 1492.4532     1.0000     1.0167      .5019  3407.2290    10.5817      .8857  2056.2620    75.1292    22.2516    16.9442      .1032
 1492.6056     1.0000     1.0326      .4849  3392.9150    10.7517      .8901  2060.8342    72.0978    21.5538    16.8696      .1101
 1492.7580     1.0000     1.0442      .5070  3407.7549    10.5792      .8809  2060.5669    68.9141    22.8099    16.9211      .1208
 1492.9104     1.0000     1.0123      .4919  3453.3279    10.4238      .8748  2060.8342    71.6479    22.6712    17.1883      .1230
 1493.0628     1.0000     1.0297      .4934  3433.5647    10.8550      .8764  2076.4705    74.0903    23.9661    17.1858      .1147
 1493.2152     1.0000     1.0334      .5061  3427.6821    10.7460      .8812  2091.5830    75.0642    23.2596    17.2323      .1161
 1493.3676     1.0000     1.0370      .4992  3427.0139     9.8818      .8928  2102.2783    69.8367    23.5414    17.1756      .1135
 1493.5200     1.0000     1.0198      .5160  3453.2173     9.9704      .8974  2093.5884    76.4151    23.2772    17.3586      .1205
 1493.6724     1.0000     1.0088      .5123  3435.8374    10.2121      .9073  2105.8879    74.3303    23.2310    17.4343      .1162
 1493.8248     1.0000     1.0132      .5175  3442.6643     9.6947      .9022  2117.2515    73.7598    23.1498    17.3804      .1122
 1493.9772     1.0000     1.0364      .4998  3452.0225     9.7474      .8968  2119.3904    76.2674    21.1252    17.1850      .1034
 1494.1296     1.0000     1.0457      .4998  3441.8618    10.2780      .8895  2102.0107    74.8148    22.4160    16.8202      .1043
 1494.2820     1.0000     1.0312      .5043  3439.1882    10.3619      .8938  2092.9199    70.3400    23.2072    16.9838      .1157
 1494.4344     1.0000     1.0282      .5132  3448.2791    10.2757      .8999  2077.3845    71.0068    21.6674    17.0742      .1195
 1494.5868     1.0000     1.0141      .5127  3452.2898    10.8046      .8967  2066.6895    75.7172    22.5828    17.1092      .1239
 1494.7392     1.0000     1.0271      .4981  3446.4077    10.3718      .8963  2064.0159    70.7120    23.7075    16.9447      .1287
 1494.8916     1.0000     1.0148      .5162  3472.8782    10.5328      .8906  2059.8657    68.2830    23.4032    16.7929      .1359
 1495.0440     1.0000     1.0313      .5092  3467.5305    10.1899      .8936  2058.3953    71.2454    23.2912    16.7272      .1266
 1495.1964     1.0000     1.0203      .4979  3453.8943     9.9312      .8975  2076.9780    75.4420    23.6433    16.6564      .1205
 1495.3488     1.0000     1.0344      .5185  3459.7766     9.7642      .9041  2062.0049    70.5322    23.9471    16.7997      .1201
 1495.5012     1.0000     1.0071      .5046  3477.1392    11.7478      .9055  2061.0688    71.0554    22.6660    16.8541      .1293
 1495.6536     1.0000     1.0462      .5214  3441.0427    12.0876      .9037  2048.6411    70.4627    23.3913    16.9351      .1245
 1495.8060     1.0000     1.0210      .5147  3448.9390    12.1739      .8962  2094.7642    74.7647    21.8173    16.8279      .1181
 1495.9584     1.0000     1.0462      .5049  3434.2329    11.7960      .8964  2106.5291    73.7043    22.6394    16.8763      .1076
 1496.1108     1.0000     1.0410      .5114  3426.7461    11.3478      .8958  2134.0964    75.0807    23.1773    16.8216      .1100
 1496.2632     1.0000     1.0148      .5047  3398.5142    10.2976      .8985  2122.8662    71.4072    23.0913    17.0461      .1108
 1496.4156     1.0000     1.0006      .4932  3404.7751     9.2696      .9004  2121.5293    74.2797    22.7544    17.6540      .1244
