~VERSION INFORMATION
VERS.                                                 2.0:   CWLS Log ASCII Standard-VERSION 2.0
WRAP.                                                  NO:   One line per depth step
~Well Information Block
STRT.M                                          1407.1092:   Top Depth
STOP.M                                          3062.9352:   Bottom Depth
STEP.M                                             .15240:   Depth Increment
NULL.                                            -999.250:   Null Value
FLD .                                          EEMSKANAAL:   Field Name
WELL.                                       EEMSKANAAL- 1:   NAME
EDF .m                                               5.58:   ELEV DRILL FLOOR
EPD .                                                   0:   ELEV PERM DATUM
EGL .m                                                -.9:   GROUND LEVEL
LMF .                                                  DF:   LOGS MEAS FROM
COMP.                                                 NAM:   OPERATOR
PDAT.                                                 NAP:   PERM DATUM
SPUD.                                          1970/11/08:   SPUD DATE
UWBI.                                      11000074112201:   UWBI
WELL.                                       EEMSKANAAL- 1:   HOLE NAME
~PARAMETER INFORMATION (log)
LNAM.                                RUN 03 RAW OH 9.625":   NAME
LTYP.                                                 03R:   LOG TYPE
LVSN.                                                   1:   LOG VERSION
BS  .5/8"                                               9:   BIT SIZE
BLI .M                                               3064:   BOTTOM DEPTH LOGGED
BHIS.                                            RCCCCCCC:   BRIEF HISTORY
FHIS.              RAW-TIGA/COPY/COPY/COPY/COPY/COPY/COPY:   FULL HISTORY
MRT .C                                                 98:   MAX REC TEMP
DFT .                                          SALT SPERS:   MUD TYPE
RMS .                                                    :   RM
MST .                                                    :   RM TEMP
RMCS.                                                    :   RMC
MCST.                                                    :   RMC TEMP
RMFS.                                                    :   RMF
MFST.                                                    :   RMF TEMP
TCS .                                               4 HRS:   TIME SINCE CIRCLN
TLI .M                                               1407:   TOP DEPTH LOGGED
~Curve Information Block
#MNEM.UNIT                                        API CODE    No Description
#=========                                        ========    == ===========
DEPT.M                                       00 001 00 00:     1  DEPTH
CALF.IN                                                  :     2  CALIPER FROM FORMATION DENSITY LOG
FDC.g/c3                                                 :     3  Formation Density Log (Compensated Open
GR.GAPI                                                  :     4  Gamma Ray
~ASCII
 1407.1092    10.3350     2.1520    14.3900
 1407.2616    10.5090     2.2560    14.3810
 1407.4140    11.2020     2.2400    16.6200
 1407.5664    11.5100     2.2480    18.7960
 1407.7188    11.6160     2.2550    19.4610
 1407.8712    11.7510     2.2580    19.0230
 1408.0236    11.8730     2.2700    18.1980
 1408.1760    11.9380     2.2850    17.0440
 1408.3284    11.9780     2.2860    17.3770
 1408.4808    11.9950     2.2740    18.5380
 1408.6332    12.0060     2.2740    18.2700
 1408.7856    12.0110     2.2590    18.5870
 1408.9380    12.1600     2.2640    19.4890
 1409.0904    13.2320     2.2570    19.2520
 1409.2428    13.9790     2.2700    19.0110
 1409.3952    14.2590     2.3010    19.1060
 1409.5476    13.6510     2.3310    19.1660
 1409.7000    13.2200     2.4620    19.2000
 1409.8524    12.6330     2.5260    18.1120
 1410.0048    12.6970     2.5390    17.1500
 1410.1572    12.7260     2.5440    19.6120
 1410.3096    12.7320     2.5600    19.8710
 1410.4620    12.7530     2.5450    19.8500
 1410.6144    12.9600     2.5430    19.6370
 1410.7668    13.1090     2.5780    19.9400
 1410.9192    13.1310     2.6100    20.2190
 1411.0716    13.1730     2.5980    20.2800
 1411.2240    13.1970     2.5910    20.1950
 1411.3764    13.2200     2.5830    19.8970
 1411.5288    13.3100     2.5780    19.0790
 1411.6812    13.4710     2.5830    18.6830
 1411.8336    13.4820     2.5880    19.5840
 1411.9860    13.4760     2.5930    21.1870
 1412.1384    13.4840     2.5980    21.5960
 1412.2908    13.6530     2.5710    21.3400
 1412.4432    13.7540     2.5560    21.3830
 1412.5956    13.7620     2.5610    20.8820
 1412.7480    13.7710     2.5820    19.7590
 1412.9004    13.8060     2.5810    18.2210
 1413.0528    13.8490     2.5890    16.9010
 1413.2052    13.8900     2.5910    16.8590
 1413.3576    14.0190     2.5620    17.8190
 1413.5100    14.0900     2.5460    16.3660
 1413.6624    14.1040     2.5620    17.5870
 1413.8148    14.1520     2.5780    18.0860
 1413.9672    14.1830     2.5840    18.1200
 1414.1196    14.1880     2.5790    17.9820
 1414.2720    14.2260     2.5530    16.8050
 1414.4244    14.3000     2.5470    15.2540
 1414.5768    14.3640     2.5470    15.7470
 1414.7292    14.4110     2.5480    16.1640
 1414.8816    14.4180     2.5360    16.5170
 1415.0340    14.4180     2.5360    17.0340
 1415.1864    14.4870     2.5490    17.0110
 1415.3388    14.4910     2.5680    16.4290
 1415.4912    14.4900     2.5650    17.4180
 1415.6436    14.4900     2.5760    15.8180
 1415.7960    14.4900     2.6000    14.5900
 1415.9484    14.4940     2.5930    17.1090
 1416.1008    14.4990     2.6000    19.0980
 1416.2532    14.5020     2.5890    18.0590
 1416.4056    14.5070     2.5870    18.4310
 1416.5580    14.5240     2.6020    19.6500
 1416.7104    14.5350     2.6350    20.0540
 1416.8628    14.5420     2.6210    20.2410
 1417.0152    14.5290     2.5760    20.2480
 1417.1676    14.5180     2.5430    19.4210
 1417.3200    14.5100     2.5260    17.2170
 1417.4724    14.5490     2.5170    15.0280
 1417.6248    14.5330     2.5300    14.5050
 1417.7772    14.6380     2.5430    14.6400
 1417.9296    14.6830     2.5410    13.6810
 1418.0820    14.7170     2.5360    12.4570
 1418.2344    14.7440     2.5340    13.4730
 1418.3868    14.7490     2.5350    14.1470
 1418.5392    14.7540     2.5330    14.1310
 1418.6916    14.7540     2.5350    15.8750
 1418.8440    14.7540     2.5340    16.8710
 1418.9964    14.7570     2.5280    15.5340
 1419.1488    14.7610     2.5250    15.1270
 1419.3012    14.7650     2.5320    16.9430
 1419.4536    14.7680     2.5470    17.3850
 1419.6060    14.7740     2.5410    15.4890
 1419.7584    14.7790     2.5470    14.2640
 1419.9108    14.7900     2.5540    15.1500
 1420.0632    14.7980     2.5490    14.8750
 1420.2156    14.8020     2.4990    13.7200
 1420.3680    14.8100     2.4940    13.3930
 1420.5204    14.8110     2.5100    14.7470
 1420.6728    14.8170     2.5290    15.3230
 1420.8252    14.8200     2.5690    14.5520
 1420.9776    14.8320     2.6020    13.7940
 1421.1300    14.8290     2.5840    14.2800
 1421.2824    14.8370     2.5740    15.4290
 1421.4348    14.9120     2.5640    16.3740
 1421.5872    14.9140     2.5590    16.3640
 1421.7396    14.9450     2.5320    15.0250
 1421.8920    15.0060     2.5130    13.6690
 1422.0444    15.0180     2.5220    13.4470
 1422.1968    15.0220     2.4980    13.9370
 1422.3492    15.0190     2.5080    14.7480
 1422.5016    15.0090     2.5350    15.0500
 1422.6540    14.9390     2.5310    13.9050
 1422.8064    14.9510     2.5170    12.9600
 1422.9588    14.9540     2.4950    13.0660
 1423.1112    14.9500     2.5050    13.3140
 1423.2636    14.9500     2.5190    14.6900
 1423.4160    14.9500     2.5230    15.4320
 1423.5684    14.9530     2.5300    11.9970
 1423.7208    14.9580     2.5330    11.4250
 1423.8732    14.9580     2.5390    12.0360
 1424.0256    14.9620     2.5310    13.6500
 1424.1780    14.9710     2.5240    14.5670
 1424.3304    14.9810     2.5170    13.4590
 1424.4828    14.9850     2.5320    13.9450
 1424.6352    14.9960     2.5350    13.9360
 1424.7876    15.0410     2.5430    13.2930
 1424.9400    15.0680     2.5180    12.7110
 1425.0924    15.0150     2.5170    11.8510
 1425.2448    14.9640     2.5290    12.3300
 1425.3972    14.9420     2.5420    13.0530
 1425.5496    14.9800     2.5310    13.4850
 1425.7020    15.0330     2.5240    13.6020
 1425.8544    15.0800     2.5460    12.2630
 1426.0068    15.1060     2.5370    11.3720
 1426.1592    15.1060     2.5370    11.8440
 1426.3116    15.1060     2.5440    13.1150
 1426.4640    15.1060     2.5280    12.9290
 1426.6164    15.1080     2.5080    11.8450
 1426.7688    15.1100     2.5020    12.5530
 1426.9212    15.1100     2.5150    13.3710
 1427.0736    15.1100     2.5400    13.5600
 1427.2260    15.1100     2.5530    13.5000
 1427.3784    15.1070     2.5610    13.5120
 1427.5308    15.0560     2.5650    13.4400
 1427.6832    15.0090     2.5680    13.5650
 1427.8356    14.9910     2.5480    14.3740
 1427.9880    14.9870     2.5320    15.4860
 1428.1404    14.9790     2.5140    16.4510
 1428.2928    14.9740     2.5160    15.7610
 1428.4452    14.9740     2.5240    14.5450
 1428.5976    14.9670     2.5230    13.3680
 1428.7500    14.9600     2.5190    12.6820
 1428.9024    14.9620     2.5250    13.3990
 1429.0548    14.9610     2.5280    14.4890
 1429.2072    14.9580     2.5360    15.0210
 1429.3596    14.9580     2.5370    13.9920
 1429.5120    14.9580     2.5450    12.3020
 1429.6644    14.9580     2.5560    11.7140
 1429.8168    14.9580     2.5450    12.1880
 1429.9692    14.9580     2.5450    12.9110
 1430.1216    14.9550     2.5340    13.4570
 1430.2740    14.9200     2.5460    13.6080
 1430.4264    14.8360     2.5450    13.5440
 1430.5788    14.8180     2.5400    13.5000
 1430.7312    14.8170     2.5260    13.7250
 1430.8836    14.8100     2.5090    14.0150
 1431.0360    14.7970     2.5280    14.0620
 1431.1884    14.7830     2.5210    16.3210
 1431.3408    14.7790     2.5030    16.0550
 1431.4932    14.7740     2.5020    14.0700
 1431.6456    14.7770     2.5080    15.7060
 1431.7980    14.7780     2.4920    16.7740
 1431.9504    14.7660     2.4960    16.0750
 1432.1028    14.7050     2.5130    14.1970
 1432.2552    14.6540     2.5150    14.7410
 1432.4076    14.7440     2.5100    14.4950
 1432.5600    14.6640     2.5020    14.7120
 1432.7124    14.5780     2.5050    14.3730
 1432.8648    14.5730     2.5190    12.9250
 1433.0172    14.6540     2.5200    12.5690
 1433.1696    14.6380     2.4890    12.7440
 1433.3220    14.6160     2.4920    13.2220
 1433.4744    14.6020     2.5040    11.7110
 1433.6268    14.5820     2.5140    12.5730
 1433.7792    14.5470     2.5020    13.8560
 1433.9316    14.5310     2.5010    14.0970
 1434.0840    14.5290     2.4900    14.4090
 1434.2364    14.5340     2.4900    15.0150
 1434.3888    14.5380     2.4740    14.6640
 1434.5412    14.5220     2.4540    14.7230
 1434.6936    14.3680     2.4520    15.4570
