~VERSION INFORMATION
VERS.                                                 2.0:   CWLS Log ASCII Standard-VERSION 2.0
WRAP.                                                  NO:   One line per depth step
~Well Information Block
STRT.M                                          1406.0424:   Top Depth
STOP.M                                          1903.9332:   Bottom Depth
STEP.M                                             .15240:   Depth Increment
NULL.                                            -999.250:   Null Value
FLD .                                          EEMSKANAAL:   Field Name
WELL.                                       EEMSKANAAL- 1:   NAME
EDF .m                                               5.58:   ELEV DRILL FLOOR
EPD .                                                   0:   ELEV PERM DATUM
EGL .m                                                -.9:   GROUND LEVEL
LMF .                                                  DF:   LOGS MEAS FROM
COMP.                                                 NAM:   OPERATOR
PDAT.                                                 NAP:   PERM DATUM
SPUD.                                          1970/11/08:   SPUD DATE
UWBI.                                      11000074112201:   UWBI
WELL.                                       EEMSKANAAL- 1:   HOLE NAME
~PARAMETER INFORMATION (log)
LNAM.                                RUN 07 RAW OH 9.625":   NAME
LTYP.                                                 07R:   LOG TYPE
LVSN.                                                   1:   LOG VERSION
BS  .5/8"                                               9:   BIT SIZE
BLI .M                                               2950:   BOTTOM DEPTH LOGGED
BHIS.                                            RCCCCCCC:   BRIEF HISTORY
FHIS.              RAW-TIGA/COPY/COPY/COPY/COPY/COPY/COPY:   FULL HISTORY
MRT .                                                    :   MAX REC TEMP
DFT .                                          SALT SPERS:   MUD TYPE
RMS .                                               0.074:   RM
MST .C                                                 26:   RM TEMP
RMCS.                                               0.144:   RMC
MCST.C                                                 17:   RMC TEMP
RMFS.                                               0.059:   RMF
MFST.C                                                 26:   RMF TEMP
TCS .                                                 N/A:   TIME SINCE CIRCLN
TLI .M                                             1406.5:   TOP DEPTH LOGGED
~Curve Information Block
#MNEM.UNIT                                        API CODE    No Description
#=========                                        ========    == ===========
DEPT.M                                       00 001 00 00:     1  DEPTH
LL9D.OHMM                                                :     2  Dual Laterolog 9 deep
LL9S.OHMM                                                :     3  Dual Laterolog 9 shallow
MSFL.OHMM                                                :     4  MICRO SPHERICALLY FOCUSSED LOG
~ASCII
# ...
 1655.6736     1.4330     1.3430     1.6890
 1655.8260     1.4310     1.3260     1.6440
 1655.9784     1.4370     1.3100     1.5650
 1656.1308     1.4450     1.3080     1.6120
 1656.2832     1.4560     1.3090     1.8650
 1656.4356     1.4600     1.3130     1.9880
 1656.5880     1.4610     1.3250     2.0000
 1656.7404     1.4640     1.3410     2.4020
 1656.8928     1.4690     1.3580     2.4780
 1657.0452     1.4690     1.3650     2.5300
 1657.1976     1.4660     1.3620     2.5190
 1657.3500     1.4600     1.3550     2.3630
 1657.5024     1.4530     1.3430     2.3870
 1657.6548     1.4420     1.3170     2.3150
 1657.8072     1.4250     1.2830     2.0950
 1657.9596     1.4040     1.2740     1.9270
 1658.1120     1.3890     1.2800     1.8180
 1658.2644     1.3840     1.2890     1.9280
 1658.4168     1.3890     1.2880     1.9700
 1658.5692     1.4070     1.2780     2.1270
 1658.7216     1.4150     1.2550     2.2100
 1658.8740     1.4000     1.2380     2.1600
 1659.0264     1.3770     1.2340     2.1610
 1659.1788     1.3710     1.2390     1.9270
 1659.3312     1.3940     1.2560     1.7370
 1659.4836     1.4190     1.2710     1.6900
 1659.6360     1.4180     1.2750     1.6540
 1659.7884     1.4010     1.2720     1.5880
 1659.9408     1.3760     1.2600     1.5620
 1660.0932     1.3670     1.2460     1.5530
 1660.2456     1.3720     1.2470     1.5500
 1660.3980     1.3870     1.2590     1.5020
 1660.5504     1.3960     1.2650     1.5380
 1660.7028     1.3960     1.2670     1.5980
 1660.8552     1.3810     1.2630     1.5710
 1661.0076     1.3500     1.2540     1.4960
 1661.1600     1.3150     1.2410     1.3510
 1661.3124     1.2750     1.2150     1.3460
 1661.4648     1.2340     1.1490     1.4280
 1661.6172     1.2120     1.0770     1.4340
 1661.7696     1.2000     1.0430     1.3830
 1661.9220     1.1670     1.0380     1.1670
 1662.0744     1.1480     1.0380     1.1540
 1662.2268     1.1400     1.0380     1.1550
 1662.3792     1.1380     1.0400     1.1590
 1662.5316     1.1440     1.0510     1.1590
 1662.6840     1.1760     1.0690     1.1770
 1662.8364     1.2310     1.1030     1.2720
 1662.9888     1.2860     1.1430     1.3280
 1663.1412     1.3150     1.1870     1.3690
 1663.2936     1.3210     1.1980     1.4200
 1663.4460     1.2720     1.1820     1.4100
 1663.5984     1.2010     1.1400     1.3780
 1663.7508     1.1560     1.0920     1.3300
 1663.9032     1.1400     1.0870     1.2670
 1664.0556     1.1460     1.1060     1.2330
 1664.2080     1.1800     1.1440     1.2430
 1664.3604     1.2400     1.1690     1.3610
 1664.5128     1.2770     1.1830     1.4700
 1664.6652     1.2820     1.1910     1.3970
 1664.8176     1.2830     1.1920     1.4610
 1664.9700     1.2860     1.1920     1.3980
 1665.1224     1.2880     1.1920     1.3420
 1665.2748     1.2880     1.1920     1.3520
 1665.4272     1.2840     1.1920     1.3600
 1665.5796     1.2830     1.1920     1.3400
 1665.7320     1.2850     1.1920     1.3330
 1665.8844     1.2810     1.1880     1.3800
 1666.0368     1.2760     1.1840     1.3790
 1666.1892     1.2680     1.1810     1.3490
 1666.3416     1.2600     1.1720     1.3350
 1666.4940     1.2540     1.1610     1.3760
 1666.6464     1.2480     1.1440     1.4340
 1666.7988     1.2240     1.1320     1.3650
 1666.9512     1.1620     1.1000     1.4190
 1667.1036     1.1180     1.0520     1.4530
 1667.2560     1.1050     1.0200     1.3840
 1667.4084     1.1150     1.0160     1.2260
 1667.5608     1.1830     1.0280     1.1310
 1667.7132     1.2540     1.0690     1.1560
 1667.8656     1.3070     1.1570     1.3750
 1668.0180     1.3610     1.2250     1.4640
 1668.1704     1.4020     1.2680     1.4080
 1668.3228     1.4180     1.2760     1.4490
 1668.4752     1.4220     1.2760     1.6530
 1668.6276     1.4190     1.2750     1.6770
 1668.7800     1.3990     1.2610     1.6750
 1668.9324     1.3620     1.2310     1.6170
 1669.0848     1.3140     1.2090     1.4240
 1669.2372     1.2840     1.2040     1.4520
 1669.3896     1.2800     1.2140     1.5600
 1669.5420     1.3080     1.2500     1.5280
 1669.6944     1.3550     1.2950     1.4400
 1669.8468     1.4110     1.3120     1.4170
 1669.9992     1.4280     1.3090     1.6030
 1670.1516     1.3910     1.2830     1.8230
 1670.3040     1.3120     1.2370     1.7470
 1670.4564     1.2590     1.2080     1.4940
 1670.6088     1.2600     1.1960     1.4740
 1670.7612     1.3030     1.1950     1.8000
 1670.9136     1.3380     1.2020     1.7540
 1671.0660     1.3560     1.2170     1.6300
 1671.2184     1.3720     1.2410     1.5410
 1671.3708     1.3970     1.2720     1.5590
 1671.5232     1.4340     1.3040     1.5120
 1671.6756     1.4670     1.3300     1.4240
 1671.8280     1.4910     1.3570     1.5200
 1671.9804     1.4990     1.3840     1.5120
 1672.1328     1.4980     1.4010     1.4930
 1672.2852     1.4690     1.4010     1.6280
 1672.4376     1.4160     1.3740     1.8160
 1672.5900     1.3270     1.2800     1.7340
 1672.7424     1.2840     1.2060     1.5490
 1672.8948     1.2770     1.1730     1.4330
 1673.0472     1.2930     1.1740     1.2020
 1673.1996     1.3190     1.2080     1.1730
 1673.3520     1.2910     1.2270     1.6070
 1673.5044     1.2550     1.2130     1.5540
 1673.6568     1.2570     1.1830     1.3980
 1673.8092     1.2960     1.1880     1.5720
 1673.9616     1.3680     1.2510     1.7690
 1674.1140     1.4190     1.2950     1.4160
 1674.2664     1.4230     1.3030     1.4450
 1674.4188     1.3810     1.2800     1.8880
 1674.5712     1.3500     1.2620     1.8620
 1674.7236     1.3650     1.2660     1.5330
 1674.8760     1.4240     1.2960     1.4000
 1675.0284     1.4770     1.3510     1.4210
 1675.1808     1.4930     1.3770     1.4840
 1675.3332     1.4820     1.3470     1.6350
 1675.4856     1.4500     1.3080     1.6530
 1675.6380     1.4110     1.2710     1.6630
 1675.7904     1.4050     1.2620     1.5470
 1675.9428     1.4400     1.2680     1.4960
 1676.0952     1.4770     1.2820     1.5100
 1676.2476     1.4960     1.2970     1.6120
 1676.4000     1.5050     1.3000     1.6480
 1676.5524     1.5030     1.3000     1.5560
 1676.7048     1.4990     1.3030     1.5000
 1676.8572     1.4980     1.3090     1.5150
 1677.0096     1.4960     1.3090     1.6590
 1677.1620     1.4930     1.3130     1.7070
 1677.3144     1.4890     1.3170     1.5740
 1677.4668     1.4890     1.3170     1.5780
 1677.6192     1.4920     1.3170     1.5700
 1677.7716     1.4900     1.3170     1.5650
 1677.9240     1.4890     1.3130     1.5970
 1678.0764     1.4820     1.3040     1.6490
 1678.2288     1.4670     1.2890     1.7880
 1678.3812     1.4480     1.2620     1.7350
 1678.5336     1.4250     1.2550     1.6340
 1678.6860     1.4080     1.2570     1.5750
 1678.8384     1.3940     1.2620     1.5200
 1678.9908     1.3910     1.2680     1.4940
 1679.1432     1.3910     1.2780     1.5270
 1679.2956     1.3910     1.2910     1.5470
 1679.4480     1.3930     1.2970     1.4360
 1679.6004     1.3960     1.3020     1.4770
 1679.7528     1.3980     1.3030     1.5100
 1679.9052     1.3990     1.3040     1.5140
 1680.0576     1.4010     1.2960     1.5540
 1680.2100     1.4040     1.2760     1.5770
 1680.3624     1.4080     1.2580     1.5140
 1680.5148     1.4150     1.2550     1.4730
 1680.6672     1.4390     1.2880     1.6970
 1680.8196     1.4710     1.3440     1.7420
 1680.9720     1.4710     1.3610     1.5610
 1681.1244     1.4580     1.3580     1.6070
 1681.2768     1.4330     1.3500     1.6850
 1681.4292     1.4220     1.3450     1.6270
 1681.5816     1.4400     1.3630     1.5380
 1681.7340     1.4830     1.3950     1.5320
 1681.8864     1.6030     1.4580     1.5720
 1682.0388     1.6410     1.5260     1.6860
 1682.1912     1.6060     1.5260     1.7590
 1682.3436     1.5380     1.4870     1.5800
 1682.4960     1.4670     1.4240     1.5910
 1682.6484     1.4050     1.3930     1.4430
 1682.8008     1.3660     1.3800     1.2230
 1682.9532     1.3670     1.3740     1.2390
 1683.1056     1.3780     1.3760     1.3200
 1683.2580     1.3920     1.3780     1.2670
