~VERSION INFORMATION
VERS.                                                 2.0:   CWLS Log ASCII Standard-VERSION 2.0
WRAP.                                                  NO:   One line per depth step
~Well Information Block
STRT.M                                          2769.1080:   Top Depth
STOP.M                                          2949.8544:   Bottom Depth
STEP.M                                             .15240:   Depth Increment
NULL.                                            -999.250:   Null Value
FLD .                                          EEMSKANAAL:   Field Name
WELL.                                       EEMSKANAAL- 2:   NAME
APD .M                                               5.62:   ABOVE PERM DATUM
CTRY.                                                  NE:   COUNTRY
EDF .m                                               5.62:   ELEV DRILL FLOOR
EPD .                                                   0:   ELEV PERM DATUM
EGL .m                                              -1.06:   GROUND LEVEL
LMF .                                                  DF:   LOGS MEAS FROM
COMP.                                                 NAM:   OPERATOR
PDAT.                                                 NAP:   PERM DATUM
SPUD.                                          1971/03/17:   SPUD DATE
STAT.                                           Unknown m:   STATE
UWBI.                                      11000074112601:   UWBI
WELL.                                       EEMSKANAAL- 2:   HOLE NAME
~PARAMETER INFORMATION (log)
LNAM.                                RUN 02 RAW OH 6 1/4":   NAME
LTYP.                                                 02R:   LOG TYPE
LVSN.                                                   1:   LOG VERSION
BS  .1/4"                                               6:   BIT SIZE
BLI .M                                             2942.0:   BOTTOM DEPTH LOGGED
BHIS.                                             RCCCCCC:   BRIEF HISTORY
FHIS.                   RAW-TIGA/COPY/COPY/COPY/COPY/COPY:   FULL HISTORY
MRT .DEGC                                              84:   MAX REC TEMP
DFD .G/CC                                            1.36:   MUD DENSITY
DFT .                                     SALT SAT UNICAL:   MUD TYPE
RMS .OHMM                                           0.031:   RM
MST .DEGC                                              12:   RM TEMP
RMCS.OHMM                                           0.136:   RMC
MCST. DEGC                                             12:   RMC TEMP
RMFS.OHMM                                           0.053:   RMF
MFST.DEGC                                              19:   RMF TEMP
TCS .                                                 N/A:   TIME SINCE CIRCLN
TLI .M                                             2772.0:   TOP DEPTH LOGGED
~Curve Information Block
#MNEM.UNIT                                        API CODE    No Description
#=========                                        ========    == ===========
DEPT.M                                       00 001 00 00:     1  DEPTH
CALF.IN                                                  :     2  CALIPER FROM FORMATION DENSITY LOG
FDC.G/C3                                                 :     3  Formation Density Log (Compensated Open
GR.API                                                   :     4  Gamma Ray
~ASCII
# ...
 2796.8448     6.7760     2.4920    44.4120
 2796.9972     6.7540     2.4700    48.2720
 2797.1496     6.6670     2.5020    50.2830
 2797.3020     6.6190     2.5470    46.8750
 2797.4544     6.6070     2.5530    44.1230
 2797.6068     6.6070     2.5440    48.9940
 2797.7592     6.6150     2.5600    58.6800
 2797.9116     6.6230     2.6030    77.1080
 2798.0640     6.6230     2.6700    91.7560
 2798.2164     6.6110     2.6900    90.7180
 2798.3688     6.6040     2.6600    84.7220
 2798.5212     6.6200     2.6700    84.2200
 2798.6736     6.6550     2.6970    85.0730
 2798.8260     6.6940     2.6960    81.2700
 2798.9784     6.7350     2.6830    76.4080
 2799.1308     6.7590     2.6700    72.7480
 2799.2832     6.7650     2.6900    70.1290
 2799.4356     6.7660     2.6880    68.7980
 2799.5880     6.7590     2.6630    67.6770
 2799.7404     6.7570     2.6380    65.0190
 2799.8928     6.7510     2.6270    64.7090
 2800.0452     6.7530     2.6400    66.2590
 2800.1976     6.7550     2.6360    68.8360
 2800.3500     6.7530     2.6160    70.8080
 2800.5024     6.7250     2.6170    70.2880
 2800.6548     6.7220     2.6060    64.3930
 2800.8072     6.7480     2.5900    59.9810
 2800.9596     6.7610     2.5970    63.6050
 2801.1120     6.7670     2.6030    69.9160
 2801.2644     6.7630     2.5960    70.3080
 2801.4168     6.7550     2.6090    70.9300
 2801.5692     6.7540     2.6150    79.3290
 2801.7216     6.7600     2.6320    90.7450
 2801.8740     6.7700     2.6300    95.6020
 2802.0264     6.7750     2.6080    95.4960
 2802.1788     6.7820     2.6100    90.0430
 2802.3312     6.7860     2.6310    88.1160
 2802.4836     6.7830     2.6340    89.7200
 2802.6360     6.7720     2.6250    90.0420
 2802.7884     6.7600     2.5960    81.3080
 2802.9408     6.7330     2.5550    66.4880
 2803.0932     6.7010     2.4840    55.1980
 2803.2456     6.6590     2.4270    46.5480
 2803.3980     6.6190     2.3880    48.0730
 2803.5504     6.5650     2.4220    59.0270
 2803.7028     6.5120     2.4930    64.1530
 2803.8552     6.4800     2.5230    57.8980
 2804.0076     6.4640     2.5080    48.0960
 2804.1600     6.4590     2.4610    45.9360
 2804.3124     6.4590     2.4450    45.0170
 2804.4648     6.4590     2.4410    44.2500
 2804.6172     6.4590     2.4250    43.1220
 2804.7696     6.4580     2.4180    40.6970
 2804.9220     6.4560     2.4400    37.3780
 2805.0744     6.4490     2.4390    35.5250
 2805.2268     6.4360     2.4360    35.3220
 2805.3792     6.4230     2.4450    35.7810
 2805.5316     6.4090     2.4280    36.5530
 2805.6840     6.3960     2.4070    37.5720
 2805.8364     6.3830     2.3790    38.1600
 2805.9888     6.3760     2.3580    37.3640
 2806.1412     6.3760     2.3440    39.5620
 2806.2936     6.3760     2.3760    43.9840
 2806.4460     6.3800     2.4430    51.0530
 2806.5984     6.3860     2.5310    59.8570
 2806.7508     6.3920     2.6330    71.9800
 2806.9032     6.3970     2.6650    85.0820
 2807.0556     6.4090     2.6230    75.4910
 2807.2080     6.4370     2.5710    63.3890
 2807.3604     6.5090     2.5340    57.6660
 2807.5128     6.5880     2.4830    55.7980
 2807.6652     6.6220     2.4350    49.0290
 2807.8176     6.6330     2.3950    42.1370
 2807.9700     6.5700     2.4000    38.6500
 2808.1224     6.4910     2.3990    36.9330
 2808.2748     6.4530     2.3920    38.6130
 2808.4272     6.4400     2.4180    41.5970
 2808.5796     6.4340     2.4300    44.9270
 2808.7320     6.4350     2.4550    49.8720
 2808.8844     6.4350     2.5070    55.9650
 2809.0368     6.4310     2.5730    64.9920
 2809.1892     6.4280     2.5890    74.3200
 2809.3416     6.4310     2.5930    77.8990
 2809.4940     6.4350     2.5670    72.0740
 2809.6464     6.4410     2.4940    60.9110
 2809.7988     6.4470     2.4480    51.6130
 2809.9512     6.4600     2.4550    53.3020
 2810.1036     6.4670     2.4820    54.8630
 2810.2560     6.4710     2.4590    48.0790
 2810.4084     6.4640     2.4070    42.8650
 2810.5608     6.4430     2.4140    42.3970
 2810.7132     6.4310     2.4370    42.7460
 2810.8656     6.4300     2.4350    41.4300
 2811.0180     6.4350     2.4230    41.3920
 2811.1704     6.4390     2.4170    41.8120
 2811.3228     6.4370     2.4020    41.5210
 2811.4752     6.4320     2.4060    42.7820
 2811.6276     6.4290     2.4090    45.9960
 2811.7800     6.4200     2.4310    51.2250
 2811.9324     6.4160     2.4570    54.8850
 2812.0848     6.4160     2.4490    51.4660
 2812.2372     6.4160     2.4110    44.7700
 2812.3896     6.4190     2.4010    41.1800
 2812.5420     6.4200     2.3950    41.0020
 2812.6944     6.4220     2.3790    40.9170
 2812.8468     6.4220     2.3780    39.0900
 2812.9992     6.4200     2.3760    35.3750
 2813.1516     6.4200     2.3610    33.3180
 2813.3040     6.4240     2.3400    33.3150
 2813.4564     6.4270     2.3240    34.6190
 2813.6088     6.4310     2.3270    36.2880
 2813.7612     6.4310     2.3340    38.5700
 2813.9136     6.4280     2.3480    39.1700
 2814.0660     6.4270     2.3530    38.6590
 2814.2184     6.4240     2.3590    38.0290
 2814.3708     6.4210     2.3490    37.9340
 2814.5232     6.4220     2.3490    35.2590
 2814.6756     6.4240     2.3450    34.1930
 2814.8280     6.4260     2.3210    34.2140
 2814.9804     6.4250     2.3010    35.6000
 2815.1328     6.4240     2.2860    37.7240
 2815.2852     6.4200     2.3100    39.1880
 2815.4376     6.4160     2.3280    39.6120
 2815.5900     6.4120     2.3560    39.0340
 2815.7424     6.4150     2.3810    41.2820
 2815.8948     6.4160     2.4000    41.6640
 2816.0472     6.4150     2.4230    40.8450
 2816.1996     6.4160     2.4210    40.4550
 2816.3520     6.4160     2.4030    41.2280
 2816.5044     6.4160     2.4120    42.7730
 2816.6568     6.4170     2.4080    43.1220
 2816.8092     6.4150     2.4130    42.0860
 2816.9616     6.4030     2.4040    40.8200
 2817.1140     6.3980     2.3990    41.0690
 2817.2664     6.3940     2.3870    45.1650
 2817.4188     6.3940     2.4270    46.9750
 2817.5712     6.3500     2.4540    48.5200
 2817.7236     6.3390     2.4580    50.2970
 2817.8760     6.4190     2.4760    50.0500
 2818.0284     6.4390     2.4880    43.8560
 2818.1808     6.4260     2.4650    39.5050
 2818.3332     6.4170     2.4160    38.3070
 2818.4856     6.4270     2.3910    35.7170
 2818.6380     6.4440     2.3820    34.0160
 2818.7904     6.4470     2.3770    32.8710
 2818.9428     6.4500     2.3820    32.5130
 2819.0952     6.4510     2.3970    34.0700
 2819.2476     6.4420     2.4070    38.4300
 2819.4000     6.4170     2.4380    42.3300
 2819.5524     6.3870     2.4810    45.9680
 2819.7048     6.4100     2.5500    50.2900
 2819.8572     6.4300     2.5990    57.8770
 2820.0096     6.4290     2.6040    72.7020
 2820.1620     6.4310     2.5830    68.9860
 2820.3144     6.4460     2.4940    51.0230
 2820.4668     6.4600     2.4380    38.3280
 2820.6192     6.4660     2.3980    34.9010
 2820.7716     6.4730     2.3960    36.6220
 2820.9240     6.4680     2.3950    39.1780
 2821.0764     6.4290     2.4140    41.5310
 2821.2288     6.3920     2.4290    43.2030
 2821.3812     6.3930     2.4370    42.5300
 2821.5336     6.4070     2.4420    41.8510
 2821.6860     6.4190     2.4250    43.1610
 2821.8384     6.4260     2.4360    45.8150
 2821.9908     6.4300     2.4670    46.8340
 2822.1432     6.4270     2.4800    48.6840
 2822.2956     6.4220     2.5430    55.8740
 2822.4480     6.4110     2.5700    67.2130
 2822.6004     6.4080     2.6280    72.8650
 2822.7528     6.4080     2.6380    69.0310
 2822.9052     6.4120     2.6340    61.5020
 2823.0576     6.4290     2.6230    55.8110
 2823.2100     6.4560     2.5900    50.4090
 2823.3624     6.5000     2.5320    45.1730
 2823.5148     6.5480     2.5080    40.3820
 2823.6672     6.5500     2.4800    37.3700
 2823.8196     6.5030     2.4180    35.5190
 2823.9720     6.4560     2.3980    37.0660
 2824.1244     6.4170     2.4160    41.2520
 2824.2768     6.3950     2.4870    45.8450
 2824.4292     6.3740     2.6110    52.2190
