~VERSION INFORMATION
VERS.                                                 2.0:   CWLS Log ASCII Standard-VERSION 2.0
WRAP.                                                  NO:   One line per depth step
~Well Information Block
STRT.M                                           836.5236:   Top Depth
STOP.M                                          2800.0452:   Bottom Depth
STEP.M                                             .15240:   Depth Increment
NULL.                                            -999.250:   Null Value
FLD .                                          EEMSKANAAL:   Field Name
WELL.                                       EEMSKANAAL- 2:   NAME
APD .M                                               5.62:   ABOVE PERM DATUM
CTRY.                                                  NE:   COUNTRY
EDF .m                                               5.62:   ELEV DRILL FLOOR
EPD .                                                   0:   ELEV PERM DATUM
EGL .m                                              -1.06:   GROUND LEVEL
LMF .                                                  DF:   LOGS MEAS FROM
COMP.                                                 NAM:   OPERATOR
PDAT.                                                 NAP:   PERM DATUM
SPUD.                                          1971/03/17:   SPUD DATE
STAT.                                           Unknown m:   STATE
UWBI.                                      11000074112601:   UWBI
WELL.                                       EEMSKANAAL- 2:   HOLE NAME
~PARAMETER INFORMATION (log)
LNAM.                              RUN 04 RAW CH OCT 2002:   NAME
LTYP.                                                 04R:   LOG TYPE
LVSN.                                                   1:   LOG VERSION
BHT .DEGC                                             101:   BH TEMP
BS  .IN                                             9.625:   BIT SIZE
BHS .                                                CASE:   BOREHOLE STATUS
BLI .M                                               2800:   BOTTOM DEPTH LOGGED
BHIS.                                                  RC:   BRIEF HISTORY
CS  .IN                                             7.625:   CASING SIZE
CSW .LB/F                                            52.3:   CASING WEIGHT
R1  .                                 Log correlated with:   COMMENT  1
R2  .       Compensated formation density log 1-April-197:   COMMENT  2
R4  .          Weight expendable tubing 18.6 lbs per foot:   COMMENT  4
R5  .              Weight 7 5/8" casing 33.7 lbs per foot:   COMMENT  5
R7  .                                      Set CSID 5.98":   COMMENT  7
R8  .                   Set CWEI 33.7 + 18.6  =  52.3 LBS:   COMMENT  8
R9  .                                    Set CSIZ 7.625 ":   COMMENT  9
DMF .                                                 ORT:   DRILL MEAS FROM
EDF .M                                               5.62:   ELEV DRILL FLOOR
ELZ .                                              5.62 M:   ELEVATION LOG ZERO
ENGI.                                         M. Riedeman:   ENGINEER
FHIS.                                            RAW-DLIS:   FULL HISTORY
HIDE.                                               RST-C:   HEADER ID
LCNM.                                        Schlumberger:   LOGGING CONTRACTOR
LMF .                                                 ORT:   LOGS MEAS FROM
MATR.                                                LIME:   MATRIX
MRT .DEGC                                             101:   MAX REC TEMP
DFT .                                                 gas:   MUD TYPE
CN  .                                                 NAM:   OPERATOR
RUN .                                                   1:   RUN
DATE.                                          2002/10/25:   RUN DATE
RW  .OHMM                                               1:   RW
STEM.DEGC                                              18:   SURFACE TEMPERATURE
TLAB.                                                1100:   TIME LOGGER ON BOT
TLI .M                                                840:   TOP DEPTH LOGGED
WITN.                           P van der Zee & S. Yntema:   WITNESS
~Curve Information Block
#MNEM.UNIT                                        API CODE    No Description
#=========                                        ========    == ===========
DEPT.M                                       00 001 00 00:     1  DEPTH
AIRB.                                                    :     2  RST Air Borehole Diagnostic
CIRF.                                                    :     3  RST Capture to Inelastic Ratio Far
CIRN.                                                    :     4  RST Capture to Inelastic Ratio Near
FBAC.CPS                                                 :     5  Far Background Count Rate
GR.API                                                   :     6  Gamma Ray
IRAT.                                                    :     7  RST Inelastic Ratio
NBAC.CPS                                                 :     8  Near Background Count Rate
SBNA.CU                                                  :     9  RST Sigma Borehole Near Apparent
SFNA.CU                                                  :    10  RST Sigma Formation Near Apparent
SIGM.CU                                                  :    11  Formation Sigma (Neutron Capture Cross S
TPHI.FRAC                                                :    12  Thermal Decay Porosity
~ASCII
# ...
 2658.6180     1.0000      .1436      .0808  3275.0322     9.4893     1.0831  1867.3855   129.3267    49.2499    67.3712     -.0090
 2658.7704     1.0000      .1443      .0791  3287.4573     9.5743     1.0792  1836.4972   136.4207    50.6169    67.3492     -.0042
 2658.9228     1.0000      .1428      .0833  3269.1506     9.8973     1.0772  1837.5668   133.5921    52.0905    68.4928      .0122
 2659.0752     1.0000      .1427      .0885  3284.2341     9.5090     1.0821  1818.0483   133.9117    47.2168    68.2424      .0372
 2659.2276     1.0000      .1461      .0883  3279.9561     9.7253     1.0947  1811.3636   127.4088    46.1225    68.6528      .0657
 2659.3800     1.0000      .1433      .0850  3278.8865     9.5847     1.0958  1815.6418   122.8490    53.6559    67.5431      .0424
 2659.5324     1.0000      .1426      .0872  3300.6868     9.1922     1.0907  1818.1870   140.4547    52.2031    68.0356      .0366
 2659.6848     1.0000      .1415      .0859  3271.8101     9.2736     1.0890  1838.5078   132.5233    49.2760    66.5529      .0081
 2659.8372     1.0000      .1340      .0803  3281.6865    10.2439     1.0799  1827.1165   131.1145    50.6882    65.9695      .0176
 2659.9896     1.0000      .1427      .0849  3306.4111    11.3297     1.0863  1838.3462   129.0126    48.1592    65.8058      .0053
 2660.1420     1.0000      .1497      .0807  3317.9170    11.2485     1.0889  1857.0629   133.5603    52.1929    66.3891     -.0039
 2660.2944     1.0000      .1434      .0824  3321.3696    11.6404     1.0962  1848.6405   132.0347    50.2683    66.3523      .0065
 2660.4468     1.0000      .1479      .0841  3342.1006    11.7207     1.1061  1831.6620   125.2460    44.7463    66.5908      .0286
 2660.5992     1.0000      .1425      .0895  3325.6482    10.8888     1.0950  1858.9344   126.7181    49.9195    66.3114      .0332
 2660.7516     1.0000      .1432      .0834  3320.0649     9.5867     1.0922  1860.0043   134.1032    49.4754    65.7212      .0188
 2660.9040     1.0000      .1407      .0834  3324.8772     9.0210     1.0803  1857.5977   131.6253    46.1232    65.6589      .0168
 2661.0564     1.0000      .1428      .0848  3341.8342     8.7701     1.0790  1870.4320   126.6413    53.7575    65.4202      .0152
 2661.2088     1.0000      .1402      .0769  3306.0042     8.6892     1.0819  1853.7156   133.9659    49.9906    65.8064      .0133
 2661.3612     1.0000      .1439      .0924  3329.9429     8.2722     1.0925  1844.0900   132.5134    51.5942    65.9970     -.0021
 2661.5136     1.0000      .1511      .0838  3299.9963     8.4335     1.0979  1845.8556   138.1352    53.2358    66.1629     -.0062
 2661.6660     1.0000      .1498      .0940  3288.2087     9.2216     1.0978  1844.7860   135.8232    49.9119    66.7822      .0084
 2661.8184     1.0000      .1469      .0933  3291.9524     9.4040     1.0887  1830.4812   132.3650    50.6406    66.2321      .0269
 2661.9708     1.0000      .1534      .0870  3290.1038     9.0618     1.0906  1836.3634   126.6088    51.0595    65.0628      .0197
 2662.1232     1.0000      .1421      .0870  3295.4509     9.8240     1.0891  1852.2726   132.5805    50.0557    64.8371      .0016
 2662.2756     1.0000      .1453      .0849  3297.4563     9.8789     1.0920  1836.7649   138.1726    54.7295    65.2432     -.0107
 2662.4280     1.0000      .1478      .0851  3294.7822     9.6570     1.0908  1837.8341   132.5322    48.2215    65.9694     -.0008
 2662.5804     1.0000      .1436      .0872  3308.1509    10.2236     1.0902  1851.0750   129.4586    55.3943    65.2278      .0099
 2662.7328     1.0000      .1495      .0810  3267.5393    10.0807     1.0811  1852.6792   125.0582    53.4474    64.2080      .0013
 2662.8852     1.0000      .1473      .0759  3310.7131     9.8190     1.0804  1874.3368   128.7747    50.8541    64.3427      .0037
 2663.0376     1.0000      .1471      .0878  3289.8577    10.4924     1.0786  1869.5239   129.1622    51.6504    64.1242      .0098
 2663.1900     1.0000      .1450      .0879  3313.2615    10.5732     1.0908  1869.5239   128.2329    50.0585    63.3305      .0014
 2663.3424     1.0000      .1446      .0880  3287.6157    10.4917     1.0907  1871.6630   135.1356    44.0581    63.2219      .0022
 2663.4948     1.0000      .1458      .0815  3275.7092    10.2495     1.0868  1865.1124   128.7393    47.0147    64.3081     -.0153
 2663.6472     1.0000      .1455      .0839  3292.6963    10.8338     1.0845  1854.9517   135.0829    52.3946    64.1658     -.0088
 2663.7996     1.0000      .1525      .0800  3247.6494    10.5912     1.0829  1859.2300   126.9363    50.2737    63.6483     -.0264
 2663.9520     1.0000      .1415      .0836  3240.2966    11.3161     1.0872  1867.2515   132.4998    46.6785    63.6035     -.0089
 2664.1044     1.0000      .1422      .0831  3252.0540    10.6697     1.0859  1858.1605   132.8625    51.1696    64.5292      .0012
 2664.2568     1.0000      .1394      .0894  3231.0725    10.8025     1.0853  1845.9894   133.0386    49.1336    64.8887      .0155
 2664.4092     1.0000      .1417      .0839  3272.9094    10.2389     1.0731  1845.8606   135.5982    55.7978    64.4184      .0072
 2664.5616     1.0000      .1429      .0866  3235.7437     9.8916     1.0639  1839.3146   132.4419    48.8410    64.3718     -.0010
 2664.7140     1.0000      .1508      .0800  3247.0994     9.4902     1.0624  1868.1918   132.3823    48.2500    64.5092      .0006
 2664.8664     1.0000      .1469      .0788  3232.7859     9.1667     1.0691  1877.2827   125.3596    51.2946    64.1288     -.0018
 2665.0188     1.0000      .1488      .0878  3247.7593     9.2766     1.0628  1870.7319   128.9111    51.1619    62.9398     -.0211
 2665.1712     1.0000      .1454      .0788  3246.2966     9.9236     1.0614  1888.9137   135.5302    53.8886    63.4547     -.0228
 2665.3236     1.0000      .1464      .0745  3264.0686    10.1087     1.0651  1903.8871   127.2598    47.2597    63.2476     -.0352
 2665.4760     1.0000      .1491      .0823  3291.7266     9.8661     1.0744  1881.9618   131.4937    53.9811    63.9050     -.0158
 2665.6284     1.0000      .1400      .0764  3307.2346    10.2704     1.0819  1898.0046   128.9635    51.8941    63.9855     -.0256
 2665.7808     1.0000      .1322      .0752  3303.0906    10.5934     1.0853  1922.0691   136.7898    54.2225    63.9850     -.0283
 2665.9332     1.0000      .1374      .0831  3310.9705     9.7587     1.0894  1941.3203   137.2495    52.0225    64.5640     -.0295
 2666.0856     1.0000      .1439      .0801  3275.4250     9.2739     1.0809  1935.1375   134.0939    53.7205    65.7221     -.0202
 2666.2380     1.0000      .1372      .0790  3295.2109     9.2739     1.0837  1934.1969   134.1204    50.0072    65.7255     -.0072
 2666.3904     1.0000      .1431      .0789  3301.6282     9.3409     1.0769  1896.2290   129.9668    48.2406    65.2447      .0048
 2666.5428     1.0000      .1495      .0902  3329.9705     8.2890     1.0704  1899.9723   127.0904    50.7579    65.0920      .0132
 2666.6952     1.0000      .1447      .0870  3337.4573     8.3958     1.0548  1893.5598   135.5589    48.1917    66.1502      .0472
 2666.8476     1.0000      .1364      .0779  3356.8345     9.2045     1.0514  1899.3086   123.9032    50.0200    67.2262      .0562
 2667.0000     1.0000      .1343      .0841  3333.3049     9.5275     1.0604  1878.4528   132.4281    48.0002    66.5086      .0647
 2667.1524     1.0000      .1327      .0841  3340.1228     8.8581     1.0841  1908.9341   130.5578    49.1256    65.5123      .0213
 2667.3048     1.0000      .1427      .0896  3318.5986    10.0717     1.0982  1891.2871   141.2554    49.9491    65.4649      .0098
 2667.4572     1.0000      .1477      .0905  3331.9680     9.9649     1.0961  1883.5059   134.0164    54.2732    66.4786      .0026
 2667.6096     1.0000      .1459      .0860  3346.1389     9.8840     1.0929  1866.9282   131.4962    53.6760    67.1301      .0195
 2667.7620     1.0000      .1412      .0802  3371.9336    10.5389     1.1004  1867.3569   131.4394    50.7803    66.9860      .0173
