~VERSION INFORMATION
VERS.                                                 2.0:   CWLS Log ASCII Standard-VERSION 2.0
WRAP.                                                  NO:   One line per depth step
~Well Information Block
STRT.M                                          1407.1092:   Top Depth
STOP.M                                          3062.9352:   Bottom Depth
STEP.M                                             .15240:   Depth Increment
NULL.                                            -999.250:   Null Value
FLD .                                          EEMSKANAAL:   Field Name
WELL.                                       EEMSKANAAL- 1:   NAME
EDF .m                                               5.58:   ELEV DRILL FLOOR
EPD .                                                   0:   ELEV PERM DATUM
EGL .m                                                -.9:   GROUND LEVEL
LMF .                                                  DF:   LOGS MEAS FROM
COMP.                                                 NAM:   OPERATOR
PDAT.                                                 NAP:   PERM DATUM
SPUD.                                          1970/11/08:   SPUD DATE
UWBI.                                      11000074112201:   UWBI
WELL.                                       EEMSKANAAL- 1:   HOLE NAME
~PARAMETER INFORMATION (log)
LNAM.                                RUN 03 RAW OH 9.625":   NAME
LTYP.                                                 03R:   LOG TYPE
LVSN.                                                   1:   LOG VERSION
BS  .5/8"                                               9:   BIT SIZE
BLI .M                                               3064:   BOTTOM DEPTH LOGGED
BHIS.                                            RCCCCCCC:   BRIEF HISTORY
FHIS.              RAW-TIGA/COPY/COPY/COPY/COPY/COPY/COPY:   FULL HISTORY
MRT .C                                                 98:   MAX REC TEMP
DFT .                                          SALT SPERS:   MUD TYPE
RMS .                                                    :   RM
MST .                                                    :   RM TEMP
RMCS.                                                    :   RMC
MCST.                                                    :   RMC TEMP
RMFS.                                                    :   RMF
MFST.                                                    :   RMF TEMP
TCS .                                               4 HRS:   TIME SINCE CIRCLN
TLI .M                                               1407:   TOP DEPTH LOGGED
~Curve Information Block
#MNEM.UNIT                                        API CODE    No Description
#=========                                        ========    == ===========
DEPT.M                                       00 001 00 00:     1  DEPTH
CALF.IN                                                  :     2  CALIPER FROM FORMATION DENSITY LOG
FDC.g/c3                                                 :     3  Formation Density Log (Compensated Open
GR.GAPI                                                  :     4  Gamma Ray
~ASCII
# ...
 1518.0564    10.9940     2.4690     9.4290
 1518.2088    10.9950     2.4750     8.6070
 1518.3612    10.9930     2.4810     8.7820
 1518.5136    10.9930     2.4790     9.6880
 1518.6660    10.9930     2.4880    10.4130
 1518.8184    10.9930     2.4720    10.0250
 1518.9708    10.9910     2.4870     9.9070
 1519.1232    10.9890     2.5040    10.5510
 1519.2756    10.9890     2.5060    10.9970
 1519.4280    10.9910     2.5150    11.1280
 1519.5804    10.9930     2.5060    10.5640
 1519.7328    10.9930     2.4980     9.9870
 1519.8852    10.9930     2.4740     9.4620
 1520.0376    10.9950     2.5000     9.1630
 1520.1900    11.0040     2.5170     8.6470
 1520.3424    11.0050     2.5030     8.6310
 1520.4948    11.0050     2.4960     8.9560
 1520.6472    11.0070     2.4850     9.2910
 1520.7996    11.0090     2.4640    11.1250
 1520.9520    11.0090     2.4720    11.4340
 1521.1044    11.0090     2.4850    11.2790
 1521.2568    11.0050     2.4930    11.1030
 1521.4092    11.0030     2.5110    10.0750
 1521.5616    10.9990     2.5130     9.9520
 1521.7140    10.9970     2.5380    11.0880
 1521.8664    10.9970     2.5500    11.7340
 1522.0188    10.9970     2.5330    12.5450
 1522.1712    10.9940     2.5150    13.2760
 1522.3236    10.9930     2.5020    13.8390
 1522.4760    10.9930     2.5110    12.6170
 1522.6284    10.9930     2.5280    12.0190
 1522.7808    10.9960     2.5110    12.1800
 1522.9332    11.0020     2.5100    11.9050
 1523.0856    11.0050     2.5390    11.6340
 1523.2380    11.0030     2.5500    11.5930
 1523.3904    11.0010     2.5530    13.8190
 1523.5428    11.0010     2.5440    14.9080
 1523.6952    11.0050     2.5450    14.8820
 1523.8476    11.0070     2.5590    13.0670
 1524.0000    11.0050     2.5550    14.1300
 1524.1524    11.0050     2.5390    14.2770
 1524.3048    11.0050     2.5430    13.1450
 1524.4572    11.0070     2.5480    12.6860
 1524.6096    11.0070     2.5360    14.0460
 1524.7620    11.0020     2.5150    13.4720
 1524.9144    11.0010     2.5180    12.6920
 1525.0668    10.9990     2.5080    12.7950
 1525.2192    10.9860     2.4940    14.5160
 1525.3716    10.9720     2.4990    16.9090
 1525.5240    10.9580     2.4990    18.1030
 1525.6764    10.9480     2.4980    16.3980
 1525.8288    10.9320     2.5000    14.4460
 1525.9812    10.9090     2.5070    15.0880
 1526.1336    10.8950     2.5250    15.1640
 1526.2860    10.8770     2.5170    14.4560
 1526.4384    10.8700     2.5270    13.6280
 1526.5908    10.8690     2.5360    13.5770
 1526.7432    10.8690     2.5310    13.3880
 1526.8956    10.8650     2.5310    13.2910
 1527.0480    10.8650     2.5260    12.7000
 1527.2004    10.8590     2.5210    11.0120
 1527.3528    10.8520     2.5180    11.4550
 1527.5052    10.8420     2.5090    10.8590
 1527.6576    10.8250     2.5030    10.5950
 1527.8100    10.8040     2.4940    10.6680
 1527.9624    10.7930     2.4860    11.6340
 1528.1148    10.7810     2.4970    11.9100
 1528.2672    10.7770     2.5100    11.2420
 1528.4196    10.7790     2.5080    11.8560
 1528.5720    10.7810     2.4950    11.2630
 1528.7244    10.7770     2.5040    10.2490
 1528.8768    10.7770     2.5140    10.4100
 1529.0292    10.7790     2.5120    10.7360
 1529.1816    10.7770     2.4950    10.3820
 1529.3340    10.7770     2.5200    10.5200
 1529.4864    10.7770     2.5330    12.0860
 1529.6388    10.7770     2.5270    12.0990
 1529.7912    10.7770     2.5200    12.4470
 1529.9436    10.7770     2.5070    12.4800
 1530.0960    10.7770     2.4910    12.0190
 1530.2484    10.7770     2.4940     9.9970
 1530.4008    10.7770     2.5040     9.8370
 1530.5532    10.7770     2.5020     9.1360
 1530.7056    10.7770     2.5050     9.9260
 1530.8580    10.7770     2.5020     9.9560
 1531.0104    10.7770     2.5200     9.6310
 1531.1628    10.7740     2.5330    10.7070
 1531.3152    10.7730     2.5070    12.3940
 1531.4676    10.7730     2.4950    11.1740
 1531.6200    10.7720     2.5220    11.2500
 1531.7724    10.7690     2.5400    11.7790
 1531.9248    10.7640     2.5230    10.6600
 1532.0772    10.7610     2.5280     8.8850
 1532.2296    10.7610     2.5420     8.8220
 1532.3820    10.7610     2.5380     9.5110
 1532.5344    10.7560     2.5310    10.7380
 1532.6868    10.7520     2.5190    11.8340
 1532.8392    10.7490     2.5330    11.2970
 1532.9916    10.7490     2.5470    11.0070
 1533.1440    10.7510     2.5410    11.1800
 1533.2964    10.7570     2.5190    10.6480
 1533.4488    10.7650     2.5120     9.9870
 1533.6012    10.7650     2.5210     9.6590
 1533.7536    10.7690     2.5140     9.6000
 1533.9060    10.7690     2.5130     9.4210
 1534.0584    10.7650     2.5100     9.5600
 1534.2108    10.7650     2.5080    11.2890
 1534.3632    10.7650     2.5200    12.3420
 1534.5156    10.7640     2.5330    12.6500
 1534.6680    10.7570     2.5340    12.8810
 1534.8204    10.7530     2.5420    12.7790
 1534.9728    10.7500     2.5480    12.3760
 1535.1252    10.7460     2.5250    12.2740
 1535.2776    10.7410     2.5110    12.4500
 1535.4300    10.7320     2.5090    11.9880
 1535.5824    10.7140     2.5180    12.0180
 1535.7348    10.6980     2.5170    12.0680
 1535.8872    10.6880     2.5100    11.6300
 1536.0396    10.6750     2.5180    10.9070
 1536.1920    10.6630     2.5240    11.6910
 1536.3444    10.6530     2.5540    12.0620
 1536.4968    10.6400     2.5700    11.9430
 1536.6492    10.6300     2.5580    12.0820
 1536.8016    10.6210     2.5540    12.6020
 1536.9540    10.6140     2.5710    12.6880
 1537.1064    10.6030     2.5510    12.7060
 1537.2588    10.5920     2.5600    12.7640
 1537.4112    10.5860     2.5560    13.1370
 1537.5636    10.5820     2.5600    13.9810
 1537.7160    10.5810     2.5600    14.8040
 1537.8684    10.5810     2.5610    14.7980
 1538.0208    10.5810     2.5450    14.5270
 1538.1732    10.5810     2.5360    13.9960
 1538.3256    10.5820     2.5270    13.1150
 1538.4780    10.5850     2.5340    13.2130
 1538.6304    10.5880     2.5620    13.9470
 1538.7828    10.5890     2.5500    14.3740
 1538.9352    10.5890     2.5460    14.4600
 1539.0876    10.5920     2.5570    14.1180
 1539.2400    10.5930     2.5470    12.7860
 1539.3924    10.5930     2.5320    14.8500
 1539.5448    10.5930     2.5350    16.3660
 1539.6972    10.5930     2.5460    17.3820
 1539.8496    10.5930     2.5530    17.5120
 1540.0020    10.5930     2.5690    16.6790
 1540.1544    10.5920     2.5810    15.5890
 1540.3068    10.5890     2.5650    14.7160
 1540.4592    10.5890     2.5490    14.2180
 1540.6116    10.5890     2.5530    14.0470
 1540.7640    10.5890     2.5440    13.7020
 1540.9164    10.5850     2.5460    13.5100
 1541.0688    10.5850     2.5660    13.7660
 1541.2212    10.5850     2.5920    14.5630
 1541.3736    10.5850     2.6020    15.7770
 1541.5260    10.5850     2.5830    17.1060
 1541.6784    10.5850     2.5570    18.5930
 1541.8308    10.5850     2.5540    20.0570
 1541.9832    10.5850     2.5440    18.9070
 1542.1356    10.5860     2.5320    16.9280
 1542.2880    10.5910     2.5310    17.1480
 1542.4404    10.5970     2.5390    19.3280
 1542.5928    10.6010     2.5500    20.4840
 1542.7452    10.6040     2.5530    20.4950
 1542.8976    10.6160     2.5480    21.4880
 1543.0500    10.6290     2.5280    22.8370
 1543.2024    10.6400     2.5270    21.5070
 1543.3548    10.6430     2.5350    19.4370
 1543.5072    10.6170     2.5280    17.8830
 1543.6596    10.6200     2.5380    20.2790
 1543.8120    10.6170     2.5460    20.2210
 1543.9644    10.6170     2.5550    21.9740
 1544.1168    10.6160     2.5570    23.8370
 1544.2692    10.6020     2.5500    24.9550
 1544.4216    10.5900     2.5420    23.9020
 1544.5740    10.5810     2.5220    24.3880
 1544.7264    10.5750     2.5150    25.2960
 1544.8788    10.5700     2.5130    24.6740
 1545.0312    10.5790     2.5270    23.7950
 1545.1836    10.6130     2.5380    24.3670
 1545.3360    10.6010     2.5500    25.4570
 1545.4884    10.5970     2.5490    25.7670
 1545.6408    10.5950     2.5500    26.3150
