~VERSION INFORMATION
VERS.                                                 2.0:   CWLS Log ASCII Standard-VERSION 2.0
WRAP.                                                  NO:   One line per depth step
~Well Information Block
STRT.M                                            10.0584:   Top Depth
STOP.M                                          1400.8608:   Bottom Depth
STEP.M                                             .15240:   Depth Increment
NULL.                                            -999.250:   Null Value
FLD .                                          EEMSKANAAL:   Field Name
WELL.                                       EEMSKANAAL- 1:   NAME
EDF .m                                               5.58:   ELEV DRILL FLOOR
EPD .                                                   0:   ELEV PERM DATUM
EGL .m                                                -.9:   GROUND LEVEL
LMF .                                                  DF:   LOGS MEAS FROM
COMP.                                                 NAM:   OPERATOR
PDAT.                                                 NAP:   PERM DATUM
SPUD.                                          1970/11/08:   SPUD DATE
UWBI.                                      11000074112201:   UWBI
WELL.                                       EEMSKANAAL- 1:   HOLE NAME
~PARAMETER INFORMATION (log)
LNAM.                                RUN 02 RAW OH 14.75":   NAME
LTYP.                                                 02R:   LOG TYPE
LVSN.                                                   1:   LOG VERSION
BS  .3/4"                                              14:   BIT SIZE
BLI .M                                             1402.5:   BOTTOM DEPTH LOGGED
BHIS.                                            RCCCCCCC:   BRIEF HISTORY
FHIS.              RAW-TIGA/COPY/COPY/COPY/COPY/COPY/COPY:   FULL HISTORY
MRT .C                                                 50:   MAX REC TEMP
DFT .                                         CHALK WATER:   MUD TYPE
RMS .                                                1.44:   RM
MST .C                                                 11:   RM TEMP
RMCS.                                                1.93:   RMC
MCST.C                                                 19:   RMC TEMP
RMFS.                                               0.917:   RMF
MFST.C                                                 19:   RMF TEMP
TCS .                                                 N/A:   TIME SINCE CIRCLN
TLI .M                                                 10:   TOP DEPTH LOGGED
~Curve Information Block
#MNEM.UNIT                                        API CODE    No Description
#=========                                        ========    == ===========
DEPT.M                                       00 001 00 00:     1  DEPTH
BCSL.US/F                                                :     2  Interval Transit Time From Borehole Comp
GRIC.GAPI                                                :     3  GAMMA RAY LOG IN CASING
GRS.GAPI                                                 :     4  GAMMA RAY FROM SONIC LOG
~ASCII
# ...
 1036.3200   107.7380  -999.2500     6.6150
 1036.4724   109.1640  -999.2500     6.9920
 1036.6248   110.6500  -999.2500     6.5370
 1036.7772   112.2030  -999.2500     6.0580
 1036.9296   113.5750  -999.2500     5.8880
 1037.0820   113.8490  -999.2500     5.7240
 1037.2344   114.5990  -999.2500     5.7210
 1037.3868   114.2870  -999.2500     5.7600
 1037.5392   114.2350  -999.2500     5.7600
 1037.6916   114.4370  -999.2500     5.7600
 1037.8440   115.3160  -999.2500     5.7600
 1037.9964   113.8620  -999.2500     5.6590
 1038.1488   114.5810  -999.2500     5.4990
 1038.3012   114.5600  -999.2500     5.2630
 1038.4536   113.3130  -999.2500     4.9900
 1038.6060   113.4990  -999.2500     4.8600
 1038.7584   113.2680  -999.2500     4.8600
 1038.9108   112.5730  -999.2500     4.9410
 1039.0632   112.1310  -999.2500     5.7810
 1039.2156   112.9810  -999.2500     6.0820
 1039.3680   111.0330  -999.2500     6.1200
 1039.5204   111.7800  -999.2500     6.1080
 1039.6728   112.9350  -999.2500     6.0600
 1039.8252   113.3450  -999.2500     6.0190
 1039.9776   113.0980  -999.2500     5.8470
 1040.1300   112.5960  -999.2500     5.6260
 1040.2824   111.6210  -999.2500     5.3170
 1040.4348   112.3910  -999.2500     5.0290
 1040.5872   113.5790  -999.2500     5.0320
 1040.7396   114.8080  -999.2500     5.1120
 1040.8920   113.2490  -999.2500     5.1020
 1041.0444   109.6420  -999.2500     5.0730
 1041.1968   110.3040  -999.2500     4.9380
 1041.3492   111.2700  -999.2500     4.8010
 1041.5016   111.4560  -999.2500     4.7400
 1041.6540   111.4320  -999.2500     4.7720
 1041.8064   111.9550  -999.2500     4.8040
 1041.9588   111.5970  -999.2500     4.9220
 1042.1112   110.5530  -999.2500     5.1800
 1042.2636   109.5250  -999.2500     5.4930
 1042.4160   109.6950  -999.2500     5.7500
 1042.5684   110.4720  -999.2500     5.5260
 1042.7208   114.0910  -999.2500     4.9120
 1042.8732   114.7650  -999.2500     4.6880
 1043.0256   112.2880  -999.2500     4.8310
 1043.1780   109.6470  -999.2500     5.0950
 1043.3304   107.4410  -999.2500     5.4720
 1043.4828   107.6720  -999.2500     5.7940
 1043.6352   107.1960  -999.2500     5.9400
 1043.7876   106.3950  -999.2500     5.8740
 1043.9400   106.3780  -999.2500     5.6160
 1044.0924   106.9070  -999.2500     5.7190
 1044.2448   107.4630  -999.2500     6.1430
 1044.3972   107.9510  -999.2500     6.4750
 1044.5496   109.1860  -999.2500     5.6880
 1044.7020   110.4950  -999.2500     4.6990
 1044.8544   110.5180  -999.2500     3.9590
 1045.0068   111.8080  -999.2500     3.5400
 1045.1592   111.7580  -999.2500     3.6290
 1045.3116   110.5290  -999.2500     3.9970
 1045.4640   109.0980  -999.2500     4.4380
 1045.6164   107.8530  -999.2500     4.8290
 1045.7688   107.1400  -999.2500     5.0320
 1045.9212   108.6410  -999.2500     5.1850
 1046.0736   108.2370  -999.2500     5.3680
 1046.2260   107.1520  -999.2500     5.5990
 1046.3784   106.2490  -999.2500     5.8310
 1046.5308   106.4620  -999.2500     6.0880
 1046.6832   106.9670  -999.2500     5.8880
 1046.8356   107.9700  -999.2500     6.5640
 1046.9880   107.2930  -999.2500     7.6760
 1047.1404   107.0990  -999.2500     7.3510
 1047.2928   107.7680  -999.2500     6.5780
 1047.4452   108.1890  -999.2500     6.0010
 1047.5976   107.3900  -999.2500     5.5710
 1047.7500   107.1100  -999.2500     5.1970
 1047.9024   107.2800  -999.2500     5.0390
 1048.0548   107.5200  -999.2500     4.9610
 1048.2072   108.8170  -999.2500     4.8640
 1048.3596   110.0660  -999.2500     4.9560
 1048.5120   111.1890  -999.2500     5.1000
 1048.6644   111.6800  -999.2500     5.1000
 1048.8168   112.3000  -999.2500     4.9900
 1048.9692   112.5960  -999.2500     4.5140
 1049.1216   111.7380  -999.2500     4.2360
 1049.2740   112.2940  -999.2500     4.7200
 1049.4264   112.5500  -999.2500     5.2920
 1049.5788   112.0780  -999.2500     5.0890
 1049.7312   113.2080  -999.2500     4.7710
 1049.8836   113.0540  -999.2500     4.8150
 1050.0360   111.7780  -999.2500     5.2610
 1050.1884   112.6940  -999.2500     5.7980
 1050.3408   112.4040  -999.2500     6.4540
 1050.4932   111.3340  -999.2500     7.6740
 1050.6456   111.8180  -999.2500     7.7230
 1050.7980   111.0180  -999.2500     7.0580
 1050.9504   111.0220  -999.2500     6.4340
 1051.1028   111.3640  -999.2500     6.2080
 1051.2552   111.6070  -999.2500     6.1090
 1051.4076   112.7550  -999.2500     6.0600
 1051.5600   113.1260  -999.2500     6.0870
 1051.7124   113.8080  -999.2500     6.1140
 1051.8648   114.1820  -999.2500     6.0260
 1052.0172   113.8370  -999.2500     5.7660
 1052.1696   114.6620  -999.2500     5.4650
 1052.3220   115.3150  -999.2500     5.3400
 1052.4744   114.4390  -999.2500     5.3850
 1052.6268   114.6400  -999.2500     5.7570
 1052.7792   116.0470  -999.2500     6.1450
 1052.9316   117.0360  -999.2500     6.3870
 1053.0840   115.8900  -999.2500     6.1760
 1053.2364   113.5530  -999.2500     5.8360
 1053.3888   111.9200  -999.2500     5.5220
 1053.5412   112.2640  -999.2500     5.4260
 1053.6936   112.0390  -999.2500     5.4000
 1053.8460   111.6860  -999.2500     5.4960
 1053.9984   111.5040  -999.2500     5.4900
 1054.1508   110.2340  -999.2500     5.1640
 1054.3032   110.3800  -999.2500     4.6400
 1054.4556   110.7070  -999.2500     4.3000
 1054.6080   109.4160  -999.2500     4.3300
 1054.7604   108.9880  -999.2500     4.5940
 1054.9128   107.4630  -999.2500     4.9050
 1055.0652   106.3240  -999.2500     5.0690
 1055.2176   107.5840  -999.2500     5.0920
 1055.3700   108.9740  -999.2500     4.9600
 1055.5224   109.9640  -999.2500     4.7780
 1055.6748   110.5990  -999.2500     4.4930
 1055.8272   110.9250  -999.2500     4.2100
 1055.9796   110.7890  -999.2500     3.8800
 1056.1320   110.0200  -999.2500     3.6200
 1056.2844   109.4040  -999.2500     3.8150
 1056.4368   108.7800  -999.2500     4.8190
 1056.5892   107.5640  -999.2500     5.6420
 1056.7416   106.7700  -999.2500     6.6050
 1056.8940   106.0110  -999.2500     7.6530
 1057.0464   105.3660  -999.2500     8.1570
 1057.1988   104.9130  -999.2500     7.5960
 1057.3512   104.8000  -999.2500     6.8860
 1057.5036   105.2910  -999.2500     6.1040
 1057.6560   106.5390  -999.2500     5.4680
 1057.8084   107.4600  -999.2500     5.0300
 1057.9608   108.0710  -999.2500     4.8840
 1058.1132   106.7190  -999.2500     4.9820
 1058.2656   105.7060  -999.2500     5.4160
 1058.4180   104.4760  -999.2500     5.8580
 1058.5704   103.6420  -999.2500     6.1360
 1058.7228   104.0160  -999.2500     6.3090
 1058.8752   104.6880  -999.2500     6.4130
 1059.0276   105.2080  -999.2500     6.3760
 1059.1800   105.7140  -999.2500     6.1680
 1059.3324   105.2960  -999.2500     5.6490
 1059.4848   103.5450  -999.2500     4.9430
 1059.6372   102.6770  -999.2500     4.7580
 1059.7896   103.2020  -999.2500     5.2390
 1059.9420   104.1910  -999.2500     5.9920
 1060.0944   104.9480  -999.2500     6.5960
 1060.2468   105.2480  -999.2500     6.8930
 1060.3992   105.3820  -999.2500     6.5430
 1060.5516   106.0070  -999.2500     5.9690
 1060.7040   107.6560  -999.2500     6.9860
 1060.8564   109.9930  -999.2500     7.5860
 1061.0088   111.8380  -999.2500     7.2800
 1061.1612   112.1950  -999.2500     6.7050
 1061.3136   110.9840  -999.2500     6.3960
 1061.4660   109.7020  -999.2500     6.2000
 1061.6184   108.7550  -999.2500     6.1690
 1061.7708   109.7340  -999.2500     6.1200
 1061.9232   109.5850  -999.2500     6.1200
 1062.0756   108.8840  -999.2500     6.1200
 1062.2280   109.1380  -999.2500     6.1660
 1062.3804   107.2890  -999.2500     6.4180
 1062.5328   108.4210  -999.2500     6.4210
 1062.6852   109.9350  -999.2500     6.0960
 1062.8376   111.4350  -999.2500     5.3170
 1062.9900   112.7910  -999.2500     4.8720
 1063.1424   112.1030  -999.2500     5.1180
 1063.2948   111.4810  -999.2500     5.8510
 1063.4472   111.2370  -999.2500     6.6700
 1063.5996   111.5470  -999.2500     6.7060
 1063.7520   110.3490  -999.2500     6.3160
 1063.9044   110.3010  -999.2500     5.7750
