~VERSION INFORMATION
VERS.                                                 2.0:   CWLS Log ASCII Standard-VERSION 2.0
WRAP.                                                  NO:   One line per depth step
~Well Information Block
STRT.M                                           836.5236:   Top Depth
STOP.M                                          2800.0452:   Bottom Depth
STEP.M                                             .15240:   Depth Increment
NULL.                                            -999.250:   Null Value
FLD .                                          EEMSKANAAL:   Field Name
WELL.                                       EEMSKANAAL- 2:   NAME
APD .M                                               5.62:   ABOVE PERM DATUM
CTRY.                                                  NE:   COUNTRY
EDF .m                                               5.62:   ELEV DRILL FLOOR
EPD .                                                   0:   ELEV PERM DATUM
EGL .m                                              -1.06:   GROUND LEVEL
LMF .                                                  DF:   LOGS MEAS FROM
COMP.                                                 NAM:   OPERATOR
PDAT.                                                 NAP:   PERM DATUM
SPUD.                                          1971/03/17:   SPUD DATE
STAT.                                           Unknown m:   STATE
UWBI.                                      11000074112601:   UWBI
WELL.                                       EEMSKANAAL- 2:   HOLE NAME
~PARAMETER INFORMATION (log)
LNAM.                              RUN 04 RAW CH OCT 2002:   NAME
LTYP.                                                 04R:   LOG TYPE
LVSN.                                                   1:   LOG VERSION
BHT .DEGC                                             101:   BH TEMP
BS  .IN                                             9.625:   BIT SIZE
BHS .                                                CASE:   BOREHOLE STATUS
BLI .M                                               2800:   BOTTOM DEPTH LOGGED
BHIS.                                                  RC:   BRIEF HISTORY
CS  .IN                                             7.625:   CASING SIZE
CSW .LB/F                                            52.3:   CASING WEIGHT
R1  .                                 Log correlated with:   COMMENT  1
R2  .       Compensated formation density log 1-April-197:   COMMENT  2
R4  .          Weight expendable tubing 18.6 lbs per foot:   COMMENT  4
R5  .              Weight 7 5/8" casing 33.7 lbs per foot:   COMMENT  5
R7  .                                      Set CSID 5.98":   COMMENT  7
R8  .                   Set CWEI 33.7 + 18.6  =  52.3 LBS:   COMMENT  8
R9  .                                    Set CSIZ 7.625 ":   COMMENT  9
DMF .                                                 ORT:   DRILL MEAS FROM
EDF .M                                               5.62:   ELEV DRILL FLOOR
ELZ .                                              5.62 M:   ELEVATION LOG ZERO
ENGI.                                         M. Riedeman:   ENGINEER
FHIS.                                            RAW-DLIS:   FULL HISTORY
HIDE.                                               RST-C:   HEADER ID
LCNM.                                        Schlumberger:   LOGGING CONTRACTOR
LMF .                                                 ORT:   LOGS MEAS FROM
MATR.                                                LIME:   MATRIX
MRT .DEGC                                             101:   MAX REC TEMP
DFT .                                                 gas:   MUD TYPE
CN  .                                                 NAM:   OPERATOR
RUN .                                                   1:   RUN
DATE.                                          2002/10/25:   RUN DATE
RW  .OHMM                                               1:   RW
STEM.DEGC                                              18:   SURFACE TEMPERATURE
TLAB.                                                1100:   TIME LOGGER ON BOT
TLI .M                                                840:   TOP DEPTH LOGGED
WITN.                           P van der Zee & S. Yntema:   WITNESS
~Curve Information Block
#MNEM.UNIT                                        API CODE    No Description
#=========                                        ========    == ===========
DEPT.M                                       00 001 00 00:     1  DEPTH
AIRB.                                                    :     2  RST Air Borehole Diagnostic
CIRF.                                                    :     3  RST Capture to Inelastic Ratio Far
CIRN.                                                    :     4  RST Capture to Inelastic Ratio Near
FBAC.CPS                                                 :     5  Far Background Count Rate
GR.API                                                   :     6  Gamma Ray
IRAT.                                                    :     7  RST Inelastic Ratio
NBAC.CPS                                                 :     8  Near Background Count Rate
SBNA.CU                                                  :     9  RST Sigma Borehole Near Apparent
SFNA.CU                                                  :    10  RST Sigma Formation Near Apparent
SIGM.CU                                                  :    11  Formation Sigma (Neutron Capture Cross S
TPHI.FRAC                                                :    12  Thermal Decay Porosity
~ASCII
# ...
 1096.8228     1.0000      .4075      .2506  3368.7053    13.1977      .8230  2124.5989    79.8979    42.5267    55.7578      .4728
 1096.9752     1.0000      .4246      .2581  3378.0632    13.9408      .8185  2134.4919    81.8019    39.8706    55.3654      .4667
 1097.1276     1.0000      .3928      .2242  3385.5505    15.2454      .8188  2145.4600    81.2755    41.0442    55.4205      .4656
 1097.2800     1.0000      .4027      .2487  3382.3416    14.9894      .8207  2147.0642    77.3087    41.3049    54.3945      .4678
 1097.4324     1.0000      .4300      .2602  3370.3101    14.9315      .8191  2140.6472    77.8138    41.6376    54.0633      .4663
 1097.5848     1.0000      .4434      .2566  3345.9951    15.4167      .8108  2131.6899    81.7185    41.5387    54.4365      .4684
 1097.7372     1.0000      .4455      .2625  3343.4463    15.6672      .7997  2127.2830    74.4122    40.8497    54.7227      .4682
 1097.8896     1.0000      .4535      .2598  3350.3984    15.4798      .8057  2125.1440    77.6077    40.3658    54.9344      .4709
 1098.0420     1.0000      .4496      .2710  3366.9758    16.7840      .8130  2128.6201    78.5293    40.1211    54.4300      .4706
 1098.1944     1.0000      .4477      .2597  3371.5046    16.1974      .8276  2112.4490    73.6502    39.0599    54.3798      .4655
 1098.3468     1.0000      .4473      .2716  3388.8838    15.9757      .8344  2120.4702    79.2463    40.7510    53.9122      .4659
 1098.4992     1.0000      .4422      .2721  3354.3103    16.7722      .8359  2130.7639    80.3840    40.6010    53.5838      .4657
 1098.6516     1.0000      .4554      .2760  3351.6367    15.8744      .8339  2119.1387    75.3610    40.7478    53.6685      .4728
 1098.8040     1.0000      .4628      .2779  3361.9233    15.4733      .8257  2118.7322    74.6168    40.3322    53.5466      .4748
 1098.9564     1.0000      .4725      .2857  3374.7571    15.3065      .8304  2104.2937    78.8321    41.0926    53.1868      .4782
 1099.1088     1.0000      .4573      .2855  3390.6438    15.2076      .8297  2123.0100    71.2705    38.5317    53.3261      .4776
 1099.2612     1.0000      .4657      .2819  3410.1455    14.7082      .8278  2109.9084    74.7693    40.1499    53.8869      .4826
 1099.4136     1.0000      .4651      .2712  3409.0759    15.2825      .8281  2106.8289    74.7688    38.8910    53.6308      .4785
 1099.5660     1.0000      .4440      .2891  3430.9783    15.0399      .8272  2076.8823    77.8596    41.4651    54.1509      .4810
 1099.7184     1.0000      .4491      .2728  3445.9517    15.1278      .8284  2079.5559    79.6013    41.8436    54.3037      .4816
 1099.8708     1.0000      .4545      .2786  3447.7151    14.3970      .8107  2091.4492    76.4892    40.4190    54.0056      .4814
 1100.0232     1.0000      .4618      .2781  3469.2478    13.7416      .8103  2086.1016    80.2085    40.7588    54.0207      .4806
 1100.1756     1.0000      .4551      .2751  3501.7439    13.4177      .8126  2079.0161    77.3093    42.7596    53.9708      .4794
 1100.3280     1.0000      .4523      .2750  3500.2502    14.2598      .8211  2090.7813    77.0103    41.9240    54.7492      .4819
 1100.4804     1.0000      .4399      .2723  3506.6677    14.5788      .8226  2080.8884    78.9359    40.4624    55.4016      .4865
 1100.6328     1.0000      .4333      .2694  3495.3123    15.5493      .8209  2088.3750    74.7336    40.6936    54.6365      .4880
 1100.7852     1.0000      .4448      .2714  3460.0486    15.8241      .8203  2058.4285    75.8754    41.0831    55.9568      .4903
 1100.9376     1.0000      .4433      .2782  3442.6689    15.5819      .8203  2085.4336    79.0567    42.1057    55.1536      .4868
 1101.0900     1.0000      .4534      .2787  3421.1526    13.9124      .8232  2103.2144    79.6015    40.2926    55.3817      .4849
 1101.2424     1.0000      .4470      .2757  3416.7727    14.1550      .8267  2117.1182    75.4232    40.2710    54.3843      .4808
 1101.3948     1.0000      .4524      .2728  3414.0547    14.1102      .8313  2130.2197    77.4021    42.2571    53.6660      .4758
 1101.5472     1.0000      .4346      .2692  3404.2698    13.2079      .8258  2143.0540    80.3644    40.1554    54.8976      .4764
 1101.6996     1.0000      .4491      .2738  3402.2561    13.2079      .8236  2132.8936    77.3062    41.8010    54.7145      .4776
 1101.8520     1.0000      .4458      .2653  3368.8162    13.5577      .8202  2140.3801    76.4228    44.7008    55.0229      .4772
 1102.0044     1.0000      .4500      .2751  3381.0049    14.5282      .8268  2122.8611    77.7671    39.5381    54.1106      .4737
 1102.1568     1.0000      .4537      .2709  3400.6577    13.5216      .8220  2131.6846    77.4647    43.1034    53.9405      .4691
 1102.3092     1.0000      .4539      .2716  3398.5186    14.0801      .8206  2127.9412    77.9401    43.0656    54.0815      .4728
 1102.4616     1.0000      .4457      .2674  3397.8416    14.9666      .8210  2156.8184    73.8377    41.3179    54.1696      .4684
 1102.6140     1.0000      .4393      .2643  3405.4712    14.7972      .8254  2153.2087    81.3372    40.9701    54.8371      .4689
 1102.7664     1.0000      .4433      .2663  3412.5491    14.4314      .8254  2150.4009    79.7619    39.9882    54.8625      .4647
 1102.9188     1.0000      .4481      .2720  3385.2756    15.3210      .8267  2145.0535    81.2065    42.3756    54.6978      .4722
 1103.0712     1.0000      .4346      .2689  3369.6865    15.6649      .8278  2126.8718    79.4532    40.6240    54.9023      .4776
 1103.2236     1.0000      .4282      .2751  3370.7556    15.3444      .8261  2107.0857    79.6324    40.9032    55.0315      .4846
 1103.3760     1.0000      .4352      .2636  3356.5845    15.8319      .8276  2107.6206    76.2370    43.0181    55.9708      .4860
 1103.5284     1.0000      .4344      .2673  3409.1523    14.9165      .8252  2107.2195    76.1652    39.9911    56.4226      .4841
 1103.6808     1.0000      .4097      .2542  3412.8955    15.0178      .8239  2118.3210    80.1406    41.6861    56.9501      .4827
 1103.8332     1.0000      .4186      .2516  3382.1467    15.1321      .8215  2110.8342    77.4623    41.6584    57.1241      .4776
 1103.9856     1.0000      .4160      .2560  3376.7991    14.8874      .8215  2119.5244    83.5329    41.4436    57.0166      .4648
 1104.1380     1.0000      .4065      .2507  3391.3804    15.2895      .8224  2102.9468    88.3820    40.2675    56.8577      .4591
 1104.2904     1.0000      .4122      .2416  3402.6104    14.6398      .8243  2099.0696    84.3974    42.3054    56.7962      .4469
 1104.4428     1.0000      .3898      .2499  3412.7710    14.0488      .8295  2077.6792    88.2831    39.7930    56.8629      .4566
 1104.5952     1.0000      .4078      .2439  3403.6484    14.0759      .8293  2093.7222    81.9209    41.9754    56.9128      .4530
 1104.7476     1.0000      .4194      .2535  3381.8484    14.0780      .8315  2110.8342    82.3548    41.4817    57.4802      .4644
 1104.9000     1.0000      .3982      .2467  3387.1960    13.7593      .8295  2115.1125    82.2780    40.9994    57.7950      .4535
 1105.0524     1.0000      .4004      .2446  3400.2971    14.5437      .8293  2116.1819    87.0578    40.3735    57.7270      .4552
 1105.2048     1.0000      .3991      .2348  3366.9812    15.7613      .8302  2104.2834    82.2763    38.2739    56.8244      .4501
 1105.3572     1.0000      .3879      .2433  3352.0081    14.3055      .8241  2104.9465    81.7153    42.9210    56.4723      .4489
 1105.5096     1.0000      .4045      .2325  3348.1311    14.7908      .8267  2120.4546    87.4889    42.1476    56.8382      .4388
 1105.6620     1.0000      .3885      .2382  3374.8608    15.5626      .8229  2107.4866    87.2203    41.6786    57.5980      .4436
 1105.8144     1.0000      .3881      .2349  3388.3547    15.4151      .8237  2105.7488    84.9995    43.3016    58.1478      .4574
 1105.9668     1.0000      .3878      .2376  3365.3596    14.7885      .8169  2097.7273    77.9450    41.8582    58.1446      .4609
