~VERSION INFORMATION
VERS.                                                 2.0:   CWLS Log ASCII Standard-VERSION 2.0
WRAP.                                                  NO:   One line per depth step
~Well Information Block
STRT.M                                          2684.0688:   Top Depth
STOP.M                                          2930.9568:   Bottom Depth
STEP.M                                             .15240:   Depth Increment
NULL.                                            -999.250:   Null Value
FLD .                                          EEMSKANAAL:   Field Name
WELL.                                       EEMSKANAAL- 1:   NAME
EDF .m                                               5.58:   ELEV DRILL FLOOR
EPD .                                                   0:   ELEV PERM DATUM
EGL .m                                                -.9:   GROUND LEVEL
LMF .                                                  DF:   LOGS MEAS FROM
COMP.                                                 NAM:   OPERATOR
PDAT.                                                 NAP:   PERM DATUM
SPUD.                                          1970/11/08:   SPUD DATE
UWBI.                                      11000074112201:   UWBI
WELL.                                       EEMSKANAAL- 1:   HOLE NAME
~PARAMETER INFORMATION (log)
LNAM.                                RUN 08 RAW OH 9.625":   NAME
LTYP.                                                 08R:   LOG TYPE
LVSN.                                                   1:   LOG VERSION
BS  .5/8"                                               9:   BIT SIZE
BLI .M                                               2950:   BOTTOM DEPTH LOGGED
BHIS.                                              MCCCCC:   BRIEF HISTORY
FHIS.                           MERGE/COPY/COPY/COPY/COPY:   FULL HISTORY
MRT .                                                    :   MAX REC TEMP
DFT .                                          SALT SPERS:   MUD TYPE
RMS .                                               0.074:   RM
MST .C                                                 26:   RM TEMP
RMCS.                                               0.144:   RMC
MCST.C                                                 17:   RMC TEMP
RMFS.                                               0.059:   RMF
MFST.C                                                 26:   RMF TEMP
TCS .                                                 N/A:   TIME SINCE CIRCLN
TLI .M                                             1406.5:   TOP DEPTH LOGGED
~Curve Information Block
#MNEM.UNIT                                        API CODE    No Description
#=========                                        ========    == ===========
DEPT.M                                       00 001 00 00:     1  DEPTH
LL9D.OHMM                                                :     2  Dual Laterolog 9 deep
LL9S.OHMM                                                :     3  Dual Laterolog 9 shallow
MSFL.OHMM                                                :     4  MICRO SPHERICALLY FOCUSSED LOG
~ASCII
# ...
 2711.8056  -999.2500  2271.9861   379.2620
 2711.9580  -999.2500  2266.8330   361.2490
 2712.1104  -999.2500  2324.8540   288.8860
 2712.2628  -999.2500  2312.4460   319.6540
 2712.4152  -999.2500  2217.8101   349.4980
 2712.5676  -999.2500  2166.7510   297.7890
 2712.7200  -999.2500  2172.9050   278.3420
 2712.8724  -999.2500  2306.7471   275.3310
 2713.0248  -999.2500  2417.8359   309.8170
 2713.1772  -999.2500  2434.9131   372.6470
 2713.3296  -999.2500  2442.4690   397.4000
 2713.4820  -999.2500  2440.6240   374.4540
 2713.6344  -999.2500  2437.9771   360.8110
 2713.7868  -999.2500  2437.9771   359.6520
 2713.9392  -999.2500  2437.9771   351.0600
 2714.0916  -999.2500  2437.9771   336.7580
 2714.2440  -999.2500  2428.8479   318.4620
 2714.3964  -999.2500  2407.2219   278.6420
 2714.5488  -999.2500  2316.0410   323.4100
 2714.7012  -999.2500  1803.2419   358.5270
 2714.8536  -999.2500  1525.5160   340.9780
 2715.0060  -999.2500  1047.3311   324.8340
 2715.1584  -999.2500   990.2870   337.1060
 2715.3108  -999.2500   936.1150   350.1140
 2715.4632  -999.2500   885.0890   363.6520
 2715.6156  -999.2500   836.7070   377.6860
 2715.7680  -999.2500   791.0650   392.2870
 2715.9204  -999.2500   747.8430   386.7300
 2716.0728  -999.2500    75.5430    34.5580
 2716.2252  -999.2500    69.3310    32.8870
 2716.3776  -999.2500    63.5080    33.2810
 2716.5300  -999.2500    60.5330    35.8910
 2716.6824  -999.2500    60.9400    35.5140
 2716.8348  -999.2500    64.6140    34.8330
 2716.9872  -999.2500    69.4750    34.2910
 2717.1396  -999.2500    77.5060    36.7560
 2717.2920  -999.2500    89.5510    37.1440
 2717.4444  -999.2500   150.1110    36.0590
 2717.5968  -999.2500   467.8090    35.4400
 2717.7492  -999.2500   623.8800    37.6340
 2717.9016  -999.2500   186.1770    35.8720
 2718.0540  -999.2500   113.4880    26.8140
 2718.2064  -999.2500    97.2080    15.0740
 2718.3588  -999.2500    98.6540     2.5130
 2718.5112  -999.2500   148.7520    24.7900
 2718.6636  -999.2500   818.7500    25.4770
 2718.8160  -999.2500  1479.1720    25.5740
 2718.9684  -999.2500  1728.9070    33.6410
 2719.1208  -999.2500  1677.0760    32.8200
 2719.2732  -999.2500  1399.1090    35.0070
 2719.4256  -999.2500  1069.6760    34.5630
 2719.5780  -999.2500   617.1420    34.4480
 2719.7304  -999.2500   337.9990    36.0920
 2719.8828  -999.2500   267.3250    37.5840
 2720.0352  1898.1290   231.5130    42.1140
 2720.1876  1049.5610   169.2560    47.1730
 2720.3400   686.8460   160.8030    37.8520
 2720.4924   443.8090   177.6150    44.5160
 2720.6448   435.3220   174.0230    31.3360
 2720.7972   480.8810   166.1530    25.9640
 2720.9496   701.2430   186.1210    31.1310
 2721.1020  1792.1010   203.1300    33.9720
 2721.2544  2351.1609   189.1020    34.0860
 2721.4068  2356.2971   180.5480    32.5890
 2721.5592  2356.2971   206.0210    32.5760
 2721.7116  2356.2971   246.7840    35.3130
 2721.8640  2356.2971   283.7690    37.3240
 2722.0164  2356.2971   310.9970    33.2460
 2722.1688  2356.2971   329.7370    36.8750
 2722.3212  2357.2180   387.8210    34.6200
 2722.4736  2360.6411   447.3170    35.8850
 2722.6260  2360.6411   553.9120    36.8200
 2722.7784  2360.6411   575.4010    35.0310
 2722.9308  2360.6411   554.5670    33.0470
 2723.0832  2360.6411   446.2250    32.2850
 2723.2356  2360.6411   354.6860    29.9330
 2723.3880  2360.6411   279.7980    30.3590
 2723.5404  2360.6411   225.3530    33.3560
 2723.6928  2360.6411   158.9670    46.6680
 2723.8452  2360.6411   133.9490    35.4020
 2723.9976  2360.6411   109.6170    34.6890
 2724.1500  2360.6411    96.8700    32.7450
 2724.3024  1463.5640    85.1630    30.1290
 2724.4548   416.6870    78.2920    32.1230
 2724.6072   176.2140    77.1570    27.4390
 2724.7596   150.1960    79.7410    22.9700
 2724.9120   125.4910    86.0820    22.7870
 2725.0644   102.6320   100.9640    15.4170
 2725.2168    98.8530   117.2990     9.9920
 2725.3692   100.2870   124.8010    11.4260
 2725.5216    97.2470   127.8080    11.0610
 2725.6740    94.6740   130.4290    14.2490
 2725.8264    97.6010   134.6190    14.7430
 2725.9788   109.7840   140.9450    19.0270
 2726.1312   142.6130   164.9450    14.5650
 2726.2836   236.6260   223.5330    15.2120
 2726.4360   479.2750   319.6410    22.1650
 2726.5884   951.5080   386.9270    24.7130
 2726.7408  1356.0280   365.5280    26.0360
 2726.8932  1922.9220   335.9290    28.5930
 2727.0456  2321.8201   309.8790    30.4020
 2727.1980  2321.8201   286.4450    31.8300
 2727.3504  2326.1021   279.6550    31.9470
 2727.5028  2326.1021   279.6590    31.0240
 2727.6552  2326.1021   279.5170    26.6370
 2727.8076  2326.1021   276.3340    27.9600
 2727.9600  2326.1021   257.4840    36.1860
 2728.1124  2326.1021   220.4520    32.6980
 2728.2648  2326.1021   188.8160    24.5880
 2728.4172  2326.1021   176.1920    25.8540
 2728.5696  2327.5969   168.1160    31.0050
 2728.7220  2330.3911   159.6040    31.3220
 2728.8744  2330.3911   151.6660    30.2720
 2729.0268  2330.3911   144.6400    32.4410
 2729.1792  2330.3911   141.6760    35.3410
 2729.3316  2330.3911   142.6780    31.6260
 2729.4840  2330.3911   152.8520    28.3640
 2729.6364  2330.3911   179.7100    32.0310
 2729.7888  2330.3911   231.6170    32.0730
 2729.9412  2330.3911   286.0960    31.2990
 2730.0936  2330.3911   354.8720    29.1250
 2730.2460  2330.3911   446.5230    30.8390
 2730.3984  2330.3911   597.7880    22.6680
 2730.5508  2330.3911   794.3330    24.3310
 2730.7032  2330.3911  1030.2640    31.3400
 2730.8556  2330.3911  1317.3831    29.4640
 2731.0080  2330.3911  1395.0389    29.0770
 2731.1604  2330.3911  1221.3770    29.4570
 2731.3128  2329.8411  1139.5770    27.5800
 2731.4652  2328.8979  1173.3030    17.9000
 2731.6176  2325.7251  1152.8220    18.7350
 2731.7700  2322.4619   975.8160    30.6230
 2731.9224  2321.8201   858.8370    30.2410
 2732.0748  2321.8201   781.3960    21.7250
 2732.2272  2326.1021   680.7600    18.1550
 2732.3796  2326.1021   538.5020    21.7520
 2732.5320  1779.3810   354.8240    23.9950
 2732.6844   308.2570   175.2870    20.2010
 2732.8368   150.2070   120.3110    25.4670
 2732.9892   129.4320   108.5330     5.4600
 2733.1416   128.7200   108.4800      .8220
 2733.2940   195.3700   127.7250     5.4680
 2733.4464   287.6880   128.7760     5.5450
 2733.5988   288.4100   108.8260     3.4460
 2733.7512   257.1030    85.3000    12.8890
 2733.9036   244.3830    81.7700    17.0640
 2734.0560   243.2620    85.7210    13.4950
 2734.2084   281.5810    92.3830    11.0540
 2734.3608   370.2450   102.0060     7.9790
 2734.5132   605.8860   115.3500     9.0960
 2734.6656   877.2460   135.2430    18.0970
 2734.8180  1270.8420   159.0410    29.5120
 2734.9704  1371.4399   188.5710    25.5980
 2735.1228  1343.4580   219.9600    20.3820
 2735.2752  1207.8680   281.6480  1638.8979
 2735.4276  1324.5120   352.7960    26.0780
 2735.5800  1518.8630   436.2920    13.0700
 2735.7324  2063.3970   598.4890    27.2230
 2735.8848  2349.3660   741.8270    20.1710
 2736.0372  2384.3750   612.5400    17.2060
 2736.1896  2409.1079   245.5700  1533.9760
 2736.3420  2415.2700   198.0180    87.9710
 2736.4944  2417.8521   183.5570    24.0910
 2736.6468  2226.2600   170.0110   159.7590
 2736.7992  2054.3440   156.1830    18.4470
 2736.9516  1978.8199   135.5470    25.2350
 2737.1040  1767.1130   116.4800    29.3330
 2737.2564  1643.6510   102.0130    29.4860
 2737.4088  1606.0480   100.9920    33.6690
 2737.5612  1556.6160   126.4810    36.0720
 2737.7136  1228.4399   143.4500    38.3760
 2737.8660   939.5740   135.4100    36.6410
 2738.0184   870.6090   132.3010    34.8660
 2738.1708   857.2720   141.2650    34.0600
 2738.3232   815.3020   166.7200    33.9510
 2738.4756   661.5120   179.4480    35.9380
 2738.6280   498.2960   185.9990    37.5170
 2738.7804   353.3120   189.9880    21.0650
 2738.9328   259.0800   190.2960    14.7720
 2739.0852   157.7870   190.2960    14.6620
 2739.2376    93.6830   185.6850    12.0600
 2739.3900    29.9510   104.7790    66.5740
