~VERSION INFORMATION
VERS.                                                 2.0:   CWLS Log ASCII Standard-VERSION 2.0
WRAP.                                                  NO:   One line per depth step
~Well Information Block
STRT.M                                          1789.0236:   Top Depth
STOP.M                                          2779.9284:   Bottom Depth
STEP.M                                             .15240:   Depth Increment
NULL.                                            -999.250:   Null Value
FLD .                                          EEMSKANAAL:   Field Name
WELL.                                       EEMSKANAAL- 2:   NAME
APD .M                                               5.62:   ABOVE PERM DATUM
CTRY.                                                  NE:   COUNTRY
EDF .m                                               5.62:   ELEV DRILL FLOOR
EPD .                                                   0:   ELEV PERM DATUM
EGL .m                                              -1.06:   GROUND LEVEL
LMF .                                                  DF:   LOGS MEAS FROM
COMP.                                                 NAM:   OPERATOR
PDAT.                                                 NAP:   PERM DATUM
SPUD.                                          1971/03/17:   SPUD DATE
STAT.                                           Unknown m:   STATE
UWBI.                                      11000074112601:   UWBI
WELL.                                       EEMSKANAAL- 2:   HOLE NAME
~PARAMETER INFORMATION (log)
LNAM.                                RUN 01 RAW OH 9 5/8":   NAME
LTYP.                                                 01R:   LOG TYPE
LVSN.                                                   1:   LOG VERSION
BS  .5/8"                                               9:   BIT SIZE
BLI .M                                             2778.0:   BOTTOM DEPTH LOGGED
BHIS.                                                MCCC:   BRIEF HISTORY
FHIS.                                     MERGE/COPY/COPY:   FULL HISTORY
MRT .DEGC                                              84:   MAX REC TEMP
DFD .G/CC                                            1.54:   MUD DENSITY
DFT .                                   SALT SAT SPERSENE:   MUD TYPE
RMS .                                                    :   RM
MST .                                                    :   RM TEMP
RMCS.                                                    :   RMC
MCST.                                                    :   RMC TEMP
RMFS.                                                    :   RMF
MFST.                                                    :   RMF TEMP
TCS .                                                 N/A:   TIME SINCE CIRCLN
TLI .M                                             1800.0:   TOP DEPTH LOGGED
~Curve Information Block
#MNEM.UNIT                                        API CODE    No Description
#=========                                        ========    == ===========
DEPT.M                                       00 001 00 00:     1  DEPTH
CALF.IN                                                  :     2  CALIPER FROM FORMATION DENSITY LOG
FDC.G/C3                                                 :     3  Formation Density Log (Compensated Open
GR.API                                                   :     4  Gamma Ray
~ASCII
# ...
 1816.7604     9.8460     2.5260    68.2000
 1816.9128     9.8440     2.5300    69.2110
 1817.0652     9.8420     2.5370    70.1450
 1817.2176     9.8420     2.5530    70.2190
 1817.3700     9.8420     2.5620    69.6970
 1817.5224     9.8420     2.5680    69.6490
 1817.6748     9.8420     2.5500    70.2060
 1817.8272     9.8420     2.5370    69.8320
 1817.9796     9.8420     2.5370    69.0070
 1818.1320     9.8420     2.5280    69.9480
 1818.2844     9.8420     2.5310    70.4460
 1818.4368     9.8420     2.5510    68.6980
 1818.5892     9.8420     2.5730    68.5590
 1818.7416     9.8420     2.5770    69.8680
 1818.8940     9.8420     2.5670    71.9840
 1819.0464     9.8420     2.5580    74.2630
 1819.1988     9.8420     2.5490    75.6960
 1819.3512     9.8420     2.5270    76.5700
 1819.5036     9.8420     2.5060    77.9870
 1819.6560     9.8420     2.5040    75.9140
 1819.8084     9.8420     2.5230    75.0670
 1819.9608     9.8460     2.5360    73.7430
 1820.1132     9.8510     2.5520    70.5170
 1820.2656     9.8550     2.5670    67.5150
 1820.4180     9.8560     2.5620    67.0870
 1820.5704     9.8580     2.5490    70.0690
 1820.7228     9.8580     2.5460    72.3570
 1820.8752     9.8580     2.5640    74.2710
 1821.0276     9.8580     2.5890    75.0620
 1821.1800     9.8580     2.5890    74.4930
 1821.3324     9.8710     2.5720    73.8130
 1821.4848     9.8770     2.5510    74.2960
 1821.6372     9.8910     2.5520    74.3780
 1821.7896     9.9000     2.5550    72.2420
 1821.9420     9.9040     2.5470    70.8610
 1822.0944     9.9080     2.5310    70.0030
 1822.2468     9.9130     2.5090    74.0240
 1822.3992     9.9180     2.5030    75.0320
 1822.5516     9.9210     2.5090    75.3230
 1822.7040     9.9270     2.5280    75.8010
 1822.8564     9.9360     2.5420    74.6580
 1823.0088     9.9410     2.5480    73.7380
 1823.1612     9.9440     2.5320    73.8900
 1823.3136     9.9500     2.5270    74.6600
 1823.4660     9.9530     2.5210    77.5120
 1823.6184     9.9530     2.5150    79.7110
 1823.7708     9.9530     2.5260    79.9980
 1823.9232     9.9530     2.5180    80.1040
 1824.0756     9.9530     2.5150    81.0500
 1824.2280     9.9500     2.4990    81.3910
 1824.3804     9.9470     2.5000    80.4780
 1824.5328     9.9460     2.5060    82.3910
 1824.6852     9.9480     2.4920    85.8500
 1824.8376     9.9450     2.4770    87.0360
 1824.9900     9.9450     2.4770    84.4450
 1825.1424     9.9450     2.4930    82.1980
 1825.2948     9.9420     2.5050    82.1110
 1825.4472     9.9370     2.5110    83.1700
 1825.5996     9.9340     2.5160    83.0380
 1825.7520     9.9360     2.5260    84.9050
 1825.9044     9.9370     2.5410    84.5890
 1826.0568     9.9370     2.5320    84.5530
 1826.2092     9.9390     2.5290    82.7370
 1826.3616     9.9420     2.5370    82.5390
 1826.5140     9.9450     2.5350    81.9860
 1826.6664     9.9450     2.5390    80.7170
 1826.8188     9.9440     2.5460    80.4220
 1826.9712     9.9410     2.5430    81.5150
 1827.1236     9.9380     2.5350    81.2150
 1827.2760     9.9350     2.5330    78.4700
 1827.4284     9.9300     2.5350    78.8960
 1827.5808     9.9260     2.5380    80.1480
 1827.7332     9.9250     2.5310    81.7130
 1827.8856     9.9250     2.5260    83.9230
 1828.0380     9.9250     2.5150    84.5000
 1828.1904     9.9250     2.5030    82.8500
 1828.3428     9.9250     2.4960    80.1440
 1828.4952     9.9270     2.5100    77.7230
 1828.6476     9.9290     2.5310    77.4860
 1828.8000     9.9290     2.5260    77.3250
 1828.9524     9.9320     2.5210    76.0310
 1829.1048     9.9300     2.5270    78.2030
 1829.2572     9.9330     2.5280    80.4880
 1829.4096     9.9360     2.5290    80.4410
 1829.5620     9.9370     2.5220    76.8250
 1829.7144     9.9370     2.5260    73.5670
 1829.8668     9.9400     2.5310    72.5000
 1830.0192     9.9390     2.5240    75.6210
 1830.1716     9.9370     2.4960    79.0230
 1830.3240     9.9370     2.4910    80.7750
 1830.4764     9.9370     2.5020    82.1140
 1830.6288     9.9370     2.5330    83.0760
 1830.7812     9.9360     2.5280    81.4690
 1830.9336     9.9340     2.5140    84.7180
 1831.0860     9.9330     2.5050    87.3880
 1831.2384     9.9320     2.4920    84.5370
 1831.3908     9.9290     2.5000    82.4400
 1831.5432     9.9280     2.5200    81.8630
 1831.6956     9.9260     2.5400    81.6510
 1831.8480     9.9250     2.5600    80.0620
 1832.0004     9.9250     2.5690    75.7040
 1832.1528     9.9280     2.5600    76.5360
 1832.3052     9.9290     2.5380    80.1650
 1832.4576     9.9300     2.5230    83.8680
 1832.6100     9.9320     2.5080    85.6660
 1832.7624     9.9350     2.5080    85.5260
 1832.9148     9.9370     2.5210    86.3690
 1833.0672     9.9380     2.5280    88.2550
 1833.2196     9.9410     2.5100    87.6460
 1833.3720     9.9430     2.5090    84.0270
 1833.5244     9.9350     2.5190    84.1980
 1833.6768     9.9230     2.5390    90.4130
 1833.8292     9.9200     2.5440    92.3470
 1833.9816     9.9140     2.5800    91.2530
 1834.1340     9.9110     2.6300    87.3780
 1834.2864     9.9050     2.6410    78.6100
 1834.4388     9.9000     2.6480    73.9160
 1834.5912     9.8940     2.6330    68.0280
 1834.7436     9.8970     2.6260    61.7260
 1834.8960     9.9000     2.6230    62.6920
 1835.0484     9.9050     2.6240    60.1550
 1835.2008     9.9100     2.6270    59.1020
 1835.3532     9.9140     2.6200    60.1600
 1835.5056     9.9160     2.6130    62.9730
 1835.6580     9.9130     2.6240    64.9830
 1835.8104     9.9090     2.6460    63.0020
 1835.9628     9.9110     2.6390    63.4790
 1836.1152     9.9090     2.6190    65.2370
 1836.2676     9.9070     2.6370    65.9970
 1836.4200     9.9050     2.6570    65.9190
 1836.5724     9.9050     2.6540    65.3510
 1836.7248     9.9050     2.6460    62.8560
 1836.8772     9.9090     2.6580    62.1270
 1837.0296     9.9170     2.6660    62.9740
 1837.1820     9.9300     2.6710    63.9900
 1837.3344     9.9380     2.6420    65.6430
 1837.4868     9.9490     2.6220    67.9340
 1837.6392     9.9640     2.6210    71.9400
 1837.7916     9.9710     2.6200    76.8220
 1837.9440     9.9840     2.6260    78.5920
 1838.0964     9.9950     2.6190    78.9150
 1838.2488    10.0020     2.6230    80.2660
 1838.4012    10.0200     2.6440    83.1820
 1838.5536    10.0550     2.6490    85.4990
 1838.7060    10.0980     2.6210    86.7930
 1838.8584    10.1490     2.5830    90.9580
 1839.0108    10.1840     2.5580    92.4090
 1839.1632    10.2130     2.5390    88.1030
 1839.3156    10.2090     2.5190    80.4290
 1839.4680    10.0320     2.5530    74.1770
 1839.6204     9.9030     2.5740    72.5480
 1839.7728     9.9470     2.5940    71.6570
 1839.9252    10.1880     2.5860    70.4770
 1840.0776    10.2860     2.5890    70.4360
 1840.2300    10.3390     2.5980    70.7160
 1840.3824    10.4480     2.5770    69.3170
 1840.5348    10.6140     2.5720    73.2220
 1840.6872    10.4450     2.5630    77.5620
 1840.8396    10.7140     2.5440    79.5340
 1840.9920    11.0410     2.5040    81.9610
 1841.1444    11.0840     2.4850    78.9370
 1841.2968    10.8820     2.4910    73.8480
 1841.4492    11.0290     2.4640    72.9030
 1841.6016    11.2200     2.4110    72.6000
 1841.7540    10.9880     2.3700    72.5190
 1841.9064    11.2250     2.3480    70.5510
 1842.0588    11.4850     2.3480    67.2340
 1842.2112    11.1080     2.3870    68.0660
 1842.3636    11.2330     2.3770    67.4010
 1842.5160    11.5710     2.3330    63.1890
 1842.6684    11.5850     2.2990    60.5870
 1842.8208    11.6340     2.2830    57.7090
 1842.9732    11.8440     2.3020    55.2540
 1843.1256    11.9600     2.3250    59.4570
 1843.2780    11.7890     2.3580    61.9440
 1843.4304    11.6400     2.3930    63.1000
 1843.5828    11.4600     2.4440    64.7370
 1843.7352    11.1710     2.4770    62.4090
 1843.8876    11.2150     2.4920    58.6850
 1844.0400    11.4270     2.5090    56.1390
 1844.1924    11.3890     2.5300    55.1670
 1844.3448    11.3310     2.5330    53.9940
