~VERSION INFORMATION
VERS.                                                 2.0:   CWLS Log ASCII Standard-VERSION 2.0
WRAP.                                                  NO:   One line per depth step
~Well Information Block
STRT.M                                          1407.1092:   Top Depth
STOP.M                                          3062.9352:   Bottom Depth
STEP.M                                             .15240:   Depth Increment
NULL.                                            -999.250:   Null Value
FLD .                                          EEMSKANAAL:   Field Name
WELL.                                       EEMSKANAAL- 1:   NAME
EDF .m                                               5.58:   ELEV DRILL FLOOR
EPD .                                                   0:   ELEV PERM DATUM
EGL .m                                                -.9:   GROUND LEVEL
LMF .                                                  DF:   LOGS MEAS FROM
COMP.                                                 NAM:   OPERATOR
PDAT.                                                 NAP:   PERM DATUM
SPUD.                                          1970/11/08:   SPUD DATE
UWBI.                                      11000074112201:   UWBI
WELL.                                       EEMSKANAAL- 1:   HOLE NAME
~PARAMETER INFORMATION (log)
LNAM.                                RUN 03 RAW OH 9.625":   NAME
LTYP.                                                 03R:   LOG TYPE
LVSN.                                                   1:   LOG VERSION
BS  .5/8"                                               9:   BIT SIZE
BLI .M                                               3064:   BOTTOM DEPTH LOGGED
BHIS.                                            RCCCCCCC:   BRIEF HISTORY
FHIS.              RAW-TIGA/COPY/COPY/COPY/COPY/COPY/COPY:   FULL HISTORY
MRT .C                                                 98:   MAX REC TEMP
DFT .                                          SALT SPERS:   MUD TYPE
RMS .                                                    :   RM
MST .                                                    :   RM TEMP
RMCS.                                                    :   RMC
MCST.                                                    :   RMC TEMP
RMFS.                                                    :   RMF
MFST.                                                    :   RMF TEMP
TCS .                                               4 HRS:   TIME SINCE CIRCLN
TLI .M                                               1407:   TOP DEPTH LOGGED
~Curve Information Block
#MNEM.UNIT                                        API CODE    No Description
#=========                                        ========    == ===========
DEPT.M                                       00 001 00 00:     1  DEPTH
CALF.IN                                                  :     2  CALIPER FROM FORMATION DENSITY LOG
FDC.g/c3                                                 :     3  Formation Density Log (Compensated Open
GR.GAPI                                                  :     4  Gamma Ray
~ASCII
# ...
 2821.6860     9.1860     2.2400    25.6270
 2821.8384     9.1860     2.2660    26.5090
 2821.9908     9.1860     2.3060    26.6550
 2822.1432     9.1860     2.3420    26.5140
 2822.2956     9.1860     2.3630    27.9590
 2822.4480     9.1860     2.3330    29.9340
 2822.6004     9.1860     2.3150    29.4980
 2822.7528     9.1900     2.3710    27.1360
 2822.9052     9.1900     2.4020    24.8600
 2823.0576     9.1910     2.3890    24.2360
 2823.2100     9.1940     2.3840    25.8100
 2823.3624     9.1940     2.3790    26.6250
 2823.5148     9.1940     2.3720    26.6150
 2823.6672     9.1940     2.3600    28.2080
 2823.8196     9.1940     2.3780    28.3650
 2823.9720     9.1940     2.3930    28.4410
 2824.1244     9.1940     2.3870    29.2010
 2824.2768     9.1990     2.3830    28.2440
 2824.4292     9.2100     2.3670    28.7540
 2824.5816     9.2270     2.3550    27.3320
 2824.7340     9.2470     2.3590    26.8770
 2824.8864     9.2590     2.3920    27.0450
 2825.0388     9.2630     2.3900    26.9520
 2825.1912     9.2630     2.3730    26.2170
 2825.3436     9.2630     2.3520    26.3230
 2825.4960     9.2670     2.3770    27.3440
 2825.6484     9.2670     2.4160    28.0090
 2825.8008     9.2670     2.4020    30.3020
 2825.9532     9.2670     2.4200    33.0300
 2826.1056     9.2650     2.4370    33.9940
 2826.2580     9.2590     2.4260    33.3660
 2826.4104     9.2590     2.3880    32.3030
 2826.5628     9.2540     2.3530    31.3710
 2826.7152     9.2450     2.3200    28.2290
 2826.8676     9.2430     2.3090    23.3910
 2827.0200     9.2430     2.3360    24.6360
 2827.1724     9.2400     2.3690    27.5250
 2827.3248     9.2340     2.3710    28.8730
 2827.4772     9.2250     2.3800    27.2710
 2827.6296     9.2170     2.3670    29.4120
 2827.7820     9.2110     2.3820    30.4520
 2827.9344     9.2070     2.3880    29.1040
 2828.0868     9.2080     2.3650    27.8220
 2828.2392     9.2170     2.3620    26.8610
 2828.3916     9.2190     2.3470    26.5600
 2828.5440     9.2190     2.3440    27.4480
 2828.6964     9.2190     2.3450    27.8550
 2828.8488     9.2170     2.3680    28.5450
 2829.0012     9.2150     2.4200    26.8490
 2829.1536     9.2120     2.4360    24.5840
 2829.3060     9.2160     2.4120    23.7210
 2829.4584     9.2190     2.3900    24.5420
 2829.6108     9.2190     2.3590    25.7800
 2829.7632     9.2220     2.3530    27.8490
 2829.9156     9.2230     2.3780    27.3410
 2830.0680     9.2250     2.3960    25.3450
 2830.2204     9.2270     2.3980    24.2310
 2830.3728     9.2270     2.3550    24.4790
 2830.5252     9.2250     2.3380    26.4010
 2830.6776     9.2230     2.3250    26.9460
 2830.8300     9.2230     2.3210    24.0690
 2830.9824     9.2210     2.3490    25.0850
 2831.1348     9.2210     2.3640    27.8860
 2831.2872     9.2200     2.3550    30.2430
 2831.4396     9.2160     2.3270    27.9490
 2831.5920     9.2150     2.3180    26.2350
 2831.7444     9.2130     2.3460    23.8010
 2831.8968     9.2110     2.3380    19.5240
 2832.0492     9.2130     2.3130    19.8460
 2832.2016     9.2150     2.3010    20.1010
 2832.3540     9.2120     2.3400    22.1330
 2832.5064     9.2050     2.3520    25.8300
 2832.6588     9.2000     2.3790    27.5820
 2832.8112     9.1980     2.3930    27.7330
 2832.9636     9.1910     2.4190    25.5610
 2833.1160     9.1870     2.4290    27.0260
 2833.2684     9.1870     2.4330    30.9900
 2833.4208     9.1910     2.4570    36.9970
 2833.5732     9.1940     2.4920    38.4880
 2833.7256     9.1910     2.4590    34.6010
 2833.8780     9.1690     2.4380    29.0930
 2834.0304     9.1310     2.4190    26.4640
 2834.1828     9.1270     2.3630    24.7680
 2834.3352     9.1270     2.3530    24.3230
 2834.4876     9.1200     2.3610    25.8370
 2834.6400     9.1120     2.3780    26.3550
 2834.7924     9.1070     2.3800    27.5020
 2834.9448     9.1110     2.3730    28.6860
 2835.0972     9.1110     2.3430    29.0620
 2835.2496     9.1060     2.3400    27.6300
 2835.4020     9.0810     2.3390    25.4080
 2835.5544     9.0990     2.3560    26.4310
 2835.7068     9.0840     2.3590    28.6320
 2835.8592     9.0300     2.3770    30.0360
 2836.0116     9.0110     2.3620    28.0110
 2836.1640     9.0150     2.3370    28.9900
 2836.3164     9.0150     2.2860    27.4800
 2836.4688     9.0150     2.2810    26.3590
 2836.6212     9.0150     2.2910    22.3720
 2836.7736     9.0120     2.2870    20.2540
 2836.9260     9.0110     2.2960    20.2030
 2837.0784     9.0110     2.3360    20.0720
 2837.2308     9.0110     2.3430    20.5840
 2837.3832     9.0080     2.3290    22.8980
 2837.5356     8.9990     2.3160    23.7060
 2837.6880     8.9920     2.3150    23.5730
 2837.8404     8.9900     2.3230    23.2500
 2837.9928     8.9870     2.3240    25.0130
 2838.1452     8.9870     2.3280    26.8520
 2838.2976     8.9880     2.3420    29.0540
 2838.4500     8.9900     2.3110    24.4420
 2838.6024     8.9930     2.2640    20.9760
 2838.7548     8.9950     2.2010    19.8870
 2838.9072     8.9970     2.1700    19.7810
 2839.0596     9.0240     2.1770    19.5010
 2839.2120     9.0310     2.1950    18.9790
 2839.3644     9.0350     2.2340    19.8580
 2839.5168     9.0380     2.3090    20.4820
 2839.6692     9.0290     2.3400    20.2140
 2839.8216     9.0230     2.3390    20.2710
 2839.9740     9.0330     2.3280    21.8620
 2840.1264     9.0350     2.3550    23.0160
 2840.2788     9.0300     2.3480    23.5850
 2840.4312     9.0270     2.3200    23.7590
 2840.5836     9.0270     2.3060    22.2310
 2840.7360     9.0310     2.2890    20.3470
 2840.8884     9.0270     2.2460    18.8310
 2841.0408     9.0230     2.2070    18.9360
 2841.1932     9.0230     2.1960    19.7580
 2841.3456     9.0490     2.2000    20.6370
 2841.4980     9.0520     2.1820    19.5530
 2841.6504     9.0330     2.1840    19.3050
 2841.8028     9.0050     2.2130    19.4970
 2841.9552     8.9670     2.2300    20.6820
 2842.1076     8.9570     2.2670    20.6300
 2842.2600     8.9810     2.3090    20.1090
 2842.4124     9.0360     2.3230    21.7340
 2842.5648     9.1290     2.3740    24.5830
 2842.7172     9.2110     2.4030    26.2100
 2842.8696     9.2230     2.4240    25.7440
 2843.0220     9.2040     2.3930    24.1760
 2843.1744     9.1980     2.3860    22.6250
 2843.3268     9.2020     2.4010    23.6630
 2843.4792     9.2030     2.4280    26.9710
 2843.6316     9.1940     2.4720    29.6920
 2843.7840     9.1910     2.4970    28.5770
 2843.9364     9.1910     2.4750    26.0570
 2844.0888     9.1910     2.4450    23.2630
 2844.2412     9.1910     2.4260    22.8320
 2844.3936     9.1910     2.4190    22.0920
 2844.5460     9.1910     2.4230    21.2870
 2844.6984     9.1910     2.4220    22.8210
 2844.8508     9.1880     2.4250    24.9380
 2845.0032     9.1870     2.4200    25.7400
 2845.1556     9.1810     2.4290    24.2980
 2845.3080     9.1850     2.4250    24.0730
 2845.4604     9.1910     2.4090    25.3060
 2845.6128     9.1910     2.4040    26.8430
 2845.7652     9.1990     2.4410    29.6240
 2845.9176     9.2000     2.5050    33.4010
 2846.0700     9.2170     2.5580    39.1140
 2846.2224     9.2550     2.5530    40.3090
 2846.3748     9.2390     2.4960    32.8170
 2846.5272     9.1380     2.4170    25.8040
 2846.6796     9.0910     2.3680    20.8770
 2846.8320     9.0280     2.3410    19.7260
 2846.9844     9.0660     2.3610    20.2410
 2847.1368     9.1160     2.4200    19.9430
 2847.2892     9.1390     2.4640    19.6180
 2847.4416     9.1410     2.4840    19.7150
 2847.5940     9.1510     2.4820    20.2080
 2847.7464     9.1550     2.4770    22.2670
 2847.8988     9.1510     2.4820    24.2110
 2848.0512     9.1470     2.4430    22.8310
 2848.2036     9.1470     2.4270    21.2350
 2848.3560     9.1470     2.4170    21.3230
 2848.5084     9.1500     2.4060    23.0330
 2848.6608     9.1600     2.4150    23.8940
 2848.8132     9.1670     2.4190    24.0240
 2848.9656     9.1860     2.4250    26.1000
 2849.1180     9.2160     2.4930    33.9310
 2849.2704     9.2470     2.5780    47.9900
