~VERSION INFORMATION
VERS.                                                 2.0:   CWLS Log ASCII Standard-VERSION 2.0
WRAP.                                                  NO:   One line per depth step
~Well Information Block
STRT.M                                          1789.0236:   Top Depth
STOP.M                                          2779.9284:   Bottom Depth
STEP.M                                             .15240:   Depth Increment
NULL.                                            -999.250:   Null Value
FLD .                                          EEMSKANAAL:   Field Name
WELL.                                       EEMSKANAAL- 2:   NAME
APD .M                                               5.62:   ABOVE PERM DATUM
CTRY.                                                  NE:   COUNTRY
EDF .m                                               5.62:   ELEV DRILL FLOOR
EPD .                                                   0:   ELEV PERM DATUM
EGL .m                                              -1.06:   GROUND LEVEL
LMF .                                                  DF:   LOGS MEAS FROM
COMP.                                                 NAM:   OPERATOR
PDAT.                                                 NAP:   PERM DATUM
SPUD.                                          1971/03/17:   SPUD DATE
STAT.                                           Unknown m:   STATE
UWBI.                                      11000074112601:   UWBI
WELL.                                       EEMSKANAAL- 2:   HOLE NAME
~PARAMETER INFORMATION (log)
LNAM.                                RUN 01 RAW OH 9 5/8":   NAME
LTYP.                                                 01R:   LOG TYPE
LVSN.                                                   1:   LOG VERSION
BS  .5/8"                                               9:   BIT SIZE
BLI .M                                             2778.0:   BOTTOM DEPTH LOGGED
BHIS.                                                MCCC:   BRIEF HISTORY
FHIS.                                     MERGE/COPY/COPY:   FULL HISTORY
MRT .DEGC                                              84:   MAX REC TEMP
DFD .G/CC                                            1.54:   MUD DENSITY
DFT .                                   SALT SAT SPERSENE:   MUD TYPE
RMS .                                                    :   RM
MST .                                                    :   RM TEMP
RMCS.                                                    :   RMC
MCST.                                                    :   RMC TEMP
RMFS.                                                    :   RMF
MFST.                                                    :   RMF TEMP
TCS .                                                 N/A:   TIME SINCE CIRCLN
TLI .M                                             1800.0:   TOP DEPTH LOGGED
~Curve Information Block
#MNEM.UNIT                                        API CODE    No Description
#=========                                        ========    == ===========
DEPT.M                                       00 001 00 00:     1  DEPTH
CALF.IN                                                  :     2  CALIPER FROM FORMATION DENSITY LOG
FDC.G/C3                                                 :     3  Formation Density Log (Compensated Open
GR.API                                                   :     4  Gamma Ray
~ASCII
# ...
 2149.6020    10.0370     2.8600     9.8210
 2149.7544    10.0110     2.8180     9.8160
 2149.9068     9.9920     2.7250    10.6720
 2150.0592     9.9790     2.6850    12.0240
 2150.2116     9.9960     2.6480    13.7070
 2150.3640    10.0250     2.6560    16.2320
 2150.5164    10.0600     2.6850    18.0760
 2150.6688    10.0960     2.7490    17.9620
 2150.8212    10.0610     2.8080    16.4500
 2150.9736    10.0030     2.8820    15.2460
 2151.1260     9.9830     2.9000    16.9700
 2151.2784     9.9850     2.9200    19.2480
 2151.4308     9.9970     2.9450    22.4630
 2151.5832    10.0120     2.9660    21.2600
 2151.7356    10.0280     2.9590    18.5090
 2151.8880    10.0410     2.9430    15.0030
 2152.0404    10.0540     2.9300    12.2330
 2152.1928    10.0530     2.9420     9.7570
 2152.3452    10.0150     2.9430     9.3900
 2152.4976     9.9720     2.9170    10.2060
 2152.6500     9.9590     2.9180     9.5480
 2152.8024     9.8300     2.9340     9.5090
 2152.9548     9.8030     2.9280    11.3120
 2153.1072     9.8150     2.9150    14.2990
 2153.2596     9.8180     2.8820    17.5840
 2153.4120     9.8230     2.8530    17.5250
 2153.5644     9.8400     2.7820    16.7210
 2153.7168     9.8520     2.7420    17.0860
 2153.8692     9.8580     2.7320    17.9940
 2154.0216     9.8630     2.7310    17.8680
 2154.1740     9.8690     2.7020    17.7480
 2154.3264     9.8770     2.6420    17.8710
 2154.4788     9.8840     2.5400    17.5190
 2154.6312     9.8920     2.5170    14.1240
 2154.7836     9.9090     2.5500    11.7690
 2154.9360     9.9170     2.5490     9.1690
 2155.0884     9.9210     2.5200     8.7620
 2155.2408     9.9160     2.5270    10.4490
 2155.3932     9.9060     2.5790    12.8080
 2155.5456     9.9010     2.6320    14.0780
 2155.6980     9.8900     2.6660    13.8810
 2155.8504     9.8830     2.6950    13.8990
 2156.0028     9.8680     2.7150    14.1620
 2156.1552     9.8540     2.7450    14.0380
 2156.3076     9.8430     2.7800    13.2510
 2156.4600     9.8260     2.7860    12.8970
 2156.6124     9.8020     2.7680    12.7540
 2156.7648     9.7820     2.7530    12.2980
 2156.9172     9.7640     2.7480    11.6900
 2157.0696     9.7620     2.7520    11.7150
 2157.2220     9.7620     2.7600    11.0140
 2157.3744     9.7650     2.7900    11.0600
 2157.5268     9.7660     2.8510    11.5700
 2157.6792     9.7680     2.8950    11.9090
 2157.8316     9.7700     2.9230    11.7760
 2157.9840     9.7680     2.9460    11.0290
 2158.1364     9.7660     2.9370    10.1250
 2158.2888     9.7640     2.9090     9.5840
 2158.4412     9.7680     2.9130     9.7470
 2158.5936     9.7680     2.9220    10.4550
 2158.7460     9.7640     2.9270    10.7360
 2158.8984     9.7610     2.9280    10.8740
 2159.0508     9.7560     2.9130    10.8450
 2159.2032     9.7520     2.9010     9.8980
 2159.3556     9.7450     2.8900     9.3480
 2159.5080     9.7380     2.9010     9.5180
 2159.6604     9.7380     2.9220     9.8430
 2159.8128     9.7380     2.9290     9.9750
 2159.9652     9.7380     2.9240     9.9160
 2160.1176     9.7390     2.9270     9.7830
 2160.2700     9.7420     2.9280     9.8470
 2160.4224     9.7420     2.9230     9.9940
 2160.5748     9.7420     2.9100    10.3230
 2160.7272     9.7420     2.9040    10.9000
 2160.8796     9.7420     2.9020    12.1220
 2161.0320     9.7420     2.8720    15.4190
 2161.1844     9.7420     2.8260    19.0770
 2161.3368     9.7450     2.8230    21.3810
 2161.4892     9.7460     2.8290    20.9970
 2161.6416     9.7460     2.8550    18.3700
 2161.7940     9.7420     2.8780    14.8300
 2161.9464     9.7460     2.8740    12.5660
 2162.0988     9.7510     2.9080    10.7390
 2162.2512     9.7540     2.9460    10.0100
 2162.4036     9.7540     2.9790     9.8990
 2162.5560     9.7560     2.9710     9.6520
 2162.7084     9.7540     2.9630     8.6750
 2162.8608     9.7540     2.9680     7.8510
 2163.0132     9.7540     2.9770     7.6500
 2163.1656     9.7540     2.9790     7.6500
 2163.3180     9.7520     2.9830     7.6170
 2163.4704     9.7500     2.9740     7.7420
 2163.6228     9.7480     2.9630     7.8910
 2163.7752     9.7460     2.9780     7.3560
 2163.9276     9.7410     2.9920     6.7820
 2164.0800     9.7380     2.9860     6.5340
 2164.2324     9.7350     2.9930     6.4500
 2164.3848     9.7300     2.9860     6.4500
 2164.5372     9.7300     2.9610     6.4050
 2164.6896     9.7270     2.9380     5.7790
 2164.8420     9.7230     2.9400     4.6950
 2164.9944     9.7260     2.9370     4.7990
 2165.1468     9.7280     2.9380     6.0360
 2165.2992     9.7300     2.9190     7.0600
 2165.4516     9.7300     2.9060     7.3710
 2165.6040     9.7300     2.8930     7.1750
 2165.7564     9.7300     2.9040     7.4340
 2165.9088     9.7300     2.9270     8.0280
 2166.0612     9.7300     2.9300     8.4980
 2166.2136     9.7310     2.9260     8.9300
 2166.3660     9.7340     2.9500     8.6550
 2166.5184     9.7340     2.9340     7.5390
 2166.6708     9.7340     2.9220     7.5210
 2166.8232     9.7360     2.9180     9.0150
 2166.9756     9.7380     2.9050    11.7420
 2167.1280     9.7380     2.8500    16.0120
 2167.2804     9.7380     2.7710    23.0770
 2167.4328     9.7370     2.6190    30.5500
 2167.5852     9.7300     2.5610    37.3050
 2167.7376     9.7250     2.5800    35.7290
 2167.8900     9.7260     2.5960    35.2360
 2168.0424     9.7260     2.5790    35.0950
 2168.1948     9.7260     2.5600    33.8410
 2168.3472     9.7300     2.5510    34.4400
 2168.4996     9.7300     2.5450    41.4520
 2168.6520     9.7340     2.5380    42.0540
 2168.8044     9.7380     2.5260    38.5530
 2168.9568     9.7400     2.4780    37.0470
 2169.1092     9.7470     2.4430    39.9660
 2169.2616     9.7800     2.3360    56.7700
 2169.4140    10.0410     2.2140    70.1360
 2169.5664    10.3520     2.1830    75.9280
 2169.7188    10.4130     2.2340    73.1820
 2169.8712    10.4970     2.2580    67.8560
 2170.0236    10.3480     2.2650    61.4990
 2170.1760    10.1710     2.2920    57.5830
 2170.3284    10.0440     2.3130    58.5850
 2170.4808     9.8770     2.3300    57.7550
 2170.6332     9.7870     2.3700    54.5970
 2170.7856     9.7920     2.4160    52.5370
 2170.9380     9.8400     2.4120    51.5370
 2171.0904     9.8690     2.4470    52.0500
 2171.2428     9.8750     2.5250    50.9570
 2171.3952     9.8670     2.5630    45.8450
 2171.5476     9.8470     2.5830    39.5760
 2171.7000     9.8300     2.6150    31.9350
 2171.8524     9.8370     2.7140    27.0210
 2172.0048     9.8510     2.7650    23.3330
 2172.1572     9.8720     2.7700    21.6360
 2172.3096     9.8860     2.7160    21.3560
 2172.4620     9.8720     2.5930    19.6100
 2172.6144     9.8630     2.4370    18.0170
 2172.7668     9.8790     2.2830    19.0120
 2172.9192     9.9120     2.1210    21.9330
 2173.0716     9.9470     2.1040    30.1650
 2173.2240     9.9740     2.1350    47.5700
 2173.3764     9.9720     2.1800    84.8520
 2173.5288     9.9250     2.2050   114.8290
 2173.6812     9.8800     2.2170   124.7660
 2173.8336     9.8790     2.2210   125.1590
 2173.9860     9.8560     2.2190   118.7280
 2174.1384     9.8360     2.2090   116.8460
 2174.2908     9.8340     2.2000   117.6910
 2174.4432     9.8450     2.1540   111.9160
 2174.5956     9.8560     2.1090    99.2060
 2174.7480     9.8580     2.0780    81.9180
 2174.9004     9.8570     2.0230    66.9820
 2175.0528     9.8370     2.0000    58.5390
 2175.2052     9.8130     1.9690    53.0080
 2175.3576     9.7930     1.9300    47.5040
 2175.5100     9.7720     1.9250    37.7650
 2175.6624     9.7590     1.9440    33.6710
 2175.8148     9.7470     1.9640    34.7200
 2175.9672     9.7380     1.9550    40.0030
 2176.1196     9.7270     1.9310    46.3400
 2176.2720     9.7100     1.9120    50.2950
 2176.4244     9.6970     1.8830    46.4410
 2176.5768     9.6920     1.9130    40.2070
 2176.7292     9.7050     1.9550    38.0890
 2176.8816     9.7410     1.9660    42.6470
 2177.0340     9.8520     1.9480    47.6710
 2177.1864     9.9950     1.9410    49.8450
