~VERSION INFORMATION
VERS.                                                 2.0:   CWLS Log ASCII Standard-VERSION 2.0
WRAP.                                                  NO:   One line per depth step
~Well Information Block
STRT.M                                            10.0584:   Top Depth
STOP.M                                          1400.8608:   Bottom Depth
STEP.M                                             .15240:   Depth Increment
NULL.                                            -999.250:   Null Value
FLD .                                          EEMSKANAAL:   Field Name
WELL.                                       EEMSKANAAL- 1:   NAME
EDF .m                                               5.58:   ELEV DRILL FLOOR
EPD .                                                   0:   ELEV PERM DATUM
EGL .m                                                -.9:   GROUND LEVEL
LMF .                                                  DF:   LOGS MEAS FROM
COMP.                                                 NAM:   OPERATOR
PDAT.                                                 NAP:   PERM DATUM
SPUD.                                          1970/11/08:   SPUD DATE
UWBI.                                      11000074112201:   UWBI
WELL.                                       EEMSKANAAL- 1:   HOLE NAME
~PARAMETER INFORMATION (log)
LNAM.                                RUN 02 RAW OH 14.75":   NAME
LTYP.                                                 02R:   LOG TYPE
LVSN.                                                   1:   LOG VERSION
BS  .3/4"                                              14:   BIT SIZE
BLI .M                                             1402.5:   BOTTOM DEPTH LOGGED
BHIS.                                            RCCCCCCC:   BRIEF HISTORY
FHIS.              RAW-TIGA/COPY/COPY/COPY/COPY/COPY/COPY:   FULL HISTORY
MRT .C                                                 50:   MAX REC TEMP
DFT .                                         CHALK WATER:   MUD TYPE
RMS .                                                1.44:   RM
MST .C                                                 11:   RM TEMP
RMCS.                                                1.93:   RMC
MCST.C                                                 19:   RMC TEMP
RMFS.                                               0.917:   RMF
MFST.C                                                 19:   RMF TEMP
TCS .                                                 N/A:   TIME SINCE CIRCLN
TLI .M                                                 10:   TOP DEPTH LOGGED
~Curve Information Block
#MNEM.UNIT                                        API CODE    No Description
#=========                                        ========    == ===========
DEPT.M                                       00 001 00 00:     1  DEPTH
BCSL.US/F                                                :     2  Interval Transit Time From Borehole Comp
GRIC.GAPI                                                :     3  GAMMA RAY LOG IN CASING
GRS.GAPI                                                 :     4  GAMMA RAY FROM SONIC LOG
~ASCII
# ...
  731.2152   162.0150  -999.2500    57.9730
  731.3676   162.1940  -999.2500    55.9580
  731.5200   162.2440  -999.2500    55.1460
  731.6724   162.1650  -999.2500    55.2510
  731.8248   162.1720  -999.2500    55.6790
  731.9772   161.7580  -999.2500    56.3550
  732.1296   161.3610  -999.2500    57.1330
  732.2820   161.2940  -999.2500    57.6470
  732.4344   161.7020  -999.2500    57.3760
  732.5868   162.0770  -999.2500    56.7850
  732.7392   162.4220  -999.2500    56.0300
  732.8916   162.6810  -999.2500    54.9370
  733.0440   162.5500  -999.2500    53.9480
  733.1964   162.8200  -999.2500    53.6720
  733.3488   163.1130  -999.2500    54.1520
  733.5012   163.2300  -999.2500    54.9210
  733.6536   163.4190  -999.2500    55.6160
  733.8060   164.0390  -999.2500    55.9170
  733.9584   164.7180  -999.2500    55.2620
  734.1108   165.2360  -999.2500    53.5130
  734.2632   165.5260  -999.2500    52.3910
  734.4156   164.4630  -999.2500    52.8680
  734.5680   162.7180  -999.2500    53.2450
  734.7204   161.9630  -999.2500    52.9790
  734.8728   162.8690  -999.2500    52.3470
  735.0252   163.4860  -999.2500    51.5390
  735.1776   164.2110  -999.2500    51.2230
  735.3300   164.1220  -999.2500    51.4950
  735.4824   161.2090  -999.2500    52.9780
  735.6348   160.1670  -999.2500    53.9860
  735.7872   159.5940  -999.2500    54.3750
  735.9396   159.2380  -999.2500    54.9790
  736.0920   161.0670  -999.2500    55.8290
  736.2444   162.2280  -999.2500    56.1700
  736.3968   161.9460  -999.2500    55.6660
  736.5492   161.5310  -999.2500    54.6060
  736.7016   161.2280  -999.2500    53.6660
  736.8540   161.0150  -999.2500    53.6970
  737.0064   161.1550  -999.2500    55.8120
  737.1588   162.3990  -999.2500    57.8910
  737.3112   163.5410  -999.2500    59.1170
  737.4636   164.1660  -999.2500    59.2460
  737.6160   164.4910  -999.2500    58.9010
  737.7684   163.7010  -999.2500    58.4680
  737.9208   162.6650  -999.2500    57.5760
  738.0732   161.9550  -999.2500    56.6630
  738.2256   161.8100  -999.2500    57.7110
  738.3780   161.8550  -999.2500    58.6470
  738.5304   162.0680  -999.2500    57.7000
  738.6828   162.3650  -999.2500    56.9430
  738.8352   162.2260  -999.2500    57.3230
  738.9876   161.6210  -999.2500    58.4370
  739.1400   161.0400  -999.2500    59.1960
  739.2924   160.4560  -999.2500    59.8770
  739.4448   160.5200  -999.2500    60.2200
  739.5972   161.2170  -999.2500    60.2120
  739.7496   161.5050  -999.2500    59.5300
  739.9020   161.4900  -999.2500    58.4880
  740.0544   162.0560  -999.2500    57.6950
  740.2068   161.9790  -999.2500    57.4040
  740.3592   162.5260  -999.2500    57.4610
  740.5116   163.3280  -999.2500    57.2640
  740.6640   163.2290  -999.2500    56.3380
  740.8164   162.1130  -999.2500    56.1830
  740.9688   160.7190  -999.2500    57.2660
  741.1212   159.3610  -999.2500    58.0510
  741.2736   158.8170  -999.2500    57.4480
  741.4260   159.3330  -999.2500    56.5500
  741.5784   159.8110  -999.2500    56.1090
  741.7308   160.0610  -999.2500    56.4220
  741.8832   159.8230  -999.2500    57.3740
  742.0356   159.4430  -999.2500    58.3910
  742.1880   159.7360  -999.2500    59.0000
  742.3404   159.3030  -999.2500    59.3340
  742.4928   159.1760  -999.2500    59.3700
  742.6452   160.0000  -999.2500    59.2150
  742.7976   160.4750  -999.2500    58.7920
  742.9500   160.6650  -999.2500    58.3720
  743.1024   161.4030  -999.2500    57.9070
  743.2548   161.5610  -999.2500    57.3220
  743.4072   161.5760  -999.2500    56.3660
  743.5596   161.4760  -999.2500    55.3640
  743.7120   160.9340  -999.2500    54.4710
  743.8644   160.1860  -999.2500    54.2870
  744.0168   160.0020  -999.2500    55.9240
  744.1692   160.5860  -999.2500    57.9470
  744.3216   160.7780  -999.2500    58.2610
  744.4740   161.4070  -999.2500    56.6400
  744.6264   161.6360  -999.2500    55.3260
  744.7788   161.4040  -999.2500    54.3790
  744.9312   161.0370  -999.2500    53.9130
  745.0836   161.5420  -999.2500    54.6370
  745.2360   161.6280  -999.2500    56.2750
  745.3884   161.3230  -999.2500    57.8200
  745.5408   161.1920  -999.2500    58.7290
  745.6932   162.0470  -999.2500    59.1940
  745.8456   162.4780  -999.2500    59.0670
  745.9980   163.3250  -999.2500    58.5520
  746.1504   164.0110  -999.2500    57.9360
  746.3028   164.3180  -999.2500    57.2770
  746.4552   163.4790  -999.2500    56.9770
  746.6076   163.1030  -999.2500    57.2430
  746.7600   163.2280  -999.2500    57.9780
  746.9124   163.1480  -999.2500    58.8120
  747.0648   163.0800  -999.2500    59.6260
  747.2172   162.3650  -999.2500    60.1230
  747.3696   161.7870  -999.2500    59.6960
  747.5220   162.1920  -999.2500    58.0290
  747.6744   162.4930  -999.2500    56.6300
  747.8268   163.2060  -999.2500    55.8510
  747.9792   163.1220  -999.2500    55.9280
  748.1316   162.7590  -999.2500    56.3450
  748.2840   161.9740  -999.2500    56.8780
  748.4364   161.1480  -999.2500    57.4500
  748.5888   160.9000  -999.2500    57.8600
  748.7412   160.9890  -999.2500    58.0680
  748.8936   161.0310  -999.2500    58.2630
  749.0460   161.4060  -999.2500    58.7130
  749.1984   161.2700  -999.2500    59.6290
  749.3508   161.5700  -999.2500    59.9700
  749.5032   161.7800  -999.2500    60.1430
  749.6556   161.7850  -999.2500    59.9140
  749.8080   162.0140  -999.2500    57.9260
  749.9604   162.7910  -999.2500    56.9240
  750.1128   163.1720  -999.2500    56.8980
  750.2652   162.4730  -999.2500    57.5990
  750.4176   161.7940  -999.2500    59.3210
  750.5700   161.1100  -999.2500    59.5500
  750.7224   161.0080  -999.2500    59.1900
  750.8748   160.7600  -999.2500    59.8040
  751.0272   160.2930  -999.2500    60.7750
  751.1796   159.6770  -999.2500    61.6630
  751.3320   158.8440  -999.2500    62.3510
  751.4844   158.1150  -999.2500    62.5480
  751.6368   157.6270  -999.2500    62.5000
  751.7892   157.6360  -999.2500    62.2540
  751.9416   158.0020  -999.2500    61.8580
  752.0940   157.8830  -999.2500    61.2420
  752.2464   157.9710  -999.2500    60.3650
  752.3988   158.6640  -999.2500    59.4970
  752.5512   159.3100  -999.2500    58.6060
  752.7036   159.9510  -999.2500    57.8490
  752.8560   160.1360  -999.2500    57.6230
  753.0084   160.6460  -999.2500    57.5150
  753.1608   161.2650  -999.2500    58.0080
  753.3132   161.1020  -999.2500    60.0610
  753.4656   162.5960  -999.2500    59.1190
  753.6180   163.1530  -999.2500    57.8790
  753.7704   161.6730  -999.2500    56.7650
  753.9228   161.8110  -999.2500    55.8380
  754.0752   161.5470  -999.2500    55.5370
  754.2276   160.9770  -999.2500    55.6850
  754.3800   160.9920  -999.2500    56.0910
  754.5324   160.5770  -999.2500    56.2450
  754.6848   160.4070  -999.2500    56.0950
  754.8372   160.0470  -999.2500    55.8830
  754.9896   160.7510  -999.2500    55.7700
  755.1420   161.4710  -999.2500    56.0090
  755.2944   161.7340  -999.2500    56.6880
  755.4468   161.3360  -999.2500    56.2950
  755.5992   160.6030  -999.2500    55.2800
  755.7516   160.1630  -999.2500    54.3290
  755.9040   161.1150  -999.2500    53.4210
  756.0564   162.0150  -999.2500    52.4730
  756.2088   162.5880  -999.2500    51.7500
  756.3612   162.4290  -999.2500    51.7870
  756.5136   162.5310  -999.2500    51.9670
  756.6660   161.9800  -999.2500    52.3080
  756.8184   160.9850  -999.2500    53.3070
  756.9708   160.6430  -999.2500    54.6390
  757.1232   160.5830  -999.2500    54.6390
  757.2756   159.8280  -999.2500    53.5330
  757.4280   160.8970  -999.2500    52.3820
  757.5804   162.2460  -999.2500    51.8270
  757.7328   162.0170  -999.2500    51.8540
  757.8852   161.6310  -999.2500    52.2640
  758.0376   161.5780  -999.2500    52.8620
  758.1900   160.7040  -999.2500    53.2900
  758.3424   160.1830  -999.2500    53.3450
  758.4948   160.1560  -999.2500    53.2670
  758.6472   159.3800  -999.2500    53.1320
  758.7996   159.4590  -999.2500    53.0400
