~VERSION INFORMATION
VERS.                                                 2.0:   CWLS Log ASCII Standard-VERSION 2.0
WRAP.                                                  NO:   One line per depth step
~Well Information Block
STRT.M                                          1406.0424:   Top Depth
STOP.M                                          1903.9332:   Bottom Depth
STEP.M                                             .15240:   Depth Increment
NULL.                                            -999.250:   Null Value
FLD .                                          EEMSKANAAL:   Field Name
WELL.                                       EEMSKANAAL- 1:   NAME
EDF .m                                               5.58:   ELEV DRILL FLOOR
EPD .                                                   0:   ELEV PERM DATUM
EGL .m                                                -.9:   GROUND LEVEL
LMF .                                                  DF:   LOGS MEAS FROM
COMP.                                                 NAM:   OPERATOR
PDAT.                                                 NAP:   PERM DATUM
SPUD.                                          1970/11/08:   SPUD DATE
UWBI.                                      11000074112201:   UWBI
WELL.                                       EEMSKANAAL- 1:   HOLE NAME
~PARAMETER INFORMATION (log)
LNAM.                                RUN 07 RAW OH 9.625":   NAME
LTYP.                                                 07R:   LOG TYPE
LVSN.                                                   1:   LOG VERSION
BS  .5/8"                                               9:   BIT SIZE
BLI .M                                               2950:   BOTTOM DEPTH LOGGED
BHIS.                                            RCCCCCCC:   BRIEF HISTORY
FHIS.              RAW-TIGA/COPY/COPY/COPY/COPY/COPY/COPY:   FULL HISTORY
MRT .                                                    :   MAX REC TEMP
DFT .                                          SALT SPERS:   MUD TYPE
RMS .                                               0.074:   RM
MST .C                                                 26:   RM TEMP
RMCS.                                               0.144:   RMC
MCST.C                                                 17:   RMC TEMP
RMFS.                                               0.059:   RMF
MFST.C                                                 26:   RMF TEMP
TCS .                                                 N/A:   TIME SINCE CIRCLN
TLI .M                                             1406.5:   TOP DEPTH LOGGED
~Curve Information Block
#MNEM.UNIT                                        API CODE    No Description
#=========                                        ========    == ===========
DEPT.M                                       00 001 00 00:     1  DEPTH
LL9D.OHMM                                                :     2  Dual Laterolog 9 deep
LL9S.OHMM                                                :     3  Dual Laterolog 9 shallow
MSFL.OHMM                                                :     4  MICRO SPHERICALLY FOCUSSED LOG
~ASCII
# ...
 1544.7264     2.3770     2.4100     2.9330
 1544.8788     2.4050     2.4260     2.4140
 1545.0312     2.5380     2.5210     2.7010
 1545.1836     2.7730     2.8040     2.9360
 1545.3360     2.9340     2.9610     2.9950
 1545.4884     2.9560     2.9620     2.9970
 1545.6408     2.8630     2.7830     3.0460
 1545.7932     2.6580     2.5530     3.2090
 1545.9456     2.5130     2.3820     3.3280
 1546.0980     2.5200     2.3560     3.2930
 1546.2504     2.5460     2.4060     2.5460
 1546.4028     2.5420     2.4400     2.4830
 1546.5552     2.4770     2.4250     2.9080
 1546.7076     2.3680     2.3280     2.8750
 1546.8600     2.2410     2.2050     2.7080
 1547.0124     2.1760     2.1260     2.5290
 1547.1648     2.1750     2.1200     2.4270
 1547.3172     2.1890     2.1450     2.4610
 1547.4696     2.2390     2.1820     2.4170
 1547.6220     2.3120     2.2250     2.3010
 1547.7744     2.3860     2.2780     2.3080
 1547.9268     2.4520     2.3350     2.4180
 1548.0792     2.5070     2.3640     2.6060
 1548.2316     2.4780     2.3770     2.7170
 1548.3840     2.3900     2.3520     3.4420
 1548.5364     2.2940     2.2590     3.4770
 1548.6888     2.1700     2.1330     2.7410
 1548.8412     2.0450     2.0080     2.5570
 1548.9936     1.9600     1.8950     2.5210
 1549.1460     1.8730     1.8360     2.3290
 1549.2984     1.8030     1.7830     2.0970
 1549.4508     1.7270     1.7290     2.1500
 1549.6032     1.6340     1.6650     2.1160
 1549.7556     1.5560     1.5830     2.0230
 1549.9080     1.4960     1.5250     1.8800
 1550.0604     1.4910     1.5240     1.7940
 1550.2128     1.5110     1.5580     1.7820
 1550.3652     1.5800     1.6040     1.8160
 1550.5176     1.6240     1.6380     1.7940
 1550.6700     1.6120     1.6360     1.7720
 1550.8224     1.5900     1.6160     1.9200
 1550.9748     1.5680     1.5960     1.6580
 1551.1272     1.5530     1.5830     1.6580
 1551.2796     1.5500     1.5790     2.1190
 1551.4320     1.5480     1.5830     2.0950
 1551.5844     1.5520     1.5890     1.9410
 1551.7368     1.5640     1.5920     1.9530
 1551.8892     1.5820     1.6020     1.9350
 1552.0416     1.6050     1.6280     1.8220
 1552.1940     1.6510     1.6710     1.1840
 1552.3464     1.7010     1.7420     1.6350
 1552.4988     1.7420     1.7840     2.0850
 1552.6512     1.7430     1.7620     2.0730
 1552.8036     1.7070     1.7260     2.1230
 1552.9560     1.6630     1.6740     2.1800
 1553.1084     1.6090     1.6220     2.0400
 1553.2608     1.5530     1.5780     1.9350
 1553.4132     1.5130     1.5510     1.9910
 1553.5656     1.5090     1.5420     1.9540
 1553.7180     1.5570     1.5480     1.8810
 1553.8704     1.6040     1.5680     1.8160
 1554.0228     1.5950     1.5730     1.8030
 1554.1752     1.5380     1.5150     1.8980
 1554.3276     1.4350     1.4190     1.8460
 1554.4800     1.3890     1.3660     1.6520
 1554.6324     1.4140     1.3800     1.6340
 1554.7848     1.4990     1.4560     1.5810
 1554.9372     1.5310     1.5230     1.6720
 1555.0896     1.5200     1.5220     2.0860
 1555.2420     1.3950     1.3760     1.8700
 1555.3944     1.2620     1.2560     1.4330
 1555.5468     1.2370     1.2390      .8220
 1555.6992     1.2580     1.2540      .8300
 1555.8516     1.3280     1.3130      .7950
 1556.0040     1.4440     1.4020      .5670
 1556.1564     1.7100     1.5840     1.8750
 1556.3088     1.7160     1.7150     2.1450
 1556.4612     1.7040     1.7470     2.4200
 1556.6136     1.6730     1.7240     2.4440
 1556.7660     1.6520     1.6750     2.0640
 1556.9184     1.6770     1.6710     1.9850
 1557.0708     1.7600     1.7340     2.0400
 1557.2232     1.8910     1.8720     2.0790
 1557.3756     1.9410     1.9580     2.4960
 1557.5280     1.9450     1.9730     2.7000
 1557.6804     1.9240     1.9500     2.5370
 1557.8328     1.8720     1.9000     2.2480
 1557.9852     1.8370     1.8640     2.2050
 1558.1376     1.8110     1.8630     2.0570
 1558.2900     1.7780     1.8570     2.0410
 1558.4424     1.7110     1.7920     1.9650
 1558.5948     1.6260     1.6980     1.8290
 1558.7472     1.5140     1.6090     1.8010
 1558.8996     1.4250     1.5340     1.7790
 1559.0520     1.3960     1.4680     1.6720
 1559.2044     1.3980     1.4220     1.5980
 1559.3568     1.4130     1.4040     1.5890
 1559.5092     1.4420     1.4290     1.6050
 1559.6616     1.4790     1.4790     1.7610
 1559.8140     1.5070     1.5230     1.8480
 1559.9664     1.5190     1.5530     1.8830
 1560.1188     1.5090     1.5500     1.9370
 1560.2712     1.4740     1.5300     1.9490
 1560.4236     1.4620     1.5290     1.8560
 1560.5760     1.4810     1.5270     1.7320
 1560.7284     1.5200     1.5320     1.7340
 1560.8808     1.5370     1.5380     1.7650
 1561.0332     1.5490     1.5400     1.7730
 1561.1856     1.5520     1.5440     1.7860
 1561.3380     1.5500     1.5390     1.8170
 1561.4904     1.5420     1.5300     1.8600
 1561.6428     1.5260     1.5240     1.8790
 1561.7952     1.5110     1.5210     1.8820
 1561.9476     1.5020     1.5120     1.8690
 1562.1000     1.4990     1.5000     1.7630
 1562.2524     1.5020     1.4800     1.6930
 1562.4048     1.5080     1.4590     1.8380
 1562.5572     1.5120     1.4530     1.8580
 1562.7096     1.5160     1.4610     1.6940
 1562.8620     1.5160     1.4760     1.7260
 1563.0144     1.5190     1.5050     1.7430
 1563.1668     1.5210     1.5420     1.6830
 1563.3192     1.5230     1.5350     1.6380
 1563.4716     1.5040     1.4730     1.5940
 1563.6240     1.4430     1.3460     1.5910
 1563.7764     1.3030     1.2400     1.5960
 1563.9288     1.1770     1.1800     1.0730
 1564.0812     1.1470     1.1610     1.2820
 1564.2336     1.1570     1.1720     1.4030
 1564.3860     1.2090     1.2050      .4800
 1564.5384     1.2740     1.2460      .7440
 1564.6908     1.3350     1.2940     1.5230
 1564.8432     1.3760     1.3560     1.6560
 1564.9956     1.4170     1.4230     1.6950
 1565.1480     1.4670     1.4650     1.7900
 1565.3004     1.5270     1.4940     1.9440
 1565.4528     1.5880     1.5070     1.9760
 1565.6052     1.6200     1.5100     1.9540
 1565.7576     1.6370     1.5150     1.9170
 1565.9100     1.6440     1.5160     1.9860
 1566.0624     1.6440     1.5200     2.0070
 1566.2148     1.6400     1.5330     1.9780
 1566.3672     1.6310     1.5500     1.7990
 1566.5196     1.6210     1.5780     1.7090
 1566.6720     1.6020     1.5840     1.6990
 1566.8244     1.5780     1.5870     1.7020
 1566.9768     1.5540     1.5700     1.6810
 1567.1292     1.5180     1.5250     1.6700
 1567.2816     1.4650     1.4740     1.8040
 1567.4340     1.4050     1.4240     1.7940
 1567.5864     1.3570     1.3790     1.5750
 1567.7388     1.3280     1.3350     1.4400
 1567.8912     1.3230     1.2980     1.4500
 1568.0436     1.3430     1.2970     1.3950
 1568.1960     1.3900     1.3290      .7670
 1568.3484     1.4230     1.3890     1.6160
 1568.5008     1.4060     1.3940     1.4700
 1568.6532     1.3290     1.3190     1.5350
 1568.8056     1.2490     1.2450     1.5060
 1568.9580     1.1920     1.2020     1.3900
 1569.1104     1.1870     1.1840      .8330
 1569.2628     1.2420     1.2440      .2750
 1569.4152     1.3260     1.3580      .3480
 1569.5676     1.4380     1.4720     1.2330
 1569.7200     1.5310     1.5660     1.7940
 1569.8724     1.6200     1.6450     1.5090
 1570.0248     1.7050     1.7240     1.5130
 1570.1772     1.7890     1.7990     1.7140
 1570.3296     1.8900     1.8640     2.0720
 1570.4820     2.0180     1.9380     2.4340
 1570.6344     2.1350     2.0260     2.3760
 1570.7868     2.2290     2.1210     2.7750
 1570.9392     2.2610     2.2060     2.7470
 1571.0916     2.2750     2.2550     2.3400
 1571.2440     2.2670     2.2270     2.3330
 1571.3964     2.1430     1.9820     2.8510
 1571.5488     1.9370     1.7950     3.0080
 1571.7012     1.6640     1.6600     2.8100
 1571.8536     1.5160     1.5690     2.1130
 1572.0060     1.4570     1.5000     1.8830
 1572.1584     1.4340     1.4870     1.6930
 1572.3108     1.4840     1.5460     1.4590
