~VERSION INFORMATION
VERS.                                                 2.0:   CWLS Log ASCII Standard-VERSION 2.0
WRAP.                                                  NO:   One line per depth step
~Well Information Block
STRT.M                                           404.0124:   Top Depth
STOP.M                                          1403.9088:   Bottom Depth
STEP.M                                             .15240:   Depth Increment
NULL.                                            -999.250:   Null Value
FLD .                                          EEMSKANAAL:   Field Name
WELL.                                       EEMSKANAAL- 1:   NAME
EDF .m                                               5.58:   ELEV DRILL FLOOR
EPD .                                                   0:   ELEV PERM DATUM
EGL .m                                                -.9:   GROUND LEVEL
LMF .                                                  DF:   LOGS MEAS FROM
COMP.                                                 NAM:   OPERATOR
PDAT.                                                 NAP:   PERM DATUM
SPUD.                                          1970/11/08:   SPUD DATE
UWBI.                                      11000074112201:   UWBI
WELL.                                       EEMSKANAAL- 1:   HOLE NAME
~PARAMETER INFORMATION (log)
LNAM.                                RUN 01 RAW OH 14.75":   NAME
LTYP.                                                 01R:   LOG TYPE
LVSN.                                                   1:   LOG VERSION
BS  .3/4"                                              14:   BIT SIZE
BLI .M                                             1406.2:   BOTTOM DEPTH LOGGED
BHIS.                                            RCCCCCCC:   BRIEF HISTORY
FHIS.              RAW-TIGA/COPY/COPY/COPY/COPY/COPY/COPY:   FULL HISTORY
MRT .C                                                 50:   MAX REC TEMP
DFT .                                         CHALK WATER:   MUD TYPE
RMS .                                                1.44:   RM
MST .C                                                 11:   RM TEMP
RMCS.                                                1.93:   RMC
MCST.C                                                 19:   RMC TEMP
RMFS.                                               0.917:   RMF
MFST.C                                                 19:   RMF TEMP
TCS .                                                 N/A:   TIME SINCE CIRCLN
TLI .M                                              403.6:   TOP DEPTH LOGGED
~Curve Information Block
#MNEM.UNIT                                        API CODE    No Description
#=========                                        ========    == ===========
DEPT.M                                       00 001 00 00:     1  DEPTH
DILD.OHMM                                                :     2  DUAL INDUCTION LOG DEEP RESISTIVITY
SN.OHMM                                                  :     3  SHORT NORMAL
~ASCII
# ...
  663.2448      .8620      .9060
  663.3972      .8620      .9110
  663.5496      .8620      .9160
  663.7020      .8620      .9200
  663.8544      .8620      .9220
  664.0068      .8620      .9230
  664.1592      .8620      .9260
  664.3116      .8610      .9270
  664.4640      .8540      .9130
  664.6164      .8430      .9010
  664.7688      .8240      .8970
  664.9212      .8110      .8950
  665.0736      .7860      .8920
  665.2260      .7730      .8880
  665.3784      .7550      .8870
  665.5308      .7360      .8840
  665.6832      .7210      .8810
  665.8356      .6940      .8800
  665.9880      .6660      .8790
  666.1404      .6580      .8750
  666.2928      .6550      .8760
  666.4452      .6560      .8910
  666.5976      .6560      .8950
  666.7500      .6560      .8820
  666.9024      .6560      .8610
  667.0548      .6640      .8530
  667.2072      .6640      .8720
  667.3596      .6640      .9000
  667.5120      .6640      .9180
  667.6644      .6650      .9270
  667.8168      .6730      .9260
  667.9692      .6880      .9240
  668.1216      .6980      .9230
  668.2740      .7100      .9230
  668.4264      .7120      .9220
  668.5788      .7120      .9210
  668.7312      .7120      .9150
  668.8836      .7120      .9080
  669.0360      .7110      .9010
  669.1884      .7050      .8960
  669.3408      .7010      .8930
  669.4932      .6960      .8890
  669.6456      .6960      .8880
  669.7980      .6960      .8880
  669.9504      .6960      .8940
  670.1028      .6960      .9000
  670.2552      .6960      .9030
  670.4076      .6960      .9040
  670.5600      .6900      .9040
  670.7124      .6880      .9040
  670.8648      .6880      .9040
  671.0172      .6880      .9050
  671.1696      .6880      .9060
  671.3220      .6930      .9090
  671.4744      .6960      .9110
  671.6268      .6960      .9060
  671.7792      .6960      .9000
  671.9316      .7010      .8970
  672.0840      .7040      .8960
  672.2364      .7040      .8970
  672.3888      .7080      .8990
  672.5412      .7130      .9000
  672.6936      .7270      .9030
  672.8460      .7400      .9060
  672.9984      .7600      .9100
  673.1508      .7810      .9160
  673.3032      .8060      .9240
  673.4556      .8230      .9330
  673.6080      .8390      .9470
  673.7604      .8610      .9710
  673.9128      .8700      .9790
  674.0652      .8700      .9700
  674.2176      .8470      .9620
  674.3700      .7310      .9530
  674.5224      .7020      .9420
  674.6748      .6900      .9310
  674.8272      .6810      .9180
  674.9796      .6750      .9070
  675.1320      .6630      .9000
  675.2844      .6420      .8970
  675.4368      .6290      .8960
  675.5892      .6240      .8950
  675.7416      .6240      .8940
  675.8940      .6240      .8920
  676.0464      .6320      .8890
  676.1988      .6320      .8840
  676.3512      .6320      .8820
  676.5036      .6280      .8820
  676.6560      .6240      .8800
  676.8084      .6250      .8800
  676.9608      .6320      .8790
  677.1132      .6410      .8790
  677.2656      .6580      .8790
  677.4180      .6810      .8790
  677.5704      .6950      .8790
  677.7228      .6980      .8790
  677.8752      .7040      .8790
  678.0276      .7040      .8770
  678.1800      .7040      .8770
  678.3324      .7040      .8770
  678.4848      .7040      .8770
  678.6372      .7040      .8790
  678.7896      .7000      .8790
  678.9420      .6960      .8800
  679.0944      .6960      .8790
  679.2468      .6990      .8770
  679.3992      .7040      .8750
  679.5516      .7040      .8710
  679.7040      .7040      .8680
  679.8564      .7040      .8660
  680.0088      .7040      .8660
  680.1612      .7040      .8660
  680.3136      .7040      .8680
  680.4660      .7050      .8720
  680.6184      .7120      .8770
  680.7708      .7150      .8800
  680.9232      .7260      .8840
  681.0756      .7280      .8850
  681.2280      .7320      .8850
  681.3804      .7420      .8830
  681.5328      .7440      .8810
  681.6852      .7440      .8790
  681.8376      .7440      .8750
  681.9900      .7440      .8700
  682.1424      .7440      .8680
  682.2948      .7520      .8680
  682.4472      .7520      .8680
  682.5996      .7440      .8690
  682.7520      .7440      .8700
  682.9044      .7440      .8720
  683.0568      .7440      .8730
  683.2092      .7440      .8740
  683.3616      .7440      .8750
  683.5140      .7440      .8770
  683.6664      .7440      .8830
  683.8188      .7440      .8900
  683.9712      .7440      .8990
  684.1236      .7440      .9140
  684.2760      .7440      .9160
  684.4284      .7440      .9110
  684.5808      .7440      .9070
  684.7332      .7440      .9020
  684.8856      .7490      .8990
  685.0380      .7590      .8980
  685.1904      .7600      .8980
  685.3428      .7630      .8980
  685.4952      .7720      .8980
  685.6476      .7860      .8980
  685.8000      .7980      .8980
  685.9524      .8110      .8980
  686.1048      .8230      .8980
  686.2572      .8420      .8980
  686.4096      .8610      .8980
  686.5620      .8770      .9000
  686.7144      .8890      .8990
  686.8668      .8940      .8980
  687.0192      .8940      .8970
  687.1716      .8940      .8960
  687.3240      .8940      .8930
  687.4764      .8940      .8930
  687.6288      .8940      .8920
  687.7812      .8940      .8930
  687.9336      .8900      .8930
  688.0860      .8860      .8930
  688.2384      .8860      .8920
  688.3908      .8860      .8920
  688.5432      .8860      .8910
  688.6956      .8780      .8890
  688.8480      .8720      .8840
  689.0004      .8700      .8780
  689.1528      .8620      .8680
  689.3052      .8600      .8630
  689.4576      .8490      .8580
  689.6100      .8370      .8530
  689.7624      .8300      .8520
  689.9148      .8210      .8520
  690.0672      .8090      .8550
  690.2196      .7890      .8590
  690.3720      .7660      .8620
  690.5244      .7590      .8640
  690.6768      .7520      .8660
  690.8292      .7450      .8680
  690.9816      .7440      .8680
  691.1340      .7360      .8680
  691.2864      .7460      .8670
  691.4388      .7600      .8660
  691.5912      .7600      .8670
  691.7436      .7280      .8760
  691.8960      .7280      .8720
  692.0484      .7300      .8720
  692.2008      .7360      .8710
  692.3532      .7280      .8690
  692.5056      .7280      .8690
  692.6580      .7280      .8690
  692.8104      .7280      .8680
  692.9628      .7270      .8680
  693.1152      .7200      .8660
  693.2676      .7200      .8640
  693.4200      .7190      .8610
  693.5724      .7140      .8590
  693.7248      .7180      .8560
  693.8772      .7180      .8550
  694.0296      .7200      .8550
  694.1820      .7200      .8550
  694.3344      .7200      .8550
  694.4868      .7200      .8550
  694.6392      .7200      .8560
  694.7916      .7270      .8590
  694.9440      .7250      .8650
  695.0964      .7280      .8720
  695.2488      .7280      .8790
  695.4012      .7280      .8860
  695.5536      .7280      .8900
  695.7060      .7280      .8930
  695.8584      .7280      .8960
  696.0108      .7280      .8960
  696.1632      .7280      .8960
  696.3156      .7280      .8950
  696.4680      .7280      .8950
  696.6204      .7280      .8940
  696.7728      .7280      .8920
  696.9252      .7280      .8900
  697.0776      .7280      .8900
  697.2300      .7280      .8900
  697.3824      .7280      .8890
  697.5348      .7280      .8880
  697.6872      .7280      .8870
  697.8396      .7200      .8840
  697.9920      .7200      .8800
  698.1444      .7200      .8780
  698.2968      .7200      .8750
  698.4492      .7290      .8720
  698.6016      .7360      .8710
  698.7540      .7410      .8720
  698.9064      .7440      .8750
  699.0588      .7440      .8830
  699.2112      .7360      .8920
  699.3636      .7360      .8920
  699.5160      .7360      .8830
  699.6684      .6680      .8790
  699.8208      .6320      .8770
  699.9732      .6320      .8750
  700.1256      .6320      .8740
