~VERSION INFORMATION
VERS.                                                 2.0:   CWLS Log ASCII Standard-VERSION 2.0
WRAP.                                                  NO:   One line per depth step
~Well Information Block
STRT.M                                          1789.0236:   Top Depth
STOP.M                                          2779.9284:   Bottom Depth
STEP.M                                             .15240:   Depth Increment
NULL.                                            -999.250:   Null Value
FLD .                                          EEMSKANAAL:   Field Name
WELL.                                       EEMSKANAAL- 2:   NAME
APD .M                                               5.62:   ABOVE PERM DATUM
CTRY.                                                  NE:   COUNTRY
EDF .m                                               5.62:   ELEV DRILL FLOOR
EPD .                                                   0:   ELEV PERM DATUM
EGL .m                                              -1.06:   GROUND LEVEL
LMF .                                                  DF:   LOGS MEAS FROM
COMP.                                                 NAM:   OPERATOR
PDAT.                                                 NAP:   PERM DATUM
SPUD.                                          1971/03/17:   SPUD DATE
STAT.                                           Unknown m:   STATE
UWBI.                                      11000074112601:   UWBI
WELL.                                       EEMSKANAAL- 2:   HOLE NAME
~PARAMETER INFORMATION (log)
LNAM.                                RUN 01 RAW OH 9 5/8":   NAME
LTYP.                                                 01R:   LOG TYPE
LVSN.                                                   1:   LOG VERSION
BS  .5/8"                                               9:   BIT SIZE
BLI .M                                             2778.0:   BOTTOM DEPTH LOGGED
BHIS.                                                MCCC:   BRIEF HISTORY
FHIS.                                     MERGE/COPY/COPY:   FULL HISTORY
MRT .DEGC                                              84:   MAX REC TEMP
DFD .G/CC                                            1.54:   MUD DENSITY
DFT .                                   SALT SAT SPERSENE:   MUD TYPE
RMS .                                                    :   RM
MST .                                                    :   RM TEMP
RMCS.                                                    :   RMC
MCST.                                                    :   RMC TEMP
RMFS.                                                    :   RMF
MFST.                                                    :   RMF TEMP
TCS .                                                 N/A:   TIME SINCE CIRCLN
TLI .M                                             1800.0:   TOP DEPTH LOGGED
~Curve Information Block
#MNEM.UNIT                                        API CODE    No Description
#=========                                        ========    == ===========
DEPT.M                                       00 001 00 00:     1  DEPTH
CALF.IN                                                  :     2  CALIPER FROM FORMATION DENSITY LOG
FDC.G/C3                                                 :     3  Formation Density Log (Compensated Open
GR.API                                                   :     4  Gamma Ray
~ASCII
# ...
 1927.7076    10.3490     1.7870    68.5010
 1927.8600    10.3460     1.7680    67.7610
 1928.0124    10.3440     1.7340    68.9490
 1928.1648    10.3500     1.7250    75.5540
 1928.3172    10.3680     1.7140    78.9110
 1928.4696    10.3860     1.7070    79.6370
 1928.6220    10.3440     1.7040    79.1750
 1928.7744    10.3110     1.7010    78.3320
 1928.9268    10.2950     1.6920    79.4500
 1929.0792    10.2880     1.7040    80.1400
 1929.2316    10.2850     1.7240    79.9270
 1929.3840    10.2880     1.7430    77.8670
 1929.5364    10.2880     1.7310    76.7960
 1929.6888    10.2940     1.7210    78.2790
 1929.8412    10.3150     1.7200    80.2080
 1929.9936    10.3130     1.7370    79.9840
 1930.1460    10.2910     1.7730    66.1330
 1930.2984    10.2690     1.8150    46.1470
 1930.4508    10.3030     1.8650    39.1270
 1930.6032    10.3050     1.8900    35.9750
 1930.7556    10.2790     1.9130    37.9630
 1930.9080    10.2650     1.9190    41.4250
 1931.0604    10.2580     1.9050    43.2590
 1931.2128    10.2480     1.8940    43.6090
 1931.3652    10.2440     1.8890    45.9350
 1931.5176    10.2480     1.8830    48.6310
 1931.6700    10.2540     1.8910    46.6470
 1931.8224    10.2640     1.8940    43.8850
 1931.9748    10.2710     1.9010    41.7220
 1932.1272    10.2730     1.9110    38.3650
 1932.2796    10.2770     1.9100    33.8840
 1932.4320    10.2870     1.9180    31.9320
 1932.5844    10.2990     1.9280    30.3180
 1932.7368    10.3070     1.9330    29.9490
 1932.8892    10.3040     1.9360    31.4870
 1933.0416    10.2830     1.9440    31.4170
 1933.1940    10.2530     1.9500    28.4340
 1933.3464    10.2350     1.9510    25.7540
 1933.4988    10.2360     1.9560    25.7310
 1933.6512    10.2470     1.9730    25.2270
 1933.8036    10.2700     1.9810    25.3590
 1933.9560    10.2900     1.9880    26.2790
 1934.1084    10.3140     2.0040    26.4070
 1934.2608    10.3430     2.0170    24.6350
 1934.4132    10.3480     2.0150    21.9690
 1934.5656    10.3380     2.0080    19.3770
 1934.7180    10.3410     2.0080    17.8100
 1934.8704    10.3530     2.0120    17.0910
 1935.0228    10.3540     2.0130    15.9870
 1935.1752    10.2830     2.0200    16.0620
 1935.3276    10.2140     2.0290    16.9080
 1935.4800    10.2020     2.0350    17.1660
 1935.6324    10.2000     2.0330    16.7770
 1935.7848    10.2040     2.0320    16.3170
 1935.9372    10.2140     2.0340    15.6620
 1936.0896    10.2200     2.0350    15.8090
 1936.2420    10.2240     2.0250    15.7200
 1936.3944    10.2200     2.0240    15.4370
 1936.5468    10.2060     2.0290    13.6010
 1936.6992    10.1920     2.0350    11.5910
 1936.8516    10.1940     2.0400    10.5750
 1937.0040    10.1980     2.0410    10.6830
 1937.1564    10.2070     2.0440    10.3320
 1937.3088    10.2160     2.0440     8.9360
 1937.4612    10.2100     2.0340     7.6930
 1937.6136    10.1940     2.0320     7.1620
 1937.7660    10.1780     2.0390     7.1790
 1937.9184    10.1600     2.0480     7.4710
 1938.0708    10.1470     2.0550     8.4800
 1938.2232    10.1450     2.0590     9.3020
 1938.3756    10.1500     2.0560     8.3170
 1938.5280    10.1680     2.0490     6.9170
 1938.6804    10.1760     2.0550     7.0520
 1938.8328    10.1860     2.0590     8.1010
 1938.9852    10.1880     2.0560     9.2080
 1939.1376    10.1760     2.0580    10.0620
 1939.2900    10.1610     2.0500    10.4880
 1939.4424    10.1710     2.0440    10.4250
 1939.5948    10.2090     2.0390    10.3370
 1939.7472    10.2400     2.0440     9.9690
 1939.8996    10.2690     2.0470     9.1820
 1940.0520    10.2780     2.0520     8.6630
 1940.2044    10.2760     2.0620     8.1620
 1940.3568    10.2730     2.0520     7.6770
 1940.5092    10.2800     2.0430     7.1360
 1940.6616    10.2950     2.0390     7.6400
 1940.8140    10.3130     2.0380     9.7890
 1940.9664    10.3310     2.0380    10.4350
 1941.1188    10.3480     2.0480    11.0000
 1941.2712    10.3550     2.0500    13.2110
 1941.4236    10.3680     2.0440    15.6350
 1941.5760    10.3830     2.0350    17.8990
 1941.7284    10.3960     2.0330    22.9130
 1941.8808    10.4220     2.0370    29.3310
 1942.0332    10.4780     2.0250    34.0360
 1942.1856    10.5050     2.0020    43.8750
 1942.3380    10.5080     1.9870    49.0430
 1942.4904    10.4990     1.9690    55.4000
 1942.6428    10.4900     1.9420    74.1340
 1942.7952    10.4800     1.9430    80.1570
 1942.9476    10.4050     1.9390   103.3690
 1943.1000    10.2640     2.1170   112.8600
 1943.2524    10.2600     2.2050   113.9270
 1943.4048    10.2520     2.2290   114.3780
 1943.5572    10.1840     2.2400   116.6920
 1943.7096    10.1460     2.2010   114.1440
 1943.8620    10.1340     2.1250    99.4030
 1944.0144    10.0970     2.1030    81.7440
 1944.1668    10.0500     2.0910    60.2960
 1944.3192    10.0520     2.0710    50.0390
 1944.4716    10.0830     2.0430    46.8080
 1944.6240    10.1040     2.0210    47.2360
 1944.7764    10.1120     2.0140    49.0890
 1944.9288    10.1160     2.0290    50.4610
 1945.0812    10.1170     2.0480    49.8660
 1945.2336    10.1300     2.0630    54.9760
 1945.3860    10.1370     2.0780    61.3680
 1945.5384    10.1280     2.1330    64.9370
 1945.6908    10.0990     2.1350    64.8350
 1945.8432    10.0620     2.1300    65.3480
 1945.9956    10.0460     2.1360    68.3390
 1946.1480    10.0550     2.1530    76.9900
 1946.3004    10.0660     2.1700    94.6040
 1946.4528    10.0180     2.1640    98.7080
 1946.6052     9.9890     2.1640    99.0340
 1946.7576     9.9880     2.1800   100.0270
 1946.9100     9.9930     2.1880   104.2800
 1947.0624     9.9860     2.1570   107.1820
 1947.2148     9.9770     2.1380   107.4410
 1947.3672     9.9670     2.1250   102.2920
 1947.5196     9.9510     2.1170    97.0150
 1947.6720     9.9110     2.1000    95.4220
 1947.8244     9.8670     2.0740    93.8090
 1947.9768     9.8500     2.0480    91.7130
 1948.1292     9.8390     2.0440    85.6800
 1948.2816     9.8380     2.0530    81.5770
 1948.4340     9.8350     2.0480    80.9190
 1948.5864     9.8360     2.0360    80.3790
 1948.7388     9.8440     2.0190    76.6680
 1948.8912     9.8450     2.0030    68.8580
 1949.0436     9.8380     1.9920    55.7570
 1949.1960     9.8200     1.9390    50.2500
 1949.3484     9.7620     1.9180    44.7420
 1949.5008     9.7090     1.9410    38.3860
 1949.6532     9.6920     1.9460    36.0850
 1949.8056     9.6900     1.9480    35.3420
 1949.9580     9.7070     1.9180    39.3180
 1950.1104     9.8220     1.8900    45.2800
 1950.2628    10.2250     1.8250    53.2080
 1950.4152    10.4220     1.7890    60.4550
 1950.5676    10.5070     1.7720    67.4590
 1950.7200    10.5560     1.7700    75.9000
 1950.8724    10.5140     1.7720    79.0310
 1951.0248    10.4600     1.7630    81.0770
 1951.1772    10.4200     1.7670    78.3990
 1951.3296    10.3500     1.7840    69.1910
 1951.4820    10.3310     1.8050    62.6260
 1951.6344    10.3250     1.8130    58.6700
 1951.7868    10.3210     1.8160    56.7570
 1951.9392    10.3090     1.8140    57.3920
 1952.0916    10.2960     1.7910    63.2390
 1952.2440    10.2810     1.7700    72.9280
 1952.3964    10.2610     1.7590    74.1120
 1952.5488    10.2480     1.7840    70.3100
 1952.7012    10.2730     1.8180    67.5230
 1952.8536    10.3230     1.8200    67.2070
 1953.0060    10.3480     1.7990    69.9290
 1953.1584    10.0990     1.8260    68.2070
 1953.3108     9.9590     1.8640    63.4850
 1953.4632     9.9590     1.8910    59.6060
 1953.6156    10.0890     1.8980    57.7900
 1953.7680    10.4050     1.8690    62.6040
 1953.9204    10.5090     1.8260    70.7290
 1954.0728    10.5490     1.7570    75.2470
 1954.2252    10.5010     1.7250    78.7560
 1954.3776    10.4210     1.7320    79.2820
 1954.5300    10.3490     1.7620    78.5280
 1954.6824    10.3180     1.7920    77.5440
 1954.8348    10.3450     1.8220    68.9180
 1954.9872    10.3910     1.8690    56.6180
 1955.1396    10.4080     1.9070    52.1730
 1955.2920    10.4120     1.9040    53.7760
