~VERSION INFORMATION
VERS.                                                 2.0:   CWLS Log ASCII Standard-VERSION 2.0
WRAP.                                                  NO:   One line per depth step
~Well Information Block
STRT.M                                          1789.0236:   Top Depth
STOP.M                                          2779.9284:   Bottom Depth
STEP.M                                             .15240:   Depth Increment
NULL.                                            -999.250:   Null Value
FLD .                                          EEMSKANAAL:   Field Name
WELL.                                       EEMSKANAAL- 2:   NAME
APD .M                                               5.62:   ABOVE PERM DATUM
CTRY.                                                  NE:   COUNTRY
EDF .m                                               5.62:   ELEV DRILL FLOOR
EPD .                                                   0:   ELEV PERM DATUM
EGL .m                                              -1.06:   GROUND LEVEL
LMF .                                                  DF:   LOGS MEAS FROM
COMP.                                                 NAM:   OPERATOR
PDAT.                                                 NAP:   PERM DATUM
SPUD.                                          1971/03/17:   SPUD DATE
STAT.                                           Unknown m:   STATE
UWBI.                                      11000074112601:   UWBI
WELL.                                       EEMSKANAAL- 2:   HOLE NAME
~PARAMETER INFORMATION (log)
LNAM.                                RUN 01 RAW OH 9 5/8":   NAME
LTYP.                                                 01R:   LOG TYPE
LVSN.                                                   1:   LOG VERSION
BS  .5/8"                                               9:   BIT SIZE
BLI .M                                             2778.0:   BOTTOM DEPTH LOGGED
BHIS.                                                MCCC:   BRIEF HISTORY
FHIS.                                     MERGE/COPY/COPY:   FULL HISTORY
MRT .DEGC                                              84:   MAX REC TEMP
DFD .G/CC                                            1.54:   MUD DENSITY
DFT .                                   SALT SAT SPERSENE:   MUD TYPE
RMS .                                                    :   RM
MST .                                                    :   RM TEMP
RMCS.                                                    :   RMC
MCST.                                                    :   RMC TEMP
RMFS.                                                    :   RMF
MFST.                                                    :   RMF TEMP
TCS .                                                 N/A:   TIME SINCE CIRCLN
TLI .M                                             1800.0:   TOP DEPTH LOGGED
~Curve Information Block
#MNEM.UNIT                                        API CODE    No Description
#=========                                        ========    == ===========
DEPT.M                                       00 001 00 00:     1  DEPTH
CALF.IN                                                  :     2  CALIPER FROM FORMATION DENSITY LOG
FDC.G/C3                                                 :     3  Formation Density Log (Compensated Open
GR.API                                                   :     4  Gamma Ray
~ASCII
# ...
 2732.0748    10.3790     2.9670     8.9880
 2732.2272    10.3950     2.9530     9.7460
 2732.3796    10.4160     2.9520     9.1840
 2732.5320    10.4300     2.9600     9.4660
 2732.6844    10.4270     2.9520     8.7700
 2732.8368    10.4150     2.9630     8.4280
 2732.9892    10.4120     2.9730     8.6890
 2733.1416    10.4150     2.9740     9.2300
 2733.2940    10.4280     2.9830    10.1160
 2733.4464    10.4410     2.9900    10.6450
 2733.5988    10.4550     2.9610    10.6060
 2733.7512    10.4680     2.9490    10.0430
 2733.9036    10.4710     2.9420     9.1430
 2734.0560    10.4670     2.9490     8.2810
 2734.2084    10.4600     2.9610     7.5890
 2734.3608    10.4540     2.9650     7.2450
 2734.5132    10.4500     2.9460     7.9280
 2734.6656    10.4410     2.9550     9.9720
 2734.8180    10.4350     2.9640    10.3330
 2734.9704    10.4320     2.9490    10.1850
 2735.1228    10.4410     2.9350    10.3340
 2735.2752    10.4610     2.9310    10.4850
 2735.4276    10.4840     2.9490    10.1300
 2735.5800    10.4990     2.9570     9.3180
 2735.7324    10.5070     2.9510     8.6080
 2735.8848    10.5050     2.9480     8.2830
 2736.0372    10.5000     2.9490     8.3840
 2736.1896    10.4950     2.9430     8.7770
 2736.3420    10.4910     2.9440     9.0280
 2736.4944    10.4960     2.9480     9.0450
 2736.6468    10.5060     2.9440     9.2470
 2736.7992    10.5150     2.9240     9.8810
 2736.9516    10.5120     2.9180    10.7110
 2737.1040    10.5030     2.9080    11.5830
 2737.2564    10.4850     2.9390    11.8030
 2737.4088    10.4750     2.9610    10.9060
 2737.5612    10.4800     2.9640    10.2990
 2737.7136    10.4970     2.9690    10.0050
 2737.8660    10.5180     2.9510    10.0450
 2738.0184    10.5400     2.9440    10.0800
 2738.1708    10.5470     2.9440     9.8890
 2738.3232    10.4980     2.9520     8.9040
 2738.4756    10.1030     2.9620     8.8860
 2738.6280     9.9060     2.9790     9.7750
 2738.7804     9.8380     2.9920    10.4720
 2738.9328     9.8210     2.9830     9.6340
 2739.0852     9.8210     2.9670     9.1280
 2739.2376     9.8220     2.9650     8.6900
 2739.3900     9.8220     2.9630     8.0670
 2739.5424     9.8180     2.9590     8.8600
 2739.6948     9.8120     2.9810     9.4360
 2739.8472     9.7990     2.9620     9.5500
 2739.9996     9.7900     2.9500     9.3610
 2740.1520     9.7760     2.9620     9.0780
 2740.3044     9.7550     2.9740     8.5860
 2740.4568     9.7460     2.9470     8.2830
 2740.6092     9.7420     2.9420     8.1560
 2740.7616     9.7460     2.9360     8.8290
 2740.9140     9.7670     2.9380     8.9050
 2741.0664     9.7930     2.9400     8.6150
 2741.2188     9.8040     2.9350     9.0970
 2741.3712     9.7960     2.9350    10.2000
 2741.5236     9.7910     2.9380    11.1750
 2741.6760     9.7900     2.9650    11.8270
 2741.8284     9.7940     2.9720    10.1810
 2741.9808     9.7880     2.9520     8.2240
 2742.1332     9.7570     2.9390     7.4150
 2742.2856     9.7380     2.9360     7.8610
 2742.4380     9.7350     2.9480     9.5050
 2742.5904     9.7420     2.9590     9.4860
 2742.7428     9.7590     2.9450     8.5740
 2742.8952     9.7740     2.9400     8.5880
 2743.0476     9.7740     2.9490     9.0500
 2743.2000     9.7700     2.9570     9.8250
 2743.3524     9.7540     2.9610     9.8500
 2743.5048     9.7420     2.9550    10.5450
 2743.6572     9.7420     2.9290    12.1670
 2743.8096     9.7420     2.9180    12.9630
 2743.9620     9.7420     2.8840    13.4980
 2744.1144     9.7460     2.8530    14.3990
 2744.2668     9.7530     2.8300    15.5860
 2744.4192     9.7580     2.8310    16.5250
 2744.5716     9.7630     2.8410    15.1930
 2744.7240     9.7650     2.8380    15.0850
 2744.8764     9.7600     2.8080    16.5590
 2745.0288     9.7440     2.7890    17.1030
 2745.1812     9.7270     2.7780    18.0910
 2745.3336     9.7130     2.7380    19.3720
 2745.4860     9.7050     2.7140    20.3840
 2745.6384     9.7020     2.7150    20.9010
 2745.7908     9.7020     2.7400    21.0440
 2745.9432     9.7020     2.7590    20.9460
 2746.0956     9.7050     2.7640    20.5190
 2746.2480     9.7080     2.7600    20.0530
 2746.4004     9.7100     2.7650    19.6640
 2746.5528     9.7150     2.7770    19.0990
 2746.7052     9.7180     2.7880    18.9600
 2746.8576     9.7200     2.8060    21.2470
 2747.0100     9.7220     2.8250    22.5670
 2747.1624     9.7220     2.8630    18.6640
 2747.3148     9.7220     2.9000    14.4210
 2747.4672     9.7160     2.9200    11.2750
 2747.6196     9.6990     2.9230     9.6440
 2747.7720     9.6810     2.9350     9.6260
 2747.9244     9.6710     2.9530    11.9270
 2748.0768     9.6920     2.9540    14.8370
 2748.2292     9.7370     2.9550    14.2350
 2748.3816     9.7750     2.9660    12.6540
 2748.5340     9.7940     2.9650    12.2890
 2748.6864     9.7950     2.9640    12.0670
 2748.8388     9.7920     2.9620    10.9560
 2748.9912     9.7860     2.9650     9.5840
 2749.1436     9.7880     2.9630     9.0440
 2749.2960     9.7960     2.9420    10.0510
 2749.4484     9.8040     2.9170    13.2540
 2749.6008     9.8070     2.9050    16.3230
 2749.7532     9.8150     2.9070    19.5780
 2749.9056     9.8250     2.9140    21.4520
 2750.0580     9.8340     2.8910    21.3560
 2750.2104     9.8470     2.8780    21.2180
 2750.3628     9.8560     2.8780    23.3830
 2750.5152     9.8700     2.8910    26.4840
 2750.6676     9.8830     2.8910    28.4550
 2750.8200     9.8940     2.8910    28.3370
 2750.9724     9.8920     2.8880    24.6790
 2751.1248     9.8730     2.8540    23.2100
 2751.2772     9.8350     2.8160    22.5280
 2751.4296     9.8110     2.7600    22.6450
 2751.5820     9.7990     2.7250    23.6210
 2751.7344     9.7940     2.7240    26.3410
 2751.8868     9.7860     2.7430    29.2840
 2752.0392     9.7780     2.7310    31.8870
 2752.1916     9.7740     2.7180    33.8380
 2752.3440     9.7750     2.7270    34.6360
 2752.4964     9.7780     2.7270    33.6460
 2752.6488     9.7840     2.7060    33.4510
 2752.8012     9.7900     2.6910    33.3630
 2752.9536     9.7930     2.6780    34.3370
 2753.1060     9.8020     2.6770    36.5100
 2753.2584     9.8030     2.6950    40.7950
 2753.4108     9.8060     2.7040    49.7110
 2753.5632     9.8110     2.6430    57.5630
 2753.7156     9.8170     2.6130    66.4580
 2753.8680     9.8180     2.5650    79.8740
 2754.0204     9.8180     2.5260   103.0350
 2754.1728     9.8180     2.5070   133.8680
 2754.3252     9.8180     2.5500   134.0090
 2754.4776     9.8210     2.5950   110.5470
 2754.6300     9.8220     2.6100    91.7520
 2754.7824     9.8220     2.6130    83.6780
 2754.9348     9.8220     2.6070    79.0840
 2755.0872     9.8220     2.6130    75.0280
 2755.2396     9.8190     2.6240    72.7090
 2755.3920     9.8220     2.6370    72.0610
 2755.5444     9.8240     2.6490    71.4550
 2755.6968     9.8380     2.6460    68.1710
 2755.8492     9.8440     2.6520    64.2880
 2756.0016     9.8500     2.6690    62.9190
 2756.1540     9.8530     2.6580    64.1820
 2756.3064     9.8590     2.6420    68.1380
 2756.4588     9.8640     2.6400    75.0690
 2756.6112     9.8640     2.6250    80.9890
 2756.7636     9.8650     2.6150    85.3160
 2756.9160     9.8650     2.6330    87.2080
 2757.0684     9.8620     2.6420    84.0100
 2757.2208     9.8580     2.6460    79.0760
 2757.3732     9.8760     2.6510    72.7970
 2757.5256     9.8850     2.6420    70.3440
 2757.6780     9.8860     2.6350    73.3560
 2757.8304     9.8860     2.6530    68.6020
 2757.9828     9.8860     2.6670    65.6990
 2758.1352     9.8880     2.6600    66.2970
 2758.2876     9.8900     2.6350    70.3680
 2758.4400     9.8970     2.6400    79.3500
 2758.5924     9.9080     2.6540    85.8160
 2758.7448     9.9180     2.6520    88.0510
 2758.8972     9.9230     2.6460    85.4510
 2759.0496     9.9310     2.6380    87.2540
 2759.2020     9.9320     2.6350    89.1730
 2759.3544     9.8890     2.6330    88.5800
 2759.5068     9.8710     2.6240    88.5220
 2759.6592     9.8890     2.6110    92.2440
