~VERSION INFORMATION
VERS.                                                 2.0:   CWLS Log ASCII Standard-VERSION 2.0
WRAP.                                                  NO:   One line per depth step
~Well Information Block
STRT.M                                          1407.1092:   Top Depth
STOP.M                                          3062.9352:   Bottom Depth
STEP.M                                             .15240:   Depth Increment
NULL.                                            -999.250:   Null Value
FLD .                                          EEMSKANAAL:   Field Name
WELL.                                       EEMSKANAAL- 1:   NAME
EDF .m                                               5.58:   ELEV DRILL FLOOR
EPD .                                                   0:   ELEV PERM DATUM
EGL .m                                                -.9:   GROUND LEVEL
LMF .                                                  DF:   LOGS MEAS FROM
COMP.                                                 NAM:   OPERATOR
PDAT.                                                 NAP:   PERM DATUM
SPUD.                                          1970/11/08:   SPUD DATE
UWBI.                                      11000074112201:   UWBI
WELL.                                       EEMSKANAAL- 1:   HOLE NAME
~PARAMETER INFORMATION (log)
LNAM.                                RUN 03 RAW OH 9.625":   NAME
LTYP.                                                 03R:   LOG TYPE
LVSN.                                                   1:   LOG VERSION
BS  .5/8"                                               9:   BIT SIZE
BLI .M                                               3064:   BOTTOM DEPTH LOGGED
BHIS.                                            RCCCCCCC:   BRIEF HISTORY
FHIS.              RAW-TIGA/COPY/COPY/COPY/COPY/COPY/COPY:   FULL HISTORY
MRT .C                                                 98:   MAX REC TEMP
DFT .                                          SALT SPERS:   MUD TYPE
RMS .                                                    :   RM
MST .                                                    :   RM TEMP
RMCS.                                                    :   RMC
MCST.                                                    :   RMC TEMP
RMFS.                                                    :   RMF
MFST.                                                    :   RMF TEMP
TCS .                                               4 HRS:   TIME SINCE CIRCLN
TLI .M                                               1407:   TOP DEPTH LOGGED
~Curve Information Block
#MNEM.UNIT                                        API CODE    No Description
#=========                                        ========    == ===========
DEPT.M                                       00 001 00 00:     1  DEPTH
CALF.IN                                                  :     2  CALIPER FROM FORMATION DENSITY LOG
FDC.g/c3                                                 :     3  Formation Density Log (Compensated Open
GR.GAPI                                                  :     4  Gamma Ray
~ASCII
# ...
 2932.6332    10.4370     2.5260   112.4780
 2932.7856    10.4780     2.5360   109.0840
 2932.9380    10.5260     2.4940   107.6970
 2933.0904    10.5720     2.4750   111.0980
 2933.2428    10.6160     2.4650   115.1180
 2933.3952    10.6480     2.4830   118.9690
 2933.5476    10.5170     2.5280   125.9510
 2933.7000    10.2600     2.5050   129.4650
 2933.8524     9.9520     2.5060   124.8110
 2934.0048     9.9440     2.5380   117.6480
 2934.1572     9.9640     2.5750   114.4510
 2934.3096     9.9800     2.5500   113.2920
 2934.4620     9.9630     2.5750   114.0320
 2934.6144     9.9100     2.6180   111.8040
 2934.7668     9.8650     2.5620   110.5200
 2934.9192     9.8400     2.5550   111.0010
 2935.0716     9.8380     2.5940   109.4220
 2935.2240     9.8040     2.6010   108.1210
 2935.3764     9.7490     2.5090   100.0610
 2935.5288     9.7240     2.3950    84.2600
 2935.6812     9.6830     2.3150    77.4690
 2935.8336     9.6370     2.2990    83.3540
 2935.9860     9.6290     2.4390    76.8860
 2936.1384     9.6350     2.5770    63.3510
 2936.2908     9.6360     2.6100    52.2620
 2936.4432     9.6400     2.6560    44.7830
 2936.5956     9.6370     2.6670    39.4930
 2936.7480     9.6350     2.6610    39.2330
 2936.9004     9.6320     2.6460    43.3630
 2937.0528     9.6400     2.6700    49.5790
 2937.2052     9.6630     2.6950    72.0400
 2937.3576     9.6810     2.7190    88.3850
 2937.5100     9.6850     2.7230    94.3620
 2937.6624     9.6930     2.7110    90.2660
 2937.8148     9.7050     2.7010    84.7130
 2937.9672     9.7090     2.6940    83.2520
 2938.1196     9.7140     2.6950    85.3230
 2938.2720     9.7200     2.6760    84.9550
 2938.4244     9.7250     2.6580    85.3770
 2938.5768     9.7270     2.6610    89.5100
 2938.7292     9.7280     2.6690    89.8970
 2938.8816     9.7280     2.6760    91.1640
 2939.0340     9.7260     2.6950    93.1220
 2939.1864     9.7240     2.7170    90.6710
 2939.3388     9.7210     2.7350    87.4600
 2939.4912     9.7160     2.7450    89.5100
 2939.6436     9.7220     2.7570    90.7280
 2939.7960     9.7490     2.7930    85.5530
 2939.9484     9.8050     2.8140    82.6240
 2940.1008     9.8230     2.7650    79.6120
 2940.2532     9.8280     2.7590    80.9880
 2940.4056     9.8250     2.7150    86.7340
 2940.5580     9.8240     2.6870    91.7830
 2940.7104     9.8220     2.7020    95.5050
 2940.8628     9.8200     2.7090    97.6460
 2941.0152     9.8200     2.7110   100.5160
 2941.1676     9.8200     2.7340   102.3140
 2941.3200     9.8180     2.7490   102.0750
 2941.4724     9.8100     2.7390   100.5250
 2941.6248     9.8050     2.7030    97.4860
 2941.7772     9.8040     2.6910    94.0070
 2941.9296     9.8040     2.6840    90.6380
 2942.0820     9.8040     2.6850    90.1360
 2942.2344     9.8040     2.6680    91.1850
 2942.3868     9.8040     2.6660    87.1180
 2942.5392     9.8120     2.6890    84.5050
 2942.6916     9.8160     2.6300    85.9060
 2942.8440     9.8290     2.5880    86.4170
 2942.9964     9.6530     2.6260    85.8040
 2943.1488     9.6420     2.6250    85.4100
 2943.3012     9.6680     2.6150    86.2230
 2943.4536     9.6670     2.5910    89.0800
 2943.6060     9.6580     2.5630    85.4660
 2943.7584     9.6350     2.5380    81.4360
 2943.9108     9.6040     2.5380    78.1490
 2944.0632     9.5750     2.6070    74.6450
 2944.2156     9.5710     2.7010    73.0050
 2944.3680     9.5750     2.6760    77.2260
 2944.5204     9.5760     2.6870    79.6800
 2944.6728     9.5760     2.6930    82.1930
 2944.8252     9.5760     2.6920    84.8580
 2944.9776     9.5760     2.6970    86.8410
 2945.1300     9.5760     2.7050    87.1060
 2945.2824     9.5760     2.7040    84.4920
 2945.4348     9.5760     2.6820    78.2220
 2945.5872     9.5760     2.6690    68.3930
 2945.7396     9.5760     2.6510    62.5470
 2945.8920     9.5760     2.6520    65.1860
 2946.0444     9.5760     2.6320    73.3180
 2946.1968     9.5760     2.5940    78.8250
 2946.3492     9.5760     2.5940    85.0690
 2946.5016     9.5760     2.5970    85.4440
 2946.6540     9.5730     2.6110    72.3760
 2946.8064     9.5720     2.6160    54.3450
 2946.9588     9.5720     2.6390    41.6760
 2947.1112     9.5720     2.6780    36.0040
 2947.2636     9.5740     2.7050    43.0060
 2947.4160     9.5760     2.6470    52.4930
 2947.5684     9.5760     2.6080    60.0760
 2947.7208     9.5760     2.6320    63.8080
 2947.8732     9.5750     2.6160    64.3540
 2948.0256     9.5730     2.6340    68.7630
 2948.1780     9.5760     2.6540    71.7530
 2948.3304     9.6000     2.6670    77.5950
 2948.4828     9.6260     2.6950    85.3820
 2948.6352     9.6310     2.7320    93.1340
 2948.7876     9.6280     2.7010    99.5610
 2948.9400     9.6230     2.6640   100.5810
 2949.0924     9.6180     2.6200    95.8620
 2949.2448     9.6020     2.5570    92.9020
 2949.3972     9.5870     2.5230    94.1000
 2949.5496     9.9590     2.4720    96.1980
 2949.7020     9.7120     2.4760    98.4360
 2949.8544    10.1230     2.4730    99.8070
 2950.0068     9.8590     2.4020    96.7460
 2950.1592     9.6370     2.3820    94.9300
 2950.3116     9.6250     2.3670    94.5270
 2950.4640     9.6460     2.3700    89.5210
 2950.6164     9.6650     2.5080    90.1260
 2950.7688     9.6750     2.5920    95.8890
 2950.9212     9.6800     2.6500    97.4980
 2951.0736     9.6800     2.5860    97.2360
 2951.2260     9.6800     2.5100    90.1840
 2951.3784     9.6800     2.5380    80.3960
 2951.5308     9.6800     2.6230    72.1130
 2951.6832     9.6820     2.6740    68.9450
 2951.8356     9.6850     2.6660    66.8940
 2951.9880     9.6880     2.6710    61.4860
 2952.1404     9.6880     2.6740    58.9480
 2952.2928     9.6880     2.6600    65.7440
 2952.4452     9.6940     2.6720    77.9420
 2952.5976     9.7010     2.6930    90.1790
 2952.7500     9.7040     2.6860    91.9570
 2952.9024     9.7040     2.6770    89.2000
 2953.0548     9.7040     2.6900    87.6390
 2953.2072     9.7040     2.6840    88.1360
 2953.3596     9.7040     2.6760    87.2870
 2953.5120     9.7040     2.6780    82.8460
 2953.6644     9.7180     2.7120    74.5270
 2953.8168     9.7310     2.7110    63.8220
 2953.9692     9.7100     2.6980    57.1520
 2954.1216     9.6940     2.7090    55.5490
 2954.2740     9.6840     2.7210    56.1010
 2954.4264     9.6520     2.7290    55.5870
 2954.5788     9.6470     2.6790    54.7330
 2954.7312     9.6520     2.6360    62.6490
 2954.8836     9.6520     2.6640    64.2170
 2955.0360     9.6520     2.6850    61.0280
 2955.1884     9.6520     2.6890    61.6100
 2955.3408     9.6480     2.6800    60.5260
 2955.4932     9.6480     2.6780    57.1250
 2955.6456     9.6480     2.6710    56.7500
 2955.7980     9.6480     2.6560    56.9810
 2955.9504     9.6480     2.6320    64.1480
 2956.1028     9.6480     2.6330    76.1970
 2956.2552     9.6460     2.6700    80.8610
 2956.4076     9.6440     2.6930    83.4980
 2956.5600     9.6440     2.6820    87.7830
 2956.7124     9.6440     2.6630    92.2080
 2956.8648     9.6440     2.6670    94.3790
 2957.0172     9.6430     2.6760    92.8520
 2957.1696     9.6370     2.6670    89.9880
 2957.3220     9.6480     2.6730    84.7610
 2957.4744     9.6930     2.7020    81.4170
 2957.6268     9.7270     2.6840    81.2930
 2957.7792     9.7440     2.6530    82.0250
 2957.9316     9.7520     2.6260    80.4420
 2958.0840     9.7500     2.6130    79.9630
 2958.2364     9.7400     2.5850    79.9730
 2958.3888     9.7340     2.5350    77.3100
 2958.5412     9.7380     2.4730    72.6990
 2958.6936     9.7400     2.3740    68.7550
 2958.8460     9.7280     2.2990    67.3520
 2958.9984     9.7330     2.3350    72.2520
 2959.1508     9.7660     2.5690    72.4920
 2959.3032     9.7720     2.6900    71.0410
 2959.4556     9.7510     2.6920    68.1020
 2959.6080     9.7330     2.7140    68.7520
 2959.7604     9.7180     2.7300    66.4120
 2959.9128     9.6860     2.7060    65.9140
 2960.0652     9.6590     2.6840    67.6830
 2960.2176     9.6530     2.6720    68.7450
