~VERSION INFORMATION
VERS.                                                 2.0:   CWLS Log ASCII Standard-VERSION 2.0
WRAP.                                                  NO:   One line per depth step
~Well Information Block
STRT.M                                           836.5236:   Top Depth
STOP.M                                          2800.0452:   Bottom Depth
STEP.M                                             .15240:   Depth Increment
NULL.                                            -999.250:   Null Value
FLD .                                          EEMSKANAAL:   Field Name
WELL.                                       EEMSKANAAL- 2:   NAME
APD .M                                               5.62:   ABOVE PERM DATUM
CTRY.                                                  NE:   COUNTRY
EDF .m                                               5.62:   ELEV DRILL FLOOR
EPD .                                                   0:   ELEV PERM DATUM
EGL .m                                              -1.06:   GROUND LEVEL
LMF .                                                  DF:   LOGS MEAS FROM
COMP.                                                 NAM:   OPERATOR
PDAT.                                                 NAP:   PERM DATUM
SPUD.                                          1971/03/17:   SPUD DATE
STAT.                                           Unknown m:   STATE
UWBI.                                      11000074112601:   UWBI
WELL.                                       EEMSKANAAL- 2:   HOLE NAME
~PARAMETER INFORMATION (log)
LNAM.                              RUN 04 RAW CH OCT 2002:   NAME
LTYP.                                                 04R:   LOG TYPE
LVSN.                                                   1:   LOG VERSION
BHT .DEGC                                             101:   BH TEMP
BS  .IN                                             9.625:   BIT SIZE
BHS .                                                CASE:   BOREHOLE STATUS
BLI .M                                               2800:   BOTTOM DEPTH LOGGED
BHIS.                                                  RC:   BRIEF HISTORY
CS  .IN                                             7.625:   CASING SIZE
CSW .LB/F                                            52.3:   CASING WEIGHT
R1  .                                 Log correlated with:   COMMENT  1
R2  .       Compensated formation density log 1-April-197:   COMMENT  2
R4  .          Weight expendable tubing 18.6 lbs per foot:   COMMENT  4
R5  .              Weight 7 5/8" casing 33.7 lbs per foot:   COMMENT  5
R7  .                                      Set CSID 5.98":   COMMENT  7
R8  .                   Set CWEI 33.7 + 18.6  =  52.3 LBS:   COMMENT  8
R9  .                                    Set CSIZ 7.625 ":   COMMENT  9
DMF .                                                 ORT:   DRILL MEAS FROM
EDF .M                                               5.62:   ELEV DRILL FLOOR
ELZ .                                              5.62 M:   ELEVATION LOG ZERO
ENGI.                                         M. Riedeman:   ENGINEER
FHIS.                                            RAW-DLIS:   FULL HISTORY
HIDE.                                               RST-C:   HEADER ID
LCNM.                                        Schlumberger:   LOGGING CONTRACTOR
LMF .                                                 ORT:   LOGS MEAS FROM
MATR.                                                LIME:   MATRIX
MRT .DEGC                                             101:   MAX REC TEMP
DFT .                                                 gas:   MUD TYPE
CN  .                                                 NAM:   OPERATOR
RUN .                                                   1:   RUN
DATE.                                          2002/10/25:   RUN DATE
RW  .OHMM                                               1:   RW
STEM.DEGC                                              18:   SURFACE TEMPERATURE
TLAB.                                                1100:   TIME LOGGER ON BOT
TLI .M                                                840:   TOP DEPTH LOGGED
WITN.                           P van der Zee & S. Yntema:   WITNESS
~Curve Information Block
#MNEM.UNIT                                        API CODE    No Description
#=========                                        ========    == ===========
DEPT.M                                       00 001 00 00:     1  DEPTH
AIRB.                                                    :     2  RST Air Borehole Diagnostic
CIRF.                                                    :     3  RST Capture to Inelastic Ratio Far
CIRN.                                                    :     4  RST Capture to Inelastic Ratio Near
FBAC.CPS                                                 :     5  Far Background Count Rate
GR.API                                                   :     6  Gamma Ray
IRAT.                                                    :     7  RST Inelastic Ratio
NBAC.CPS                                                 :     8  Near Background Count Rate
SBNA.CU                                                  :     9  RST Sigma Borehole Near Apparent
SFNA.CU                                                  :    10  RST Sigma Formation Near Apparent
SIGM.CU                                                  :    11  Formation Sigma (Neutron Capture Cross S
TPHI.FRAC                                                :    12  Thermal Decay Porosity
~ASCII
# ...
 2398.3188     1.0000      .1398      .0863  3405.8579     8.2308     1.1335  1918.4274   129.3184    48.1145    64.7387      .0058
 2398.4712     1.0000      .1426      .0854  3372.5906     7.7300     1.1355  1915.2189   132.4621    50.9433    62.8625      .0135
 2398.6236     1.0000      .1460      .0856  3361.3608     7.9797     1.1414  1917.8927   117.6766    49.9944    63.8415      .0311
 2398.7760     1.0000      .1442      .0909  3355.4783     8.2384     1.1345  1883.2617   124.7500    47.2318    63.4588      .0404
 2398.9284     1.0000      .1480      .0847  3335.7373     7.4872     1.1352  1887.5399   124.4123    51.4352    64.1793      .0024
 2399.0808     1.0000      .1533      .0861  3341.6196     6.9870     1.1353  1885.0266   137.2749    50.4662    62.7926     -.0088
 2399.2332     1.0000      .1445      .0882  3344.6946     8.1556     1.1377  1901.0695   121.2540    51.5967    63.4028      .0019
 2399.3856     1.0000      .1498      .0808  3316.7537     8.4895     1.1356  1892.5133   122.0028    50.2634    63.0110      .0181
 2399.5380     1.0000      .1464      .0903  3325.4346     8.7004     1.1335  1891.4491   130.3377    52.8639    64.0783      .0391
 2399.6904     1.0000      .1464      .0950  3354.9336    10.1204     1.1339  1865.7805   121.5858    44.7262    64.2687      .0415
 2399.8428     1.0000      .1497      .0869  3361.0828    10.2503     1.1373  1858.2937   123.6525    53.2692    64.9770      .0290
 2399.9952     1.0000      .1521      .0882  3366.9421     9.0817     1.1356  1867.1172   133.7171    47.6522    65.3209     -.0004
 2400.1476     1.0000      .1471      .0749  3384.7229     8.6959     1.1289  1878.3473   131.3545    49.3623    65.3419     -.0167
 2400.3000     1.0000      .1437      .0832  3416.8086     8.3125     1.1243  1881.6896   126.2446    48.1553    65.0209      .0020
 2400.4524     1.0000      .1481      .0863  3435.1243     8.2280     1.1128  1903.0800   125.7334    45.0041    64.6692      .0159
 2400.6048     1.0000      .1444      .0828  3467.4773     8.8488     1.1032  1920.2993   126.0774    49.9535    65.7818      .0317
 2400.7572     1.0000      .1370      .0825  3444.4736     8.5149     1.0955  1912.8126   127.2958    53.4455    66.2288      .0303
 2400.9096     1.0000      .1462      .0828  3439.2600     8.8384     1.0888  1906.6628   131.8045    51.8378    66.5207      .0369
 2401.0620     1.0000      .1440      .0897  3467.0674     9.1197     1.0854  1901.7214   126.5430    44.8210    67.0627      .0473
 2401.2144     1.0000      .1396      .0842  3466.4631     8.8147     1.0946  1904.5238   129.3628    51.4167    67.3935      .0590
 2401.3668     1.0000      .1466      .0914  3425.5757     9.0651     1.0981  1910.5398   127.5119    49.4368    68.1627      .0555
 2401.5192     1.0000      .1468      .0883  3402.0461     9.6758     1.1058  1901.9836   132.2347    50.1410    67.1303      .0518
 2401.6716     1.0000      .1398      .0866  3431.4812     9.7183     1.1074  1901.1813   126.4543    50.0239    67.2187      .0510
 2401.8240     1.0000      .1394      .0886  3426.1338     9.4160     1.1163  1879.2562   128.6966    46.8129    65.6942      .0383
 2401.9764     1.0000      .1438      .0854  3404.7205     9.7209     1.1228  1892.0906   130.2790    49.0063    64.9145      .0088
 2402.1288     1.0000      .1449      .0886  3375.7102     8.9697     1.1255  1883.2671   135.6187    47.2477    63.5949     -.0104
 2402.2812     1.0000      .1462      .0918  3359.1326     8.8888     1.1230  1855.8872   130.7428    45.6890    63.5725     -.0208
 2402.4336     1.0000      .1556      .0880  3375.6868     8.8025     1.1237  1864.4432   133.8398    50.7056    64.3868      .0062
 2402.5860     1.0000      .1561      .0945  3370.3396     9.2069     1.1091  1851.0742   122.9291    48.4051    64.3470      .0127
 2402.7384     1.0000      .1518      .0881  3351.4976     8.6226     1.1065  1883.2887   126.8918    48.3608    64.4873      .0128
 2402.8908     1.0000      .1463      .0842  3356.4912     8.5391     1.1036  1888.1016   133.2273    51.2015    64.3116      .0156
 2403.0432     1.0000      .1417      .0814  3368.7905     8.2598     1.1180  1884.0909   121.4384    52.5241    65.9839      .0099
 2403.1956     1.0000      .1426      .0895  3359.6995     8.8666     1.1315  1874.9999   138.1595    49.8585    66.7885      .0106
 2403.3480     1.0000      .1406      .0863  3362.5071     8.9326     1.1345  1868.3156   136.6432    49.7774    66.4541     -.0199
 2403.5004     1.0000      .1486      .0832  3359.2986     9.5169     1.1301  1871.5242   135.7090    51.8619    64.8711     -.0227
 2403.6528     1.0000      .1436      .0883  3375.8987    10.1012     1.1284  1880.0802   130.8936    47.1186    64.9041     -.0036
 2403.8052     1.0000      .1418      .0858  3409.5884    10.2681     1.1342  1879.2781   128.9164    51.6449    65.1025     -.0036
 2403.9576     1.0000      .1425      .0879  3412.7971     9.7683     1.1415  1878.7433   137.3886    52.2779    65.1082      .0020
 2404.1100     1.0000      .1482      .0874  3403.8623     9.1829     1.1499  1888.3690   127.2096    49.6875    64.3566     -.0132
 2404.2624     1.0000      .1412      .0831  3396.3757     8.8491     1.1460  1902.5402   129.9571    54.5854    63.2191     -.0086
 2404.4148     1.0000      .1503      .0881  3396.3760     8.3482     1.1418  1867.9144   128.3398    51.4573    62.9025     -.0258
 2404.5672     1.0000      .1426      .0868  3401.0779     8.3798     1.1316  1870.5883   134.2842    51.4950    63.8121     -.0282
 2404.7196     1.0000      .1472      .0850  3389.5579     8.2118     1.1321  1871.2566   136.1562    53.5391    64.7290     -.0278
 2404.8720     1.0000      .1436      .0848  3385.5635     8.9631     1.1342  1883.5562   133.2368    51.2606    66.1246     -.0044
 2405.0244     1.0000      .1408      .0883  3384.8953     9.5582     1.1383  1884.6257   131.7203    51.8816    65.4622     -.0054
 2405.1768     1.0000      .1366      .0843  3382.2217     9.7251     1.1392  1905.4813   136.9388    50.0121    65.4179      .0000
 2405.3292     1.0000      .1454      .0904  3388.3486     9.7462     1.1368  1887.8341   131.2344    50.5368    65.5132      .0033
 2405.4816     1.0000      .1500      .0852  3371.2366     9.9317     1.1326  1904.0106   129.2283    47.0695    66.2711      .0109
 2405.6340     1.0000      .1453      .0895  3373.6599     9.1804     1.1284  1893.8503   130.6925    48.2691    65.6086     -.0075
 2405.7864     1.0000      .1456      .0830  3393.4460     8.6688     1.1328  1878.3422   135.9429    48.4423    64.2183     -.0276
 2405.9388     1.0000      .1492      .0870  3405.4958     8.7523     1.1321  1865.5079   129.9209    49.5434    63.4235     -.0307
 2406.0912     1.0000      .1490      .0861  3403.4822     9.5400     1.1319  1881.4171   130.3408    47.0160    64.9345      .0162
 2406.2436     1.0000      .1351      .0849  3427.0115     9.0548     1.1319  1865.9089   125.6448    50.9446    65.4075      .0337
 2406.3960     1.0000      .1367      .0949  3448.1570     9.0889     1.1347  1852.5402   130.4497    45.2952    65.1730      .0373
 2406.5484     1.0000      .1418      .0824  3462.3118     9.8426     1.1372  1850.9359   133.1085    47.9735    63.6119      .0091
 2406.7008     1.0000      .1406      .0909  3434.7478     9.6740     1.1315  1851.3422   130.3058    53.1035    64.0881      .0073
 2406.8532     1.0000      .1436      .0921  3409.0791     9.5931     1.1224  1829.8182   134.3559    46.4142    65.6639      .0298
 2407.0056     1.0000      .1431      .0883  3388.7976    10.5637     1.1239  1819.6575   128.1297    47.2817    66.0273      .0223
 2407.1580     1.0000      .1444      .0947  3406.5784    11.2097     1.1194  1807.2242   135.3094    47.7088    65.9619      .0290
 2407.3104     1.0000      .1466      .0858  3369.8044    10.3206     1.1154  1824.5767   128.4663    50.7614    64.7340      .0225
 2407.4628     1.0000      .1464      .0888  3375.5618     9.9855     1.0972  1843.2931   126.5200    52.2814    64.9856      .0269
