~VERSION INFORMATION
VERS.                                                 2.0:   CWLS Log ASCII Standard-VERSION 2.0
WRAP.                                                  NO:   One line per depth step
~Well Information Block
STRT.M                                           404.0124:   Top Depth
STOP.M                                          1403.9088:   Bottom Depth
STEP.M                                             .15240:   Depth Increment
NULL.                                            -999.250:   Null Value
FLD .                                          EEMSKANAAL:   Field Name
WELL.                                       EEMSKANAAL- 1:   NAME
EDF .m                                               5.58:   ELEV DRILL FLOOR
EPD .                                                   0:   ELEV PERM DATUM
EGL .m                                                -.9:   GROUND LEVEL
LMF .                                                  DF:   LOGS MEAS FROM
COMP.                                                 NAM:   OPERATOR
PDAT.                                                 NAP:   PERM DATUM
SPUD.                                          1970/11/08:   SPUD DATE
UWBI.                                      11000074112201:   UWBI
WELL.                                       EEMSKANAAL- 1:   HOLE NAME
~PARAMETER INFORMATION (log)
LNAM.                                RUN 01 RAW OH 14.75":   NAME
LTYP.                                                 01R:   LOG TYPE
LVSN.                                                   1:   LOG VERSION
BS  .3/4"                                              14:   BIT SIZE
BLI .M                                             1406.2:   BOTTOM DEPTH LOGGED
BHIS.                                            RCCCCCCC:   BRIEF HISTORY
FHIS.              RAW-TIGA/COPY/COPY/COPY/COPY/COPY/COPY:   FULL HISTORY
MRT .C                                                 50:   MAX REC TEMP
DFT .                                         CHALK WATER:   MUD TYPE
RMS .                                                1.44:   RM
MST .C                                                 11:   RM TEMP
RMCS.                                                1.93:   RMC
MCST.C                                                 19:   RMC TEMP
RMFS.                                               0.917:   RMF
MFST.C                                                 19:   RMF TEMP
TCS .                                                 N/A:   TIME SINCE CIRCLN
TLI .M                                              403.6:   TOP DEPTH LOGGED
~Curve Information Block
#MNEM.UNIT                                        API CODE    No Description
#=========                                        ========    == ===========
DEPT.M                                       00 001 00 00:     1  DEPTH
DILD.OHMM                                                :     2  DUAL INDUCTION LOG DEEP RESISTIVITY
SN.OHMM                                                  :     3  SHORT NORMAL
~ASCII
  404.0124      .7920     1.0420
  404.1648      .9800     1.0570
  404.3172     1.0160     1.0420
  404.4696      .8980     1.0450
  404.6220      .7820     1.0450
  404.7744      .7190     1.0430
  404.9268      .7240     1.0420
  405.0792      .7470     1.0410
  405.2316      .7780     1.0410
  405.3840      .7900     1.0410
  405.5364      .7920     1.0410
  405.6888      .7850     1.0410
  405.8412      .7510     1.0410
  405.9936      .7290     1.0440
  406.1460      .7350     1.0440
  406.2984      .7520     1.0460
  406.4508      .8020     1.0510
  406.6032      .8380     1.0590
  406.7556      .8460     1.0690
  406.9080      .8540     1.0770
  407.0604      .8540     1.0800
  407.2128      .8470     1.0740
  407.3652      .8350     1.0570
  407.5176      .8140     1.0450
  407.6700      .7900     1.0430
  407.8224      .7780     1.0450
  407.9748      .7930     1.0530
  408.1272      .8380     1.0670
  408.2796      .8960     1.0790
  408.4320      .9260     1.0860
  408.5844      .9190     1.0930
  408.7368      .9100     1.0960
  408.8892      .9030     1.0950
  409.0416      .8910     1.0930
  409.1940      .8710     1.0930
  409.3464      .8620     1.0950
  409.4988      .8620     1.0950
  409.6512      .8620     1.0950
  409.8036      .8620     1.0960
  409.9560      .8620     1.0960
  410.1084      .8620     1.0960
  410.2608      .8670     1.0960
  410.4132      .8730     1.0980
  410.5656      .8780     1.1030
  410.7180      .8790     1.1140
  410.8704      .8850     1.1250
  411.0228      .8860     1.1360
  411.1752      .8860     1.1450
  411.3276      .8860     1.1510
  411.4800      .8860     1.1530
  411.6324      .8860     1.1550
  411.7848      .8910     1.1580
  411.9372      .8950     1.1610
  412.0896      .9020     1.1630
  412.2420      .9020     1.1630
  412.3944      .9020     1.1630
  412.5468      .9070     1.1630
  412.6992      .9100     1.1630
  412.8516      .9100     1.1620
  413.0040      .9100     1.1580
  413.1564      .9110     1.1610
  413.3088      .9210     1.1630
  413.4612      .9490     1.1720
  413.6136      .9900     1.1860
  413.7660     1.0370     1.2030
  413.9184     1.0520     1.2090
  414.0708     1.0580     1.1990
  414.2232     1.0600     1.1660
  414.3756     1.0600     1.1320
  414.5280     1.0600     1.1120
  414.6804     1.0600     1.0980
  414.8328     1.0600     1.0900
  414.9852     1.0600     1.0840
  415.1376     1.0600     1.0800
  415.2900     1.0600     1.0750
  415.4424     1.0600     1.0730
  415.5948     1.0600     1.0710
  415.7472     1.0600     1.0710
  415.8996     1.0600     1.0710
  416.0520     1.0600     1.0690
  416.2044     1.0600     1.0690
  416.3568     1.0600     1.0710
  416.5092     1.0600     1.0680
  416.6616     1.0600     1.0680
  416.8140     1.0590     1.0690
  416.9664     1.0520     1.0680
  417.1188     1.0520     1.0620
  417.2712     1.0520     1.0460
  417.4236     1.0520     1.0290
  417.5760     1.0520     1.0060
  417.7284     1.0500      .9840
  417.8808     1.0430      .9730
  418.0332     1.0350      .9700
  418.1856     1.0250      .9700
  418.3380     1.0140      .9750
  418.4904      .9990      .9850
  418.6428      .9810      .9940
  418.7952      .9680     1.0040
  418.9476      .9540     1.0110
  419.1000      .9340     1.0120
  419.2524      .9280     1.0080
  419.4048      .9260     1.0000
  419.5572      .9350      .9920
  419.7096      .9430      .9840
  419.8620      .9560      .9790
  420.0144      .9740      .9810
  420.1668      .9900      .9850
  420.3192     1.0070      .9960
  420.4716     1.0290     1.0160
  420.6240     1.0550     1.0410
  420.7764     1.0720     1.0670
  420.9288     1.0890     1.0950
  421.0812     1.1170     1.1270
  421.2336     1.1420     1.1580
  421.3860     1.1790     1.1860
  421.5384     1.2290     1.2100
  421.6908     1.2620     1.2370
  421.8432     1.2840     1.2620
  421.9956     1.2980     1.2830
  422.1480     1.2940     1.2950
  422.3004     1.2900     1.2970
  422.4528     1.2860     1.2950
  422.6052     1.2740     1.2920
  422.7576     1.2600     1.2900
  422.9100     1.2410     1.2890
  423.0624     1.2060     1.2870
  423.2148     1.1680     1.2870
  423.3672     1.1280     1.2880
  423.5196     1.1020     1.2890
  423.6720     1.0890     1.2900
  423.8244     1.0840     1.2920
  423.9768     1.0840     1.2940
  424.1292     1.0890     1.2950
  424.2816     1.0920     1.2950
  424.4340     1.0920     1.2950
  424.5864     1.0920     1.2940
  424.7388     1.0920     1.2860
  424.8912     1.0920     1.2720
  425.0436     1.0920     1.2590
  425.1960     1.0920     1.2450
  425.3484     1.0870     1.2300
  425.5008     1.0840     1.2180
  425.6532     1.0690     1.2100
  425.8056     1.0450     1.2080
  425.9580     1.0240     1.2080
  426.1104     1.0030     1.2050
  426.2628      .9840     1.1790
  426.4152      .9720     1.1310
  426.5676      .9590     1.0810
  426.7200      .9500     1.0290
  426.8724      .9530      .9930
  427.0248      .9630      .9870
  427.1772      .9830      .9930
  427.3296      .9990     1.0100
  427.4820     1.0160     1.0110
  427.6344     1.0330     1.0010
  427.7868     1.0490      .9900
  427.9392     1.0620      .9870
  428.0916     1.0730      .9890
  428.2440     1.0810      .9980
  428.3964     1.0900     1.0180
  428.5488     1.0970     1.0410
  428.7012     1.1120     1.0650
  428.8536     1.1430     1.0860
  429.0060     1.1600     1.0950
  429.1584     1.1640     1.0950
  429.3108     1.1520     1.0940
  429.4632     1.1430     1.0880
  429.6156     1.1280     1.0700
  429.7680     1.1020     1.0390
  429.9204     1.0820     1.0070
  430.0728     1.0760      .9990
  430.2252     1.0760     1.0210
  430.3776     1.0700     1.0460
  430.5300     1.0600     1.0470
  430.6824     1.0600     1.0320
  430.8348     1.0520     1.0240
  430.9872     1.0520     1.0300
  431.1396     1.0540     1.0430
  431.2920     1.0600     1.0530
  431.4444     1.0630     1.0590
  431.5968     1.0740     1.0570
  431.7492     1.0830     1.0550
  431.9016     1.0840     1.0570
  432.0540     1.0840     1.0640
  432.2064     1.0840     1.0720
  432.3588     1.0840     1.0810
  432.5112     1.0870     1.0910
  432.6636     1.0920     1.1010
  432.8160     1.1000     1.1030
  432.9684     1.1000     1.1010
  433.1208     1.1060     1.1010
  433.2732     1.1080     1.1010
  433.4256     1.1100     1.1010
  433.5780     1.1160     1.1030
  433.7304     1.1090     1.1060
  433.8828     1.0890     1.1060
  434.0352     1.0600     1.0970
  434.1876     1.0170     1.0760
  434.3400      .9700     1.0510
  434.4924      .9340     1.0320
  434.6448      .9180     1.0230
  434.7972      .9180     1.0190
  434.9496      .9230     1.0180
  435.1020      .9520     1.0220
  435.2544      .9830     1.0390
  435.4068     1.0150     1.0650
  435.5592     1.0430     1.0880
  435.7116     1.0650     1.1080
  435.8640     1.0810     1.1170
  436.0164     1.0840     1.1130
  436.1688     1.0840     1.1110
  436.3212     1.0840     1.1110
  436.4736     1.0840     1.1110
  436.6260     1.0760     1.1050
  436.7784     1.0760     1.0950
  436.9308     1.0710     1.0840
  437.0832     1.0630     1.0730
  437.2356     1.0290     1.0640
  437.3880      .9910     1.0540
  437.5404      .9580     1.0440
  437.6928      .9270     1.0290
  437.8452      .9020     1.0100
  437.9976      .8940      .9930
  438.1500      .8910      .9880
  438.3024      .8860      .9870
  438.4548      .8920      .9880
  438.6072      .9020      .9910
  438.7596      .9190      .9970
  438.9120      .9440     1.0050
  439.0644      .9630     1.0180
  439.2168      .9760     1.0320
  439.3692      .9940     1.0380
  439.5216      .9980     1.0400
  439.6740      .9980     1.0320
  439.8264      .9980     1.0200
  439.9788      .9930     1.0070
  440.1312      .9880      .9990
  440.2836      .9700      .9980
  440.4360      .9400     1.0050
  440.5884      .9040     1.0220
  440.7408      .8940     1.0470
  440.8932      .8940     1.0680
