~VERSION INFORMATION
VERS.                                                 2.0:   CWLS Log ASCII Standard-VERSION 2.0
WRAP.                                                  NO:   One line per depth step
~Well Information Block
STRT.M                                          1407.1092:   Top Depth
STOP.M                                          3062.9352:   Bottom Depth
STEP.M                                             .15240:   Depth Increment
NULL.                                            -999.250:   Null Value
FLD .                                          EEMSKANAAL:   Field Name
WELL.                                       EEMSKANAAL- 1:   NAME
EDF .m                                               5.58:   ELEV DRILL FLOOR
EPD .                                                   0:   ELEV PERM DATUM
EGL .m                                                -.9:   GROUND LEVEL
LMF .                                                  DF:   LOGS MEAS FROM
COMP.                                                 NAM:   OPERATOR
PDAT.                                                 NAP:   PERM DATUM
SPUD.                                          1970/11/08:   SPUD DATE
UWBI.                                      11000074112201:   UWBI
WELL.                                       EEMSKANAAL- 1:   HOLE NAME
~PARAMETER INFORMATION (log)
LNAM.                                RUN 03 RAW OH 9.625":   NAME
LTYP.                                                 03R:   LOG TYPE
LVSN.                                                   1:   LOG VERSION
BS  .5/8"                                               9:   BIT SIZE
BLI .M                                               3064:   BOTTOM DEPTH LOGGED
BHIS.                                            RCCCCCCC:   BRIEF HISTORY
FHIS.              RAW-TIGA/COPY/COPY/COPY/COPY/COPY/COPY:   FULL HISTORY
MRT .C                                                 98:   MAX REC TEMP
DFT .                                          SALT SPERS:   MUD TYPE
RMS .                                                    :   RM
MST .                                                    :   RM TEMP
RMCS.                                                    :   RMC
MCST.                                                    :   RMC TEMP
RMFS.                                                    :   RMF
MFST.                                                    :   RMF TEMP
TCS .                                               4 HRS:   TIME SINCE CIRCLN
TLI .M                                               1407:   TOP DEPTH LOGGED
~Curve Information Block
#MNEM.UNIT                                        API CODE    No Description
#=========                                        ========    == ===========
DEPT.M                                       00 001 00 00:     1  DEPTH
CALF.IN                                                  :     2  CALIPER FROM FORMATION DENSITY LOG
FDC.g/c3                                                 :     3  Formation Density Log (Compensated Open
GR.GAPI                                                  :     4  Gamma Ray
~ASCII
# ...
 2599.7916    11.5300     2.1070    10.7200
 2599.9440    11.3300     2.1280    12.2230
 2600.0964    11.2630     2.1170    12.8360
 2600.2488    11.2740     2.1030    12.4950
 2600.4012    11.3120     2.1030    11.2790
 2600.5536    11.3550     2.1170    10.8680
 2600.7060    11.2990     2.1320     9.5800
 2600.8584    11.3120     2.1370     8.1090
 2601.0108    11.2830     2.1380     7.7160
 2601.1632    11.2000     2.1400     8.1260
 2601.3156    11.2440     2.1410     7.2380
 2601.4680    11.2100     2.1480     6.6620
 2601.6204    11.1580     2.1520     6.5410
 2601.7728    11.1810     2.1570     6.7250
 2601.9252    11.2270     2.1490     6.5630
 2602.0776    11.1690     2.1400     7.6950
 2602.2300    11.1910     2.1380     9.1470
 2602.3824    11.2330     2.1420     9.8340
 2602.5348    11.2360     2.1260     9.9440
 2602.6872    11.2480     2.1100     9.7710
 2602.8396    11.3480     2.0950     9.4800
 2602.9920    11.4550     2.0980     9.4800
 2603.1444    11.5830     2.0990     9.0880
 2603.2968    11.5680     2.0890     8.6480
 2603.4492    11.5930     2.0900     8.6320
 2603.6016    11.9760     2.0860     8.9440
 2603.7540    11.7970     2.0860     9.3000
 2603.9064    11.4030     2.0910     9.6040
 2604.0588    11.5710     2.0980     9.5280
 2604.2112    11.6230     2.1000     8.7590
 2604.3636    11.6620     2.1040     7.6450
 2604.5160    11.5720     2.1110     7.5440
 2604.6684    11.3640     2.1170     8.4760
 2604.8208    11.3180     2.1230     8.0250
 2604.9732    11.3020     2.1340     8.3430
 2605.1256    11.2950     2.1410     8.1730
 2605.2780    11.2920     2.1370     8.0100
 2605.4304    11.2980     2.1410     8.2360
 2605.5828    11.3350     2.1470     8.3400
 2605.7352    11.3920     2.1440     8.3820
 2605.8876    11.2970     2.1410     8.5130
 2606.0400    11.3040     2.1410     8.4720
 2606.1924    11.3200     2.1250     8.1920
 2606.3448    11.3350     2.1190     8.1430
 2606.4972    11.3340     2.1280     8.5020
 2606.6496    11.3740     2.1220     8.1670
 2606.8020    11.3520     2.1210     9.0940
 2606.9544    11.3880     2.1230    10.4530
 2607.1068    11.3930     2.1150    10.7890
 2607.2592    11.2660     2.1170    10.8300
 2607.4116    11.3280     2.1190    11.1480
 2607.5640    11.3390     2.1200    10.8050
 2607.7164    11.2770     2.1270     9.9170
 2607.8688    11.2860     2.1300     9.0570
 2608.0212    11.3000     2.1450     9.4100
 2608.1736    11.3130     2.1580     9.9300
 2608.3260    11.3240     2.1570     8.7040
 2608.4784    11.3270     2.1400     8.5070
 2608.6308    11.3630     2.1300     8.9450
 2608.7832    11.4090     2.1200     9.5370
 2608.9356    11.4040     2.1160     9.2380
 2609.0880    11.3450     2.1470     9.1800
 2609.2404    11.2610     2.1590     9.3910
 2609.3928    11.2370     2.1640     9.5950
 2609.5452    11.2360     2.1760     8.9890
 2609.6976    11.2360     2.1820     7.7130
 2609.8500    11.2370     2.1690     7.0570
 2610.0024    11.2600     2.1470     6.9660
 2610.1548    11.3160     2.1410     7.4780
 2610.3072    11.3640     2.1180     8.6090
 2610.4596    11.3530     2.1250     9.3230
 2610.6120    11.3180     2.1300     9.4400
 2610.7644    11.2680     2.1280     9.8360
 2610.9168    11.2620     2.1380    10.6730
 2611.0692    11.2680     2.1490    11.5540
 2611.2216    11.2700     2.1550    12.3460
 2611.3740    11.2760     2.1650    12.8860
 2611.5264    11.2770     2.1750    13.2360
 2611.6788    11.2790     2.1630    12.4700
 2611.8312    11.2810     2.1520    11.3360
 2611.9836    11.2780     2.1590     9.7620
 2612.1360    11.2770     2.1570     8.0810
 2612.2884    11.2770     2.1440     6.7970
 2612.4408    11.2940     2.1450     7.4630
 2612.5932    11.3400     2.1430     8.3590
 2612.7456    11.3530     2.1510     8.5720
 2612.8980    11.3310     2.1490     8.6390
 2613.0504    11.3000     2.1590     8.9410
 2613.2028    11.2810     2.1600     9.3170
 2613.3552    11.2780     2.1480     9.3800
 2613.5076    11.2890     2.1460     9.4610
 2613.6600    11.2890     2.1350     9.7080
 2613.8124    11.2850     2.1300     9.9000
 2613.9648    11.2820     2.1420     9.9000
 2614.1172    11.2300     2.1550     9.9880
 2614.2696    11.1750     2.1520    10.2610
 2614.4220    11.1700     2.1590    10.5400
 2614.5744    11.1730     2.1840    10.8360
 2614.7268    11.1740     2.2010    11.7280
 2614.8792    11.1780     2.2030    13.5730
 2615.0316    11.1810     2.2160    15.1880
 2615.1840    11.1870     2.2180    14.9170
 2615.3364    11.2170     2.1810    13.8830
 2615.4888    11.2620     2.1620    12.9170
 2615.6412    11.2790     2.1540    12.0020
 2615.7936    11.2920     2.1370    11.2890
 2615.9460    11.3350     2.1340    11.0090
 2616.0984    11.3370     2.1410    11.2460
 2616.2508    11.4090     2.1280    11.8880
 2616.4032    11.4820     2.1460    11.5190
 2616.5556    11.5370     2.1600    11.0650
 2616.7080    11.2860     2.1650    11.4220
 2616.8604    11.2600     2.1660    11.8150
 2617.0128    11.2670     2.1740    11.9680
 2617.1652    11.2820     2.1860    10.9170
 2617.3176    11.2890     2.1880    10.3460
 2617.4700    11.2860     2.1800    10.7320
 2617.6224    11.2820     2.1780    11.1230
 2617.7748    11.2640     2.1860    11.3060
 2617.9272    11.2370     2.1650    11.5640
 2618.0796    11.2230     2.1470    11.8910
 2618.2320    11.2260     2.1300    12.1660
 2618.3844    11.2290     2.1230    10.9290
 2618.5368    11.3880     2.1240    11.2360
 2618.6892    11.4270     2.1360    12.1470
 2618.8416    11.2870     2.1510    12.7520
 2618.9940    11.2780     2.1630    12.1290
 2619.1464    11.3060     2.1610    11.0600
 2619.2988    11.3300     2.1410    10.4440
 2619.4512    11.3350     2.1170    10.7880
 2619.6036    11.3260     2.1070    11.7770
 2619.7560    11.3540     2.1220    12.4600
 2619.9084    11.3720     2.1770    12.9120
 2620.0608    11.2550     2.1910    11.9250
 2620.2132    11.2740     2.1770    11.5440
 2620.3656    11.3380     2.1950    12.0590
 2620.5180    11.2980     2.1730    12.2710
 2620.6704    11.3000     2.1620    11.6880
 2620.8228    11.3700     2.1420    10.2950
 2620.9752    11.5460     2.1370     9.5960
 2621.1276    11.6420     2.1530     9.3900
 2621.2800    11.5600     2.1560     9.4380
 2621.4324    11.4830     2.1670     9.4310
 2621.5848    11.4280     2.1580     9.2880
 2621.7372    11.3520     2.1540     8.6640
 2621.8896    11.3960     2.1380     8.0560
 2622.0420    11.4140     2.1390     7.8210
 2622.1944    11.6820     2.1420     8.4250
 2622.3468    11.5440     2.1310     8.9370
 2622.4992    11.2950     2.1370     7.3440
 2622.6516    11.3030     2.1350     6.2180
 2622.8040    11.3170     2.1290     5.8120
 2622.9564    11.4620     2.1280     5.5420
 2623.1088    11.6360     2.1310     5.4900
 2623.2612    11.4760     2.1350     5.7930
 2623.4136    11.5340     2.1250     6.3580
 2623.5660    11.6660     2.1180     7.1470
 2623.7184    11.6190     2.1120     8.2630
 2623.8708    11.6380     2.1070     8.7930
 2624.0232    11.5270     2.1020     8.7710
 2624.1756    11.4800     2.0990     8.4740
 2624.3280    11.4650     2.1110     8.1460
 2624.4804    11.4350     2.1140     7.8380
 2624.6328    11.3970     2.1170     7.3670
 2624.7852    11.4230     2.1260     6.9590
 2624.9376    11.3720     2.1220     6.6470
 2625.0900    11.3230     2.1220     6.9970
 2625.2424    11.3560     2.1360     6.9340
 2625.3948    11.4020     2.1330     7.5000
 2625.5472    11.4570     2.1290     8.3180
 2625.6996    11.5910     2.1400     8.1600
 2625.8520    11.6130     2.1300     8.7340
 2626.0044    11.6890     2.1120     9.5570
 2626.1568    11.6300     2.1180    10.5670
 2626.3092    11.4900     2.1050    11.3320
 2626.4616    11.3420     2.1180    11.6720
 2626.6140    11.3190     2.1220    11.1810
 2626.7664    11.3190     2.1350    10.2870
 2626.9188    11.3050     2.1400     9.6340
 2627.0712    11.2980     2.1390     9.2300
 2627.2236    11.3450     2.1230     9.0740
 2627.3760    11.4760     2.1100     9.1200
