~VERSION INFORMATION
VERS.                                                 2.0:   CWLS Log ASCII Standard-VERSION 2.0
WRAP.                                                  NO:   One line per depth step
~Well Information Block
STRT.M                                           404.0124:   Top Depth
STOP.M                                          1403.9088:   Bottom Depth
STEP.M                                             .15240:   Depth Increment
NULL.                                            -999.250:   Null Value
FLD .                                          EEMSKANAAL:   Field Name
WELL.                                       EEMSKANAAL- 1:   NAME
EDF .m                                               5.58:   ELEV DRILL FLOOR
EPD .                                                   0:   ELEV PERM DATUM
EGL .m                                                -.9:   GROUND LEVEL
LMF .                                                  DF:   LOGS MEAS FROM
COMP.                                                 NAM:   OPERATOR
PDAT.                                                 NAP:   PERM DATUM
SPUD.                                          1970/11/08:   SPUD DATE
UWBI.                                      11000074112201:   UWBI
WELL.                                       EEMSKANAAL- 1:   HOLE NAME
~PARAMETER INFORMATION (log)
LNAM.                                RUN 01 RAW OH 14.75":   NAME
LTYP.                                                 01R:   LOG TYPE
LVSN.                                                   1:   LOG VERSION
BS  .3/4"                                              14:   BIT SIZE
BLI .M                                             1406.2:   BOTTOM DEPTH LOGGED
BHIS.                                            RCCCCCCC:   BRIEF HISTORY
FHIS.              RAW-TIGA/COPY/COPY/COPY/COPY/COPY/COPY:   FULL HISTORY
MRT .C                                                 50:   MAX REC TEMP
DFT .                                         CHALK WATER:   MUD TYPE
RMS .                                                1.44:   RM
MST .C                                                 11:   RM TEMP
RMCS.                                                1.93:   RMC
MCST.C                                                 19:   RMC TEMP
RMFS.                                               0.917:   RMF
MFST.C                                                 19:   RMF TEMP
TCS .                                                 N/A:   TIME SINCE CIRCLN
TLI .M                                              403.6:   TOP DEPTH LOGGED
~Curve Information Block
#MNEM.UNIT                                        API CODE    No Description
#=========                                        ========    == ===========
DEPT.M                                       00 001 00 00:     1  DEPTH
DILD.OHMM                                                :     2  DUAL INDUCTION LOG DEEP RESISTIVITY
SN.OHMM                                                  :     3  SHORT NORMAL
~ASCII
# ...
 1181.7096      .4890      .9330
 1181.8620      .5140      .9350
 1182.0144      .5600      .9270
 1182.1668      .6030      .8960
 1182.3192      .6290      .8480
 1182.4716      .6460      .8140
 1182.6240      .6480      .7940
 1182.7764      .6540      .7870
 1182.9288      .6560      .7850
 1183.0812      .6530      .7850
 1183.2336      .6450      .7850
 1183.3860      .6260      .7830
 1183.5384      .6010      .7800
 1183.6908      .5810      .7810
 1183.8432      .5560      .8090
 1183.9956      .5230      .8610
 1184.1480      .5000      .9220
 1184.3004      .4820      .9710
 1184.4528      .4710     1.0000
 1184.6052      .4580      .9890
 1184.7576      .4590      .9300
 1184.9100      .4640      .8930
 1185.0624      .4600      .8880
 1185.2148      .4580      .9190
 1185.3672      .4580     1.0060
 1185.5196      .4580     1.1070
 1185.6720      .4580     1.1360
 1185.8244      .4580     1.1130
 1185.9768      .4580     1.0700
 1186.1292      .4580     1.0270
 1186.2816      .4580     1.0100
 1186.4340      .4660     1.0100
 1186.5864      .4690     1.0230
 1186.7388      .4770     1.0670
 1186.8912      .4970     1.0870
 1187.0436      .5220     1.0480
 1187.1960      .5630      .9820
 1187.3484      .5920      .9110
 1187.5008      .6240      .8790
 1187.6532      .6450      .8840
 1187.8056      .6480      .9100
 1187.9580      .6480      .9710
 1188.1104      .6480     1.0490
 1188.2628      .6540     1.1140
 1188.4152      .6560     1.1480
 1188.5676      .6620     1.1470
 1188.7200      .6940     1.1340
 1188.8724      .7470     1.0790
 1189.0248      .8210     1.0260
 1189.1772      .8650      .9810
 1189.3296      .8700      .9570
 1189.4820      .8630      .9430
 1189.6344      .8500      .9390
 1189.7868      .8460      .9390
 1189.9392      .8360      .9400
 1190.0916      .8270      .9420
 1190.2440      .8210      .9440
 1190.3964      .8140      .9440
 1190.5488      .7990      .9400
 1190.7012      .7840      .9320
 1190.8536      .7620      .9260
 1191.0060      .7520      .9250
 1191.1584      .7340      .9260
 1191.3108      .7000      .9380
 1191.4632      .6740      .9470
 1191.6156      .6610      .9440
 1191.7680      .6500      .9330
 1191.9204      .6480      .9220
 1192.0728      .6480      .9150
 1192.2252      .6410      .9130
 1192.3776      .6490      .9320
 1192.5300      .6660      .9720
 1192.6824      .6840     1.0260
 1192.8348      .7270     1.0590
 1192.9872      .7920     1.0650
 1193.1396      .8570     1.0430
 1193.2920      .9000     1.0190
 1193.4444      .9060     1.0120
 1193.5968      .9260     1.0180
 1193.7492      .9140     1.0240
 1193.9016      .8950     1.0250
 1194.0540      .8210     1.0250
 1194.2064      .7500     1.0250
 1194.3588      .7140     1.0260
 1194.5112      .7210     1.0290
 1194.6636      .7380     1.0340
 1194.8160      .7560     1.0370
 1194.9684      .7810     1.0330
 1195.1208      .7840     1.0060
 1195.2732      .7840      .9610
 1195.4256      .7820      .9160
 1195.5780      .7570      .8830
 1195.7304      .7130      .8650
 1195.8828      .6340      .8630
 1196.0352      .5450      .8640
 1196.1876      .4860      .8760
 1196.3400      .4450      .9180
 1196.4924      .4270      .9980
 1196.6448      .4070     1.0680
 1196.7972      .3960     1.1340
 1196.9496      .3960     1.1710
 1197.1020      .3960     1.1720
 1197.2544      .3970     1.1320
 1197.4068      .4020     1.0590
 1197.5592      .4250      .9640
 1197.7116      .4690      .8940
 1197.8640      .5190      .8470
 1198.0164      .5750      .8290
 1198.1688      .6280      .8300
 1198.3212      .6750      .8340
 1198.4736      .7150      .8440
 1198.6260      .7490      .8570
 1198.7784      .7650      .8690
 1198.9308      .7680      .8830
 1199.0832      .7650      .8990
 1199.2356      .7590      .9020
 1199.3880      .7530      .8960
 1199.5404      .7480      .8790
 1199.6928      .7440      .8600
 1199.8452      .7440      .8510
 1199.9976      .7400      .8500
 1200.1500      .7330      .8500
 1200.3024      .7280      .8520
 1200.4548      .7220      .8520
 1200.6072      .7200      .8520
 1200.7596      .7180      .8530
 1200.9120      .7090      .8530
 1201.0644      .7040      .8510
 1201.2168      .6980      .8480
 1201.3692      .6960      .8400
 1201.5216      .6960      .8300
 1201.6740      .6960      .8230
 1201.8264      .6910      .8220
 1201.9788      .6830      .8260
 1202.1312      .6620      .8260
 1202.2836      .6230      .8200
 1202.4360      .5800      .8120
 1202.5884      .5150      .8110
 1202.7408      .4560      .8130
 1202.8932      .4000      .8290
 1203.0456      .3700      .8940
 1203.1980      .3500      .9750
 1203.3504      .3400      .9890
 1203.5028      .3400      .9460
 1203.6552      .3400      .9030
 1203.8076      .3400      .8820
 1203.9600      .3400      .8890
 1204.1124      .3400      .9240
 1204.2648      .3400      .9670
 1204.4172      .3410      .9850
 1204.5696      .3470      .9960
 1204.7220      .3580     1.0060
 1204.8744      .3740      .9600
 1205.0268      .4130      .9100
 1205.1792      .4710      .8640
 1205.3316      .5440      .8440
 1205.4840      .6070      .8430
 1205.6364      .6240      .8460
 1205.7888      .6240      .8420
 1205.9412      .6130      .8370
 1206.0936      .6020      .8420
 1206.2460      .5780      .8570
 1206.3984      .5380      .8850
 1206.5508      .5020      .9200
 1206.7032      .4470      .9610
 1206.8556      .4210      .9830
 1207.0080      .4180      .9910
 1207.1604      .4240      .9970
 1207.3128      .4370      .9860
 1207.4652      .4480      .9470
 1207.6176      .4580      .9030
 1207.7700      .4660      .8870
 1207.9224      .4760      .9010
 1208.0748      .4940      .9510
 1208.2272      .5100      .9740
 1208.3796      .5260      .9660
 1208.5320      .5390      .9470
 1208.6844      .5520      .9380
 1208.8368      .5540      .9420
 1208.9892      .5520      .9960
 1209.1416      .5460     1.0640
 1209.2940      .5460     1.1230
 1209.4464      .5540     1.1490
 1209.5988      .5540     1.1500
 1209.7512      .5670     1.1140
 1209.9036      .5890     1.0550
 1210.0560      .6200     1.0280
 1210.2084      .6520     1.0230
 1210.3608      .6950     1.0390
 1210.5132      .7300     1.0830
 1210.6656      .7680     1.0960
 1210.8180      .8070     1.0880
 1210.9704      .8490     1.0800
 1211.1228      .8950     1.0820
 1211.2752      .9390     1.0950
 1211.4276      .9810     1.1160
 1211.5800     1.0210     1.1430
 1211.7324     1.0620     1.1650
 1211.8848     1.0930     1.1810
 1212.0372     1.1180     1.1920
 1212.1896     1.1330     1.1960
 1212.3420     1.1340     1.1930
 1212.4944     1.1320     1.1850
 1212.6468     1.1350     1.1790
 1212.7992     1.1320     1.1800
 1212.9516     1.1260     1.1880
 1213.1040     1.1110     1.1770
 1213.2564     1.0790     1.1570
 1213.4088     1.0420     1.1280
 1213.5612     1.0070     1.1170
 1213.7136      .9700     1.1230
 1213.8660      .9370     1.1530
 1214.0184      .9210     1.1830
 1214.1708      .9110     1.2240
 1214.3232      .9100     1.2020
 1214.4756      .9100     1.1720
 1214.6280      .9100     1.1580
 1214.7804      .9100     1.1620
 1214.9328      .9100     1.1940
 1215.0852      .9130     1.2270
 1215.2376      .9260     1.2420
 1215.3900      .9480     1.2370
 1215.5424      .9700     1.2240
 1215.6948     1.0030     1.2060
 1215.8472     1.0180     1.1880
 1215.9996     1.0280     1.1600
 1216.1520     1.0360     1.1440
 1216.3044     1.0350     1.1270
 1216.4568     1.0150     1.1070
 1216.6092      .9910     1.0830
 1216.7616      .9410     1.0570
 1216.9140      .8840     1.0430
 1217.0664      .8090     1.0270
 1217.2188      .7360     1.0140
 1217.3712      .6740     1.0200
 1217.5236      .6480     1.0550
 1217.6760      .6200     1.0900
 1217.8284      .6000     1.0880
 1217.9808      .5880     1.0480
 1218.1332      .5820     1.0100
 1218.2856      .5780      .9980
 1218.4380      .5780     1.0020
 1218.5904      .5780     1.0400
