~VERSION INFORMATION
VERS.                                                 2.0:   CWLS Log ASCII Standard-VERSION 2.0
WRAP.                                                  NO:   One line per depth step
~Well Information Block
STRT.M                                          1406.0424:   Top Depth
STOP.M                                          1903.9332:   Bottom Depth
STEP.M                                             .15240:   Depth Increment
NULL.                                            -999.250:   Null Value
FLD .                                          EEMSKANAAL:   Field Name
WELL.                                       EEMSKANAAL- 1:   NAME
EDF .m                                               5.58:   ELEV DRILL FLOOR
EPD .                                                   0:   ELEV PERM DATUM
EGL .m                                                -.9:   GROUND LEVEL
LMF .                                                  DF:   LOGS MEAS FROM
COMP.                                                 NAM:   OPERATOR
PDAT.                                                 NAP:   PERM DATUM
SPUD.                                          1970/11/08:   SPUD DATE
UWBI.                                      11000074112201:   UWBI
WELL.                                       EEMSKANAAL- 1:   HOLE NAME
~PARAMETER INFORMATION (log)
LNAM.                                RUN 07 RAW OH 9.625":   NAME
LTYP.                                                 07R:   LOG TYPE
LVSN.                                                   1:   LOG VERSION
BS  .5/8"                                               9:   BIT SIZE
BLI .M                                               2950:   BOTTOM DEPTH LOGGED
BHIS.                                            RCCCCCCC:   BRIEF HISTORY
FHIS.              RAW-TIGA/COPY/COPY/COPY/COPY/COPY/COPY:   FULL HISTORY
MRT .                                                    :   MAX REC TEMP
DFT .                                          SALT SPERS:   MUD TYPE
RMS .                                               0.074:   RM
MST .C                                                 26:   RM TEMP
RMCS.                                               0.144:   RMC
MCST.C                                                 17:   RMC TEMP
RMFS.                                               0.059:   RMF
MFST.C                                                 26:   RMF TEMP
TCS .                                                 N/A:   TIME SINCE CIRCLN
TLI .M                                             1406.5:   TOP DEPTH LOGGED
~Curve Information Block
#MNEM.UNIT                                        API CODE    No Description
#=========                                        ========    == ===========
DEPT.M                                       00 001 00 00:     1  DEPTH
LL9D.OHMM                                                :     2  Dual Laterolog 9 deep
LL9S.OHMM                                                :     3  Dual Laterolog 9 shallow
MSFL.OHMM                                                :     4  MICRO SPHERICALLY FOCUSSED LOG
~ASCII
# ...
 1822.0944     1.7290     2.1250     1.8340
 1822.2468     1.9090     2.2430     1.8240
 1822.3992     1.9220     2.2300     3.3280
 1822.5516     1.9150     2.1060     2.7720
 1822.7040     1.8880     2.0260     1.9220
 1822.8564     1.8850     2.0290     1.6030
 1823.0088     1.9330     2.0830     1.6760
 1823.1612     2.0040     2.2000     1.9650
 1823.3136     2.0860     2.2740     3.3320
 1823.4660     2.1570     2.2770     1.7050
 1823.6184     2.1730     2.2760     2.8530
 1823.7708     2.1060     2.2690     2.8740
 1823.9232     2.0430     2.2720     1.4740
 1824.0756     2.0470     2.2960     1.5290
 1824.2280     2.1270     2.3270     1.8200
 1824.3804     2.1880     2.3510     1.8700
 1824.5328     2.1510     2.3460     1.5170
 1824.6852     2.1090     2.3300     1.4330
 1824.8376     2.0000     2.2050     1.1750
 1824.9900     2.0050     2.2070     1.1200
 1825.1424     2.0150     2.2110     1.7100
 1825.2948     2.0200     2.2000     2.0970
 1825.4472     2.0250     2.1850     2.1130
 1825.5996     2.0620     2.2230     1.9130
 1825.7520     2.4000     2.4770     1.5010
 1825.9044     2.6180     2.8030     1.5090
 1826.0568     2.6920     3.0080     2.7090
 1826.2092     2.6950     3.1770     3.9280
 1826.3616     2.6490     3.2910     4.6190
 1826.5140     2.6150     3.3720     2.4100
 1826.6664     2.7500     3.4000     3.2840
 1826.8188     2.7600     3.3020     3.3120
 1826.9712     2.6480     3.2050     4.4020
 1827.1236     2.5680     3.1510     4.4220
 1827.2760     2.5520     3.1310     3.1400
 1827.4284     2.5050     3.0450     3.3530
 1827.5808     2.2190     2.7830     3.2370
 1827.7332     1.9790     2.5410     4.9210
 1827.8856     1.9340     2.5150     2.8930
 1828.0380     2.0350     2.5950     1.8350
 1828.1904     2.1750     2.7000     1.7850
 1828.3428     2.1620     2.7000     3.4540
 1828.4952     2.1150     2.6340     3.4500
 1828.6476     2.0880     2.5110     2.8390
 1828.8000     2.1250     2.4900     2.5910
 1828.9524     2.3530     2.6420     2.7390
 1829.1048     2.6600     2.8260     3.1800
 1829.2572     2.9440     2.8510     3.6320
 1829.4096     3.0320     2.8070     4.0340
 1829.5620     2.9110     2.5480     4.9070
 1829.7144     2.5110     2.2050     3.6670
 1829.8668     2.0840     2.0350     3.0960
 1830.0192     1.9620     1.9770     2.4020
 1830.1716     1.9410     1.9620     2.0400
 1830.3240     1.9920     1.9600     1.7820
 1830.4764     2.0640     1.9420     1.7900
 1830.6288     2.0530     1.8580     2.2530
 1830.7812     1.9690     1.7370     2.0310
 1830.9336     1.8690     1.5830     1.9650
 1831.0860     1.7500     1.3730     2.4480
 1831.2384     1.5630     1.3000     2.2230
 1831.3908     1.4560     1.2900     1.4660
 1831.5432     1.4890     1.3310     1.3910
 1831.6956     1.7020     1.4390     1.4020
 1831.8480     1.8720     1.6590     1.5340
 1832.0004     1.9030     1.6850     1.9200
 1832.1528     1.8120     1.5440     2.3130
 1832.3052     1.6350     1.4030     2.3870
 1832.4576     1.4990     1.3090     1.8930
 1832.6100     1.4800     1.2910     1.6070
 1832.7624     1.5180     1.3470     1.6110
 1832.9148     1.6000     1.4610     1.6560
 1833.0672     1.6430     1.5020     1.7370
 1833.2196     1.6560     1.5060     1.9170
 1833.3720     1.6560     1.5040     1.7450
 1833.5244     1.6660     1.5050     1.6790
 1833.6768     1.7200     1.5300     2.0310
 1833.8292     1.8090     1.6100     1.6640
 1833.9816     1.9040     1.7100     1.7280
 1834.1340     1.9730     1.8000     2.6390
 1834.2864     2.0220     1.8740     2.5370
 1834.4388     2.0600     1.9410     2.2960
 1834.5912     2.0920     2.0190     2.3710
 1834.7436     2.1350     2.0970     2.7130
 1834.8960     2.1950     2.1530     2.5660
 1835.0484     2.2570     2.1550     2.9220
 1835.2008     2.2770     2.1270     2.8520
 1835.3532     2.2730     2.1380     2.7220
 1835.5056     2.2450     2.1170     2.9950
 1835.6580     2.1540     2.0460     2.2560
 1835.8104     2.0540     1.9360     2.2660
 1835.9628     1.9020     1.8000     3.1760
 1836.1152     1.8080     1.7170     3.1170
 1836.2676     1.7690     1.7120     1.9230
 1836.4200     1.8230     1.7790     1.9590
 1836.5724     1.8990     1.9160     2.4450
 1836.7248     1.9420     2.0710     2.7810
 1836.8772     1.9420     2.1760     2.7390
 1837.0296     1.9300     2.1780     2.6840
 1837.1820     1.9090     2.1390     2.7630
 1837.3344     1.8770     2.0680     2.7740
 1837.4868     1.8360     2.0180     2.5070
 1837.6392     1.8200     2.0150     2.6150
 1837.7916     1.8400     2.0480     2.6360
 1837.9440     1.9600     2.1470     2.2990
 1838.0964     2.0920     2.2850     2.3370
 1838.2488     2.1300     2.3660     2.8270
 1838.4012     2.1350     2.4200     2.9830
 1838.5536     2.0370     2.4230     4.5000
 1838.7060     1.9200     2.3860     4.7250
 1838.8584     1.8350     2.3120     2.7230
 1839.0108     1.8090     2.2680     3.1310
 1839.1632     1.8420     2.2580     2.8880
 1839.3156     1.8810     2.2620     3.0910
 1839.4680     1.9210     2.2680     3.0640
 1839.6204     1.9530     2.2680     2.4390
 1839.7728     1.9630     2.2580     2.3110
 1839.9252     1.9520     2.2340     2.3680
 1840.0776     1.8880     2.1530     4.7650
 1840.2300     1.8180     2.0380     2.6780
 1840.3824     1.8500     2.0360     2.4450
 1840.5348     1.8630     2.0680     2.4320
 1840.6872     1.8550     2.0840     2.4770
 1840.8396     1.8950     2.0860     2.5990
 1840.9920     1.9730     2.0410     2.7500
 1841.1444     1.8890     1.9290     3.0380
 1841.2968     1.8330     1.8210     2.7250
 1841.4492     1.8390     1.7770     3.2950
 1841.6016     1.8760     1.7820     2.4270
 1841.7540     1.9430     1.8630     2.4000
 1841.9064     1.9890     1.9340     2.3340
 1842.0588     1.9950     1.9560     2.5530
 1842.2112     1.9770     1.9390     2.6930
 1842.3636     1.9010     1.7690     2.6720
 1842.5160     1.8120     1.6520     2.4940
 1842.6684     1.7830     1.6230     2.6620
 1842.8208     1.7850     1.6200     2.4810
 1842.9732     1.8240     1.6450     2.3320
 1843.1256     1.8870     1.6900     2.4060
 1843.2780     1.9010     1.7400     2.4960
 1843.4304     1.8960     1.7520     2.3700
 1843.5828     1.8800     1.7530     2.4420
 1843.7352     1.8840     1.7890     2.4470
 1843.8876     1.9100     1.8330     2.4930
 1844.0400     1.8910     1.9600     2.8460
 1844.1924     1.8110     1.8640     2.5950
 1844.3448     1.7480     1.8340     2.7010
 1844.4972     1.7250     1.8340     2.5140
 1844.6496     1.7380     1.8430     2.4810
 1844.8020     1.7720     1.8530     2.2140
 1844.9544     1.8180     1.8530     2.4230
 1845.1068     1.8300     1.8530     2.7730
 1845.2592     1.8760     1.9000     2.7670
 1845.4116     1.9580     1.8390     2.6090
 1845.5640     2.0590     1.9520     2.4500
 1845.7164     2.0720     1.9720     2.7100
 1845.8688     1.9140     1.8220     3.7090
 1846.0212     1.7570     1.6590     3.7830
 1846.1736     1.7000     1.6210     2.9600
 1846.3260     1.7070     1.6550     2.2900
 1846.4784     1.7600     1.7330     2.3360
 1846.6308     1.8010     1.7450     2.3000
 1846.7832     1.8120     1.7400     2.3530
 1846.9356     1.8090     1.7360     2.9470
 1847.0880     1.8030     1.7310     3.1310
 1847.2404     1.8040     1.7160     2.3310
 1847.3928     1.8090     1.7100     2.3040
 1847.5452     1.8190     1.7080     2.3950
 1847.6976     1.8310     1.7150     2.4980
 1847.8500     1.8410     1.7270     2.4610
 1848.0024     1.8460     1.7310     2.3640
 1848.1548     1.8550     1.7260     2.7030
 1848.3072     1.8620     1.7130     2.5930
 1848.4596     1.8680     1.7090     2.5920
 1848.6120     1.9120     1.7360     2.6570
 1848.7644     1.9910     1.7850     2.3180
 1848.9168     2.0230     1.7960     2.3280
 1849.0692     1.9690     1.7460     2.7380
 1849.2216     1.8140     1.6340     2.8000
 1849.3740     1.6490     1.4980     3.1710
 1849.5264     1.5440     1.3920     2.9020
 1849.6788     1.5320     1.3600     1.9950
