~VERSION INFORMATION
VERS.                                                 2.0:   CWLS Log ASCII Standard-VERSION 2.0
WRAP.                                                  NO:   One line per depth step
~Well Information Block
STRT.M                                           836.5236:   Top Depth
STOP.M                                          2800.0452:   Bottom Depth
STEP.M                                             .15240:   Depth Increment
NULL.                                            -999.250:   Null Value
FLD .                                          EEMSKANAAL:   Field Name
WELL.                                       EEMSKANAAL- 2:   NAME
APD .M                                               5.62:   ABOVE PERM DATUM
CTRY.                                                  NE:   COUNTRY
EDF .m                                               5.62:   ELEV DRILL FLOOR
EPD .                                                   0:   ELEV PERM DATUM
EGL .m                                              -1.06:   GROUND LEVEL
LMF .                                                  DF:   LOGS MEAS FROM
COMP.                                                 NAM:   OPERATOR
PDAT.                                                 NAP:   PERM DATUM
SPUD.                                          1971/03/17:   SPUD DATE
STAT.                                           Unknown m:   STATE
UWBI.                                      11000074112601:   UWBI
WELL.                                       EEMSKANAAL- 2:   HOLE NAME
~PARAMETER INFORMATION (log)
LNAM.                              RUN 04 RAW CH OCT 2002:   NAME
LTYP.                                                 04R:   LOG TYPE
LVSN.                                                   1:   LOG VERSION
BHT .DEGC                                             101:   BH TEMP
BS  .IN                                             9.625:   BIT SIZE
BHS .                                                CASE:   BOREHOLE STATUS
BLI .M                                               2800:   BOTTOM DEPTH LOGGED
BHIS.                                                  RC:   BRIEF HISTORY
CS  .IN                                             7.625:   CASING SIZE
CSW .LB/F                                            52.3:   CASING WEIGHT
R1  .                                 Log correlated with:   COMMENT  1
R2  .       Compensated formation density log 1-April-197:   COMMENT  2
R4  .          Weight expendable tubing 18.6 lbs per foot:   COMMENT  4
R5  .              Weight 7 5/8" casing 33.7 lbs per foot:   COMMENT  5
R7  .                                      Set CSID 5.98":   COMMENT  7
R8  .                   Set CWEI 33.7 + 18.6  =  52.3 LBS:   COMMENT  8
R9  .                                    Set CSIZ 7.625 ":   COMMENT  9
DMF .                                                 ORT:   DRILL MEAS FROM
EDF .M                                               5.62:   ELEV DRILL FLOOR
ELZ .                                              5.62 M:   ELEVATION LOG ZERO
ENGI.                                         M. Riedeman:   ENGINEER
FHIS.                                            RAW-DLIS:   FULL HISTORY
HIDE.                                               RST-C:   HEADER ID
LCNM.                                        Schlumberger:   LOGGING CONTRACTOR
LMF .                                                 ORT:   LOGS MEAS FROM
MATR.                                                LIME:   MATRIX
MRT .DEGC                                             101:   MAX REC TEMP
DFT .                                                 gas:   MUD TYPE
CN  .                                                 NAM:   OPERATOR
RUN .                                                   1:   RUN
DATE.                                          2002/10/25:   RUN DATE
RW  .OHMM                                               1:   RW
STEM.DEGC                                              18:   SURFACE TEMPERATURE
TLAB.                                                1100:   TIME LOGGER ON BOT
TLI .M                                                840:   TOP DEPTH LOGGED
WITN.                           P van der Zee & S. Yntema:   WITNESS
~Curve Information Block
#MNEM.UNIT                                        API CODE    No Description
#=========                                        ========    == ===========
DEPT.M                                       00 001 00 00:     1  DEPTH
AIRB.                                                    :     2  RST Air Borehole Diagnostic
CIRF.                                                    :     3  RST Capture to Inelastic Ratio Far
CIRN.                                                    :     4  RST Capture to Inelastic Ratio Near
FBAC.CPS                                                 :     5  Far Background Count Rate
GR.API                                                   :     6  Gamma Ray
IRAT.                                                    :     7  RST Inelastic Ratio
NBAC.CPS                                                 :     8  Near Background Count Rate
SBNA.CU                                                  :     9  RST Sigma Borehole Near Apparent
SFNA.CU                                                  :    10  RST Sigma Formation Near Apparent
SIGM.CU                                                  :    11  Formation Sigma (Neutron Capture Cross S
TPHI.FRAC                                                :    12  Thermal Decay Porosity
~ASCII
# ...
 2268.1692     1.0000      .1370      .0846  3443.8787    13.3638     1.0927  1927.1117   133.0685    50.4857    67.2452      .0393
 2268.3216     1.0000      .1317      .0865  3446.1431    12.1126     1.0943  1928.7159   135.9679    50.4351    66.1667      .0216
 2268.4740     1.0000      .1372      .0833  3418.8787    12.2740     1.1026  1897.1653   134.0049    47.2856    66.2414      .0056
 2268.6264     1.0000      .1392      .0810  3388.5310    12.4417     1.0980  1924.5718   135.8062    51.8675    65.3914      .0041
 2268.7788     1.0000      .1410      .0856  3362.6030    11.0235     1.0974  1909.8657   126.1236    53.1810    65.8070      .0110
 2268.9312     1.0000      .1450      .0859  3378.3564    11.0999     1.0998  1910.6952   133.3087    51.3785    65.0678      .0129
 2269.0836     1.0000      .1307      .0871  3388.1072    11.7668     1.1131  1933.1552   135.3709    46.8397    65.5967      .0279
 2269.2360     1.0000      .1323      .0834  3396.3955    11.3549     1.1229  1921.2617   126.2848    51.4581    65.6629      .0187
 2269.3884     1.0000      .1365      .0835  3383.1375    10.6853     1.1248  1944.3901   137.3532    52.2700    66.7308      .0332
 2269.5408     1.0000      .1343      .0827  3417.7954    10.6845     1.1196  1954.6843   130.3915    51.3184    66.5648      .0211
 2269.6932     1.0000      .1329      .0833  3404.2737    11.4180     1.1123  1955.3527   127.5337    56.2212    66.5087      .0318
 2269.8456     1.0000      .1401      .0783  3398.6423    11.4180     1.1090  1956.6895   131.1216    54.2356    65.5101      .0095
 2269.9980     1.0000      .1325      .0846  3392.7600    11.4287     1.1043  1952.9462   135.3214    54.6650    66.0715     -.0044
 2270.1504     1.0000      .1378      .0788  3401.3083    11.6632     1.1069  1970.5934   136.5635    51.1725    65.6892     -.0186
 2270.3028     1.0000      .1403      .0768  3431.1211    12.3309     1.1116  1963.9087   131.0467    51.8764    66.1087     -.0111
 2270.4552     1.0000      .1320      .0746  3475.6101    11.5140     1.1190  1957.7589   129.6496    53.6037    64.5245     -.0166
 2270.6076     1.0000      .1335      .0801  3447.0225    11.1801     1.1148  1940.3793   129.8357    51.6582    65.0418     -.0017
 2270.7600     1.0000      .1353      .0759  3436.3271    10.5016     1.1192  1924.3367   128.1285    49.5394    64.2259      .0035
 2270.9124     1.0000      .1307      .0782  3461.4609     9.5519     1.1145  1934.0909   127.8722    50.1872    65.7683      .0250
 2271.0648     1.0000      .1321      .0856  3467.2329     8.8841     1.1350  1925.5079   129.9768    50.6930    65.1065      .0133
 2271.2172     1.0000      .1418      .0836  3442.7585     8.0493     1.1276  1911.4703   134.3161    54.1508    65.7691     -.0062
 2271.3696     1.0000      .1448      .0858  3426.5820     7.7989     1.1240  1916.2832   137.7025    48.2037    64.6355     -.0305
 2271.5220     1.0000      .1414      .0806  3430.7266     8.6337     1.1133  1914.9464   132.8307    51.4495    65.2452     -.0210
 2271.6744     1.0000      .1446      .0784  3436.0742     9.6696     1.1209  1917.3528   127.0077    52.6240    65.1054     -.0167
 2271.8268     1.0000      .1425      .0849  3432.9993     9.3364     1.1267  1908.7968   135.9842    46.7508    65.6831      .0066
 2271.9792     1.0000      .1392      .0860  3390.4858     9.6703     1.1223  1898.9034   127.9582    47.7468    64.3996     -.0072
 2272.1316     1.0000      .1387      .0843  3377.5491     8.6963     1.1159  1905.7216   132.5357    50.8815    64.7960      .0122
 2272.2840     1.0000      .1477      .0811  3367.1370     8.1120     1.1254  1935.9355   128.3690    51.8957    62.7374     -.0189
 2272.4364     1.0000      .1445      .0869  3341.4690     8.3756     1.1244  1945.5613   128.2162    50.4827    63.9613     -.0181
 2272.5888     1.0000      .1499      .0794  3320.7468     8.5945     1.1161  1954.6523   133.2089    50.1985    63.9176     -.0326
 2272.7412     1.0000      .1429      .0791  3321.2815     8.8449     1.1051  1950.1339   129.4843    51.5396    65.7899     -.0256
 2272.8936     1.0000      .1451      .0721  3291.3352    10.1396     1.1019  1961.3638   132.7961    49.8086    66.2025     -.0119
 2273.0460     1.0000      .1429      .0810  3310.1853    10.2015     1.0945  1959.6307   126.2353    53.9550    65.6363     -.0267
 2273.1984     1.0000      .1472      .0762  3310.3193    10.2849     1.0953  1962.3043   139.0449    54.1788    65.6425     -.0220
 2273.3508     1.0000      .1327      .0773  3322.3682    10.1987     1.0964  1979.1492   133.3734    50.1959    64.9680     -.0411
 2273.5032     1.0000      .1390      .0830  3319.6943     9.9229     1.1100  1975.4059   136.4812    51.0575    64.6747     -.0403
 2273.6556     1.0000      .1431      .0781  3342.4216     9.7692     1.1112  1983.9620   135.7234    48.8697    62.8668     -.0616
 2273.8080     1.0000      .1472      .0761  3317.4126    10.0280     1.1131  1989.3094   132.2508    55.0729    62.9658     -.0595
 2273.9604     1.0000      .1359      .0788  3341.7280     9.8611     1.1134  1986.1011   133.5116    59.3905    62.9468     -.0526
 2274.1128     1.0000      .1333      .0759  3367.6641    10.2933     1.1147  1968.4539   133.7384    47.0206    65.2857     -.0331
 2274.2652     1.0000      .1384      .0788  3367.5303    10.5520     1.1169  1969.2560   135.3986    50.2579    66.0534     -.0300
 2274.4176     1.0000      .1396      .0763  3366.7280    10.7189     1.1216  1957.7589   134.8862    52.7853    66.7284     -.0283
 2274.5700     1.0000      .1360      .0764  3391.0764    10.6316     1.1238  1954.5504   135.3327    45.5237    66.9827     -.0177
 2274.7224     1.0000      .1397      .0839  3379.1775    10.4515     1.1198  1946.6578   133.2963    49.0522    66.3385     -.0062
 2274.8748     1.0000      .1414      .0830  3361.6643    10.7966     1.1126  1942.9144   129.6783    49.2655    66.8156     -.0013
 2275.0272     1.0000      .1374      .0797  3333.4470    10.7966     1.1076  1927.4064   138.9984    50.0573    65.3555     -.0112
 2275.1796     1.0000      .1308      .0822  3365.5327    10.4374     1.1140  1935.9628   134.5707    55.1390    65.3359     -.0200
 2275.3320     1.0000      .1302      .0796  3340.8000    10.6973     1.1114  1926.8718   134.1911    55.9044    63.6372     -.0394
 2275.4844     1.0000      .1464      .0786  3353.5085    10.9609     1.1154  1921.5242   137.8592    55.0131    64.5041     -.0547
 2275.6368     1.0000      .1401      .0816  3328.9099    10.3007     1.1119  1924.1980   142.3969    44.9086    64.0209     -.0493
 2275.7892     1.0000      .1371      .0829  3294.8188    10.5606     1.1185  1929.5454   130.4411    51.9914    64.5453     -.0361
 2275.9416     1.0000      .1399      .0857  3305.6736    11.0867     1.1110  1907.4865   134.8037    47.8998    62.8981     -.0354
 2276.0940     1.0000      .1493      .0806  3294.3103    10.8439     1.0978  1909.0907   135.9784    53.3611    62.6069     -.0433
 2276.2464     1.0000      .1358      .0754  3328.2515    10.4930     1.0887  1899.7325   131.4029    50.6033    62.6087     -.0422
 2276.3988     1.0000      .1359      .0822  3316.0852    10.8268     1.0893  1900.2672   136.7999    49.3258    63.4649     -.0141
 2276.5512     1.0000      .1310      .0802  3364.0798    10.3091     1.1059  1897.9945   131.1817    50.1889    63.5955      .0059
 2276.7036     1.0000      .1391      .0913  3371.0320    11.0766     1.1125  1907.6202   126.4632    48.2994    63.6784      .0138
 2276.8560     1.0000      .1477      .0860  3327.9836    11.0606     1.1181  1909.7593   131.7237    48.9231    63.9114     -.0088
 2277.0084     1.0000      .1432      .0799  3369.2939    10.1594     1.1170  1937.4063   135.9223    51.1312    65.8201     -.0169
 2277.1608     1.0000      .1450      .0811  3372.6279    10.1396     1.1110  1953.5828   132.3851    51.2406    66.5994     -.0179
 2277.3132     1.0000      .1423      .0807  3374.2319    10.3112     1.1033  1930.5880   134.3614    52.4999    66.6737     -.0026
