~VERSION INFORMATION
VERS.                                                 2.0:   CWLS Log ASCII Standard-VERSION 2.0
WRAP.                                                  NO:   One line per depth step
~Well Information Block
STRT.M                                          2684.0688:   Top Depth
STOP.M                                          2930.9568:   Bottom Depth
STEP.M                                             .15240:   Depth Increment
NULL.                                            -999.250:   Null Value
FLD .                                          EEMSKANAAL:   Field Name
WELL.                                       EEMSKANAAL- 1:   NAME
EDF .m                                               5.58:   ELEV DRILL FLOOR
EPD .                                                   0:   ELEV PERM DATUM
EGL .m                                                -.9:   GROUND LEVEL
LMF .                                                  DF:   LOGS MEAS FROM
COMP.                                                 NAM:   OPERATOR
PDAT.                                                 NAP:   PERM DATUM
SPUD.                                          1970/11/08:   SPUD DATE
UWBI.                                      11000074112201:   UWBI
WELL.                                       EEMSKANAAL- 1:   HOLE NAME
~PARAMETER INFORMATION (log)
LNAM.                                RUN 08 RAW OH 9.625":   NAME
LTYP.                                                 08R:   LOG TYPE
LVSN.                                                   1:   LOG VERSION
BS  .5/8"                                               9:   BIT SIZE
BLI .M                                               2950:   BOTTOM DEPTH LOGGED
BHIS.                                              MCCCCC:   BRIEF HISTORY
FHIS.                           MERGE/COPY/COPY/COPY/COPY:   FULL HISTORY
MRT .                                                    :   MAX REC TEMP
DFT .                                          SALT SPERS:   MUD TYPE
RMS .                                               0.074:   RM
MST .C                                                 26:   RM TEMP
RMCS.                                               0.144:   RMC
MCST.C                                                 17:   RMC TEMP
RMFS.                                               0.059:   RMF
MFST.C                                                 26:   RMF TEMP
TCS .                                                 N/A:   TIME SINCE CIRCLN
TLI .M                                             1406.5:   TOP DEPTH LOGGED
~Curve Information Block
#MNEM.UNIT                                        API CODE    No Description
#=========                                        ========    == ===========
DEPT.M                                       00 001 00 00:     1  DEPTH
LL9D.OHMM                                                :     2  Dual Laterolog 9 deep
LL9S.OHMM                                                :     3  Dual Laterolog 9 shallow
MSFL.OHMM                                                :     4  MICRO SPHERICALLY FOCUSSED LOG
~ASCII
 2684.0688  -999.2500  2000.0000     7.2430
 2684.2212  -999.2500  2000.0000     6.4720
 2684.3736  -999.2500  2000.0000     5.4220
 2684.5260  -999.2500  2000.0000     5.3580
 2684.6784  -999.2500  2000.0000    15.0810
 2684.8308  -999.2500  2000.0000    12.5850
 2684.9832  -999.2500  2000.0000    19.7710
 2685.1356  -999.2500  2000.0000    24.1340
 2685.2880  -999.2500  2082.9431     2.6560
 2685.4404  -999.2500  2224.4360   676.2090
 2685.5928  -999.2500  2322.2739   115.2820
 2685.7452  -999.2500  2316.5869    41.9260
 2685.8976  -999.2500  2315.4141  1846.7230
 2686.0500  -999.2500  2315.4141    10.6530
 2686.2024  -999.2500  2315.4141    19.7850
 2686.3548  -999.2500  2314.2490    14.8820
 2686.5072  -999.2500  2313.4419    13.9150
 2686.6596  -999.2500  2315.4141    30.2120
 2686.8120  -999.2500  2308.7759     5.3020
 2686.9644  -999.2500  2306.9060     3.6170
 2687.1168  -999.2500  2306.9060    10.5480
 2687.2692  -999.2500  2309.8469     7.1120
 2687.4216  -999.2500  2315.4141    12.8970
 2687.5740  -999.2500  2321.7390    26.9880
 2687.7264  -999.2500  2308.0801    24.2560
 2687.8788  -999.2500  1960.5649  1092.4430
 2688.0312  -999.2500  1533.1689  1504.1270
 2688.1836  -999.2500  1409.5811     2.9860
 2688.3360  -999.2500  1597.0210     3.3300
 2688.4884  -999.2500  1832.7980     7.2020
 2688.6408  -999.2500  1633.8870    13.4920
 2688.7932  -999.2500  1595.4910    12.6700
 2688.9456  -999.2500  1691.3380    14.2010
 2689.0980  -999.2500  1844.0580    22.6350
 2689.2504  -999.2500  1850.2140    27.9060
 2689.4028  -999.2500  1565.0110    26.1350
 2689.5552  -999.2500  1568.5890    20.8680
 2689.7076  -999.2500  1728.3810    26.0860
 2689.8600  -999.2500  2330.6050     8.8850
 2690.0124  -999.2500  2356.2971     9.0290
 2690.1648  -999.2500  2356.2971     8.7630
 2690.3172  -999.2500  2356.2971    30.0610
 2690.4696  -999.2500  2356.2971    11.9690
 2690.6220  -999.2500  2352.9089     5.5190
 2690.7744  -999.2500  2359.5291     3.3640
 2690.9268  -999.2500  1990.5420    19.0290
 2691.0792  1651.6390  1431.6630    17.1070
 2691.2316   903.8620  1149.8210   118.6670
 2691.3840   610.1660   663.5990   148.4280
 2691.5364   569.5580   530.6960   152.6870
 2691.6888   601.0480   514.4500   266.2700
 2691.8412   719.5690   533.0000   230.9080
 2691.9936   852.1710   601.4320   163.8460
 2692.1460   982.8560   659.4090   202.7610
 2692.2984  1052.1801   663.5110   237.3100
 2692.4508   954.1160   603.5270   305.5510
 2692.6032   772.3170   516.8760   281.8390
 2692.7556   728.9880   501.5040   272.4580
 2692.9080   750.4440   516.5120   263.8350
 2693.0604   751.5840   520.6430   224.9080
 2693.2128   712.1480   505.0270   213.0760
 2693.3652   707.0160   498.6690   276.3520
 2693.5176   719.0100   504.4030   259.8800
 2693.6700   749.9680   525.1590   219.7200
 2693.8224   806.4470   553.7840   225.7330
 2693.9748   865.1060   590.7050   321.1290
 2694.1272   947.2870   643.0640   312.0720
 2694.2796  1028.3621   714.4730   222.0200
 2694.4320  1036.7430   773.5450   228.9500
 2694.5844   679.7240   566.8460   372.6100
 2694.7368   384.4920   385.3860   369.8070
 2694.8892   291.2630   323.5910   320.7190
 2695.0416   309.9560   311.6590   163.8020
 2695.1940   391.0410   361.0290   114.1950
 2695.3464   875.0960   844.6700   126.8440
 2695.4988  2035.9320  1944.7720   201.6180
 2695.6512  2059.8201  2162.5540   181.4670
 2695.8036  2013.3590  2230.0120   363.1420
 2695.9560   495.6560   596.8240   365.2690
 2696.1084   210.8240   207.3200   347.3770
 2696.2608   133.1330   165.4780   241.5940
 2696.4132   140.9900   166.7130   231.4450
 2696.5656   196.3820   203.7290   150.5200
 2696.7180   269.9160   289.7810    38.1180
 2696.8704   224.3320   291.4450   135.1110
 2697.0228   131.0930   220.8020   195.6940
 2697.1752   130.8720   150.5310   187.1760
 2697.3276   147.4120   154.3680    95.8040
 2697.4800   183.8650   185.2850    57.1800
 2697.6324   298.9530   290.7120    47.7920
 2697.7848   413.0800   376.1330    89.5880
 2697.9372   616.7960   459.5230   161.2410
 2698.0896   993.1910   645.3580   136.2590
 2698.2420  1159.3979   715.3610    96.3700
 2698.3944  1237.3960   786.0490    20.7440
 2698.5468  1294.2390   841.0830    15.2940
 2698.6992  1278.5140   864.9490    71.2980
 2698.8516  1219.1899   871.9490   205.3180
 2699.0040  1179.6390   895.9920   255.5980
 2699.1564  1180.5630  1041.4410   233.3080
 2699.3088  1223.1620  1223.0540   234.4410
 2699.4612  1326.9010  1225.7950   223.5410
 2699.6136  1851.5950  1172.8010   214.2860
 2699.7660  1896.4611  1239.2460   208.0040
 2699.9184  1775.9100  1095.2080   168.1130
 2700.0708  1617.7330  1132.2240    87.6310
 2700.2232  1444.3510  1229.9320    64.0630
 2700.3756  1297.1600  1304.6310   128.8260
 2700.5280  1277.0229  1378.1050    44.6200
 2700.6804  1335.9310  1440.0490    67.0420
 2700.8328  1417.6680  1434.1940    83.2950
 2700.9852  1256.9430  1038.7841   161.9960
 2701.1376   638.5750   590.8300   191.9240
 2701.2900   423.7300   336.6200   147.1610
 2701.4424   374.1480   260.9940   250.3960
 2701.5948   382.9930   256.8210   167.0450
 2701.7472   539.9220   302.7940    76.2150
 2701.8996   903.8770   336.7870    74.1720
 2702.0520  1096.3350   337.2250    79.1210
 2702.2044  1137.9969   320.9360   278.2420
 2702.3568  1130.0410   298.4080   271.2590
 2702.5092  1107.6670   287.8570   236.0320
 2702.6616  1074.8960   276.0800   215.4310
 2702.8140   988.0800   262.7770   227.6000
 2702.9664   782.7390   232.5710   251.6290
 2703.1188   561.8160   215.6670   230.7370
 2703.2712   529.4620   224.8760   148.2380
 2703.4236   500.4690   232.9890    68.3950
 2703.5760   441.9810   227.8450    97.9520
 2703.7284   336.8210   208.2210   122.5580
 2703.8808   275.0560   180.9920   110.0110
 2704.0332   261.7140   180.5700    80.3030
 2704.1856   270.2610   203.8960    49.7760
 2704.3380   288.8510   224.5550    44.5920
 2704.4904   282.1980   229.4890    59.3550
 2704.6428   255.3190   225.5070    66.6120
 2704.7952   228.5690   209.4360    57.5340
 2704.9476   190.9190   149.0740    38.1710
 2705.1000   108.6000   108.0010    42.0170
 2705.2524   105.4600   106.1700    22.5760
 2705.4048   110.1960   107.3760   125.0660
 2705.5572   162.1510   140.2680   150.0290
 2705.7096   492.3840   419.5550    91.2630
 2705.8620  1870.6820   946.2360   200.8010
 2706.0144  2393.7939  1002.7300   335.0020
 2706.1668  2394.2080   807.1950   352.4000
 2706.3192  2237.5330   662.6370   336.1050
 2706.4716  1558.4910   653.0940   343.0200
 2706.6240  -999.2500   710.4570   311.3710
 2706.7764  -999.2500  1021.2390   226.7980
 2706.9288  -999.2500  1588.7570   199.5250
 2707.0812  -999.2500  2123.1350   332.4790
 2707.2336  -999.2500  2219.3530   426.1460
 2707.3860  -999.2500  2154.8511   379.9920
 2707.5384  -999.2500  2168.5181   390.5960
 2707.6908  -999.2500  2373.9299   341.1720
 2707.8432  -999.2500  2387.1699   431.1970
 2707.9956  -999.2500  2384.6721   373.8590
 2708.1480  -999.2500  2381.4270   382.5210
 2708.3004  -999.2500  2380.2891   437.8870
 2708.4528  -999.2500  2380.2891   409.9380
 2708.6052  -999.2500  2377.8669   360.2030
 2708.7576  -999.2500  2372.4590   386.1050
 2708.9100  -999.2500  2371.5310   407.7490
 2709.0624  -999.2500  2372.8960   320.2580
 2709.2148  -999.2500  2376.8789   345.4480
 2709.3672  -999.2500  2383.9519   328.5340
 2709.5196  -999.2500  2387.3049   308.2120
 2709.6720  -999.2500  2389.0701   352.9650
 2709.8244  -999.2500  2384.6721   382.3040
 2709.9768  -999.2500  2382.9861   384.9730
 2710.1292  -999.2500  2380.2891   377.6110
 2710.2816  -999.2500  2376.7129   412.8430
 2710.4340  -999.2500  2370.0491   357.3060
 2710.5864  -999.2500  2367.1721   332.9900
 2710.7388  -999.2500  2359.7949   356.4820
 2710.8912  -999.2500  2358.4609   325.6030
 2711.0436  -999.2500  2355.3501   341.6170
 2711.1960  -999.2500  2349.9619   359.3590
 2711.3484  -999.2500  2343.3779   333.2810
 2711.5008  -999.2500  2341.1831   345.1450
 2711.6532  -999.2500  2342.0239   368.9470
