~VERSION INFORMATION
VERS.                                                 2.0:   CWLS Log ASCII Standard-VERSION 2.0
WRAP.                                                  NO:   One line per depth step
~Well Information Block
STRT.M                                          1789.0236:   Top Depth
STOP.M                                          2779.9284:   Bottom Depth
STEP.M                                             .15240:   Depth Increment
NULL.                                            -999.250:   Null Value
FLD .                                          EEMSKANAAL:   Field Name
WELL.                                       EEMSKANAAL- 2:   NAME
APD .M                                               5.62:   ABOVE PERM DATUM
CTRY.                                                  NE:   COUNTRY
EDF .m                                               5.62:   ELEV DRILL FLOOR
EPD .                                                   0:   ELEV PERM DATUM
EGL .m                                              -1.06:   GROUND LEVEL
LMF .                                                  DF:   LOGS MEAS FROM
COMP.                                                 NAM:   OPERATOR
PDAT.                                                 NAP:   PERM DATUM
SPUD.                                          1971/03/17:   SPUD DATE
STAT.                                           Unknown m:   STATE
UWBI.                                      11000074112601:   UWBI
WELL.                                       EEMSKANAAL- 2:   HOLE NAME
~PARAMETER INFORMATION (log)
LNAM.                                RUN 01 RAW OH 9 5/8":   NAME
LTYP.                                                 01R:   LOG TYPE
LVSN.                                                   1:   LOG VERSION
BS  .5/8"                                               9:   BIT SIZE
BLI .M                                             2778.0:   BOTTOM DEPTH LOGGED
BHIS.                                                MCCC:   BRIEF HISTORY
FHIS.                                     MERGE/COPY/COPY:   FULL HISTORY
MRT .DEGC                                              84:   MAX REC TEMP
DFD .G/CC                                            1.54:   MUD DENSITY
DFT .                                   SALT SAT SPERSENE:   MUD TYPE
RMS .                                                    :   RM
MST .                                                    :   RM TEMP
RMCS.                                                    :   RMC
MCST.                                                    :   RMC TEMP
RMFS.                                                    :   RMF
MFST.                                                    :   RMF TEMP
TCS .                                                 N/A:   TIME SINCE CIRCLN
TLI .M                                             1800.0:   TOP DEPTH LOGGED
~Curve Information Block
#MNEM.UNIT                                        API CODE    No Description
#=========                                        ========    == ===========
DEPT.M                                       00 001 00 00:     1  DEPTH
CALF.IN                                                  :     2  CALIPER FROM FORMATION DENSITY LOG
FDC.G/C3                                                 :     3  Formation Density Log (Compensated Open
GR.API                                                   :     4  Gamma Ray
~ASCII
# ...
 2010.9180     9.9130     2.0730    12.2010
 2011.0704     9.9190     2.0740    12.9530
 2011.2228     9.9310     2.0620    11.6530
 2011.3752     9.9730     2.0290    11.3370
 2011.5276    10.0120     2.0030    17.7860
 2011.6800    10.0280     2.0000    22.4340
 2011.8324    10.0290     1.9820    26.3310
 2011.9848    10.0290     1.9680    29.7440
 2012.1372    10.0330     1.9470    30.9950
 2012.2896    10.0330     1.9520    30.3060
 2012.4420    10.0430     1.9330    34.5520
 2012.5944    10.0700     1.8690    42.9070
 2012.7468    10.1050     1.7970    46.9200
 2012.8992    10.1820     1.7340    54.7440
 2013.0516    10.3730     1.7010    69.8100
 2013.2040    10.4830     1.6960    85.5840
 2013.3564    10.2630     1.7420    84.8010
 2013.5088     9.9710     1.8020    70.9840
 2013.6612     9.9250     1.9120    39.8480
 2013.8136    10.0010     1.9880    22.5640
 2013.9660    10.0380     2.0000    15.5240
 2014.1184    10.0330     2.0010    14.0330
 2014.2708    10.0390     1.9920    17.2860
 2014.4232    10.0550     1.9670    23.1470
 2014.5756    10.0840     1.9220    34.4150
 2014.7280    10.1050     1.8980    42.3080
 2014.8804    10.0710     1.9070    40.6120
 2015.0328    10.0170     1.9370    35.5100
 2015.1852    10.0540     1.9580    31.7360
 2015.3376    10.1200     1.9780    29.7820
 2015.4900    10.1630     2.0010    29.3970
 2015.6424    10.1790     2.0100    36.9660
 2015.7948    10.2230     2.0000    46.6850
 2015.9472    10.2510     1.9880    55.8090
 2016.0996    10.2570     1.9590    60.5480
 2016.2520    10.2320     1.9650    47.4490
 2016.4044    10.2270     2.0160    35.4960
 2016.5568    10.2440     2.0080    42.0370
 2016.7092    10.1670     1.9770    49.8870
 2016.8616    10.0600     1.9250    52.0690
 2017.0140    10.0040     1.9010    48.7160
 2017.1664    10.0060     1.9720    33.2190
 2017.3188    10.0520     2.0280    17.4050
 2017.4712    10.0470     2.0500    12.1900
 2017.6236     9.9850     2.0530    11.8980
 2017.7760     9.9690     2.0490    17.1170
 2017.9284     9.9920     2.0010    24.7630
 2018.0808    10.0370     2.0000    32.1700
 2018.2332    10.0570     1.9550    41.5920
 2018.3856    10.0580     1.8690    60.4110
 2018.5380    10.0830     1.8140    68.2150
 2018.6904     9.9140     1.7920    67.7220
 2018.8428     9.8200     1.8390    56.4100
 2018.9952     9.9960     1.9260    43.5530
 2019.1476    10.1010     1.9450    46.3950
 2019.3000    10.1170     1.9140    57.3000
 2019.4524    10.1390     1.8520    61.4360
 2019.6048    10.0290     1.8300    58.1610
 2019.7572     9.9630     1.9410    45.9370
 2019.9096     9.9660     1.9650    35.6130
 2020.0620     9.9800     1.9560    36.1300
 2020.2144    10.0030     1.9130    44.8560
 2020.3668    10.0090     1.8600    54.9230
 2020.5192     9.9950     1.8210    63.2150
 2020.6716     9.9490     1.8680    57.7250
 2020.8240     9.8880     1.9370    38.1900
 2020.9764     9.8650     1.9640    26.2890
 2021.1288     9.8630     2.0180    20.5740
 2021.2812     9.8660     2.0210    14.7930
 2021.4336     9.8710     2.0030    13.3790
 2021.5860     9.8820     1.9970    16.8100
 2021.7384     9.9570     1.9360    26.6630
 2021.8908    10.0640     1.8970    40.5060
 2022.0432    10.1160     1.7940    61.5260
 2022.1956    10.1590     1.6770    81.6060
 2022.3480    10.2290     1.6450    95.1460
 2022.5004    10.3640     1.6390   100.1690
 2022.6528    10.3590     1.6580    99.0830
 2022.8052    10.1680     1.7010    93.9900
 2022.9576    10.0250     1.8010    82.8320
 2023.1100     9.9560     1.8580    56.3510
 2023.2624    10.0900     2.0450    32.9250
 2023.4148    10.1790     2.0570    18.4170
 2023.5672    10.1780     2.0520    13.1420
 2023.7196    10.1600     2.0480    11.3200
 2023.8720    10.1530     2.0510    10.9790
 2024.0244    10.1780     2.0530    10.0800
 2024.1768    10.2330     2.0530     9.5910
 2024.3292    10.3150     2.0440    10.1930
 2024.4816    10.3880     2.0320    11.4200
 2024.6340    10.4170     2.0040    14.0280
 2024.7864    10.4310     1.9790    21.0230
 2024.9388    10.4520     1.9200    37.7220
 2025.0912    10.5120     1.8370    55.8470
 2025.2436    10.6150     1.7720    67.1440
 2025.3960    10.7450     1.7640    75.7370
 2025.5484    10.8960     1.7300    80.3210
 2025.7008    10.9010     1.7220    84.8360
 2025.8532    10.9100     1.7230    89.9400
 2026.0056    10.9720     1.6990    95.5770
 2026.1580    10.5620     1.6550   100.8930
 2026.3104    10.4120     1.6700   102.8380
 2026.4628    10.4950     1.6970    99.2800
 2026.6152    10.6190     1.7020    97.8370
 2026.7676    10.6860     1.6700    99.3570
 2026.9200    10.5030     1.6710   103.8240
 2027.0724    10.3680     1.7210   106.6460
 2027.2248    10.3620     1.7710   100.2900
 2027.3772    10.4270     1.8430    79.6530
 2027.5296    10.4910     1.9000    58.4360
 2027.6820    10.4970     1.9140    52.8940
 2027.8344    10.5000     1.9560    46.4180
 2027.9868    10.4600     1.9770    33.8550
 2028.1392    10.3810     2.0400    26.1240
 2028.2916    10.3600     2.0580    15.9440
 2028.4440    10.3670     2.0280    11.1170
 2028.5964    10.3870     2.0220    11.1930
 2028.7488    10.4000     2.0140    15.1420
 2028.9012    10.4130     2.0000    23.1160
 2029.0536    10.4290     1.9900    32.2530
 2029.2060    10.4490     1.9440    48.7390
 2029.3584    10.5070     1.8610    72.2940
 2029.5108    10.4770     1.8500    91.6870
 2029.6632    10.2880     1.8840    87.6740
 2029.8156    10.4020     2.0080    71.1690
 2029.9680    10.5360     2.0590    52.8160
 2030.1204    10.4020     2.0710    33.4350
 2030.2728    10.3520     2.0760    25.1290
 2030.4252    10.3070     2.0770    21.3900
 2030.5776    10.2450     2.0770    19.4330
 2030.7300    10.2370     2.0700    18.7830
 2030.8824    10.2400     2.0640    18.8680
 2031.0348    10.2400     2.0590    18.6340
 2031.1872    10.2370     2.0540    16.0240
 2031.3396    10.2340     2.0530    13.2580
 2031.4920    10.2320     2.0580    10.9870
 2031.6444    10.2320     2.0540     9.7970
 2031.7968    10.2300     2.0490     8.9140
 2031.9492    10.2280     2.0560     7.6650
 2032.1016    10.2280     2.0660     6.4910
 2032.2540    10.2210     2.0610     6.3060
 2032.4064    10.2120     2.0590     6.7560
 2032.5588    10.2010     2.0570     7.1620
 2032.7112    10.1930     2.0520     7.2470
 2032.8636    10.1890     2.0550     7.0830
 2033.0160    10.1840     2.0520     6.9300
 2033.1684    10.1850     2.0520     6.9920
 2033.3208    10.1890     2.0580     7.2530
 2033.4732    10.1940     2.0570     7.7190
 2033.6256    10.2000     2.0510     8.4250
 2033.7780    10.2050     2.0520     8.9020
 2033.9304    10.2080     2.0580     8.7130
 2034.0828    10.2100     2.0510     7.8230
 2034.2352    10.2110     2.0440     7.1930
 2034.3876    10.2080     2.0390     6.8940
 2034.5400    10.2120     2.0430     7.0410
 2034.6924    10.2080     2.0520     7.4760
 2034.8448    10.2100     2.0540     7.6930
 2034.9972    10.2160     2.0590     7.6810
 2035.1496    10.2270     2.0650     7.4340
 2035.3020    10.2330     2.0630     6.9270
 2035.4544    10.2400     2.0600     6.7410
 2035.6068    10.2300     2.0640     6.8180
 2035.7592    10.2040     2.0600     7.0010
 2035.9116    10.1870     2.0550     7.0450
 2036.0640    10.1840     2.0470     6.8900
 2036.2164    10.1890     2.0430     6.6580
 2036.3688    10.1970     2.0420     6.5290
 2036.5212    10.2060     2.0400     6.5290
 2036.6736    10.2090     2.0380     6.8980
 2036.8260    10.2110     2.0420     7.2520
 2036.9784    10.2080     2.0430     6.6240
 2037.1308    10.2050     2.0450     6.4650
 2037.2832    10.1900     2.0500     6.6650
 2037.4356    10.1790     2.0540     7.2430
 2037.5880    10.1730     2.0580     7.4190
 2037.7404    10.1660     2.0580     6.9470
 2037.8928    10.1580     2.0580     6.4300
 2038.0452    10.1580     2.0640     6.3030
 2038.1976    10.1610     2.0770     6.2410
 2038.3500    10.1630     2.0730     6.4730
 2038.5024    10.1710     2.0640     6.8100
