~VERSION INFORMATION
VERS.                                                 2.0:   CWLS Log ASCII Standard-VERSION 2.0
WRAP.                                                  NO:   One line per depth step
~Well Information Block
STRT.M                                            10.0584:   Top Depth
STOP.M                                          1400.8608:   Bottom Depth
STEP.M                                             .15240:   Depth Increment
NULL.                                            -999.250:   Null Value
FLD .                                          EEMSKANAAL:   Field Name
WELL.                                       EEMSKANAAL- 1:   NAME
EDF .m                                               5.58:   ELEV DRILL FLOOR
EPD .                                                   0:   ELEV PERM DATUM
EGL .m                                                -.9:   GROUND LEVEL
LMF .                                                  DF:   LOGS MEAS FROM
COMP.                                                 NAM:   OPERATOR
PDAT.                                                 NAP:   PERM DATUM
SPUD.                                          1970/11/08:   SPUD DATE
UWBI.                                      11000074112201:   UWBI
WELL.                                       EEMSKANAAL- 1:   HOLE NAME
~PARAMETER INFORMATION (log)
LNAM.                                RUN 02 RAW OH 14.75":   NAME
LTYP.                                                 02R:   LOG TYPE
LVSN.                                                   1:   LOG VERSION
BS  .3/4"                                              14:   BIT SIZE
BLI .M                                             1402.5:   BOTTOM DEPTH LOGGED
BHIS.                                            RCCCCCCC:   BRIEF HISTORY
FHIS.              RAW-TIGA/COPY/COPY/COPY/COPY/COPY/COPY:   FULL HISTORY
MRT .C                                                 50:   MAX REC TEMP
DFT .                                         CHALK WATER:   MUD TYPE
RMS .                                                1.44:   RM
MST .C                                                 11:   RM TEMP
RMCS.                                                1.93:   RMC
MCST.C                                                 19:   RMC TEMP
RMFS.                                               0.917:   RMF
MFST.C                                                 19:   RMF TEMP
TCS .                                                 N/A:   TIME SINCE CIRCLN
TLI .M                                                 10:   TOP DEPTH LOGGED
~Curve Information Block
#MNEM.UNIT                                        API CODE    No Description
#=========                                        ========    == ===========
DEPT.M                                       00 001 00 00:     1  DEPTH
BCSL.US/F                                                :     2  Interval Transit Time From Borehole Comp
GRIC.GAPI                                                :     3  GAMMA RAY LOG IN CASING
GRS.GAPI                                                 :     4  GAMMA RAY FROM SONIC LOG
~ASCII
# ...
  980.8464   105.6460  -999.2500     7.6220
  980.9988   104.7180  -999.2500     7.3530
  981.1512   104.8560  -999.2500     6.9120
  981.3036   105.9230  -999.2500     6.5150
  981.4560   106.7870  -999.2500     6.1710
  981.6084   107.2630  -999.2500     6.0450
  981.7608   106.9360  -999.2500     6.1360
  981.9132   105.8390  -999.2500     6.3840
  982.0656   105.6470  -999.2500     6.1970
  982.2180   104.6910  -999.2500     5.7340
  982.3704   104.8810  -999.2500     5.5180
  982.5228   106.2910  -999.2500     5.8690
  982.6752   107.7470  -999.2500     6.2740
  982.8276   108.7630  -999.2500     5.8980
  982.9800   109.5160  -999.2500     5.2140
  983.1324   110.1840  -999.2500     4.6670
  983.2848   110.3570  -999.2500     4.5450
  983.4372   110.7410  -999.2500     4.6610
  983.5896   110.3400  -999.2500     5.0510
  983.7420   109.9320  -999.2500     5.6770
  983.8944   110.0210  -999.2500     5.8700
  984.0468   109.4610  -999.2500     5.5600
  984.1992   108.3450  -999.2500     5.0870
  984.3516   107.5870  -999.2500     4.7830
  984.5040   106.3640  -999.2500     4.6650
  984.6564   105.1600  -999.2500     4.8510
  984.8088   105.2620  -999.2500     5.5120
  984.9612   105.8470  -999.2500     6.4580
  985.1136   106.0270  -999.2500     6.8340
  985.2660   106.2480  -999.2500     6.5080
  985.4184   106.9690  -999.2500     6.0610
  985.5708   108.0900  -999.2500     5.7380
  985.7232   108.5770  -999.2500     6.0080
  985.8756   109.2530  -999.2500     6.7180
  986.0280   110.0190  -999.2500     6.6550
  986.1804   109.7530  -999.2500     6.4040
  986.3328   110.2330  -999.2500     5.9870
  986.4852   109.8090  -999.2500     5.5450
  986.6376   108.9650  -999.2500     5.0060
  986.7900   109.2590  -999.2500     4.5970
  986.9424   108.6420  -999.2500     4.4270
  987.0948   107.9980  -999.2500     4.5380
  987.2472   108.0140  -999.2500     4.8990
  987.3996   107.5320  -999.2500     5.1150
  987.5520   107.1720  -999.2500     5.0380
  987.7044   108.3330  -999.2500     4.8690
  987.8568   108.6310  -999.2500     4.6970
  988.0092   108.5140  -999.2500     4.4750
  988.1616   108.4080  -999.2500     4.1100
  988.3140   108.1890  -999.2500     3.9720
  988.4664   107.4570  -999.2500     4.2100
  988.6188   106.8460  -999.2500     4.2220
  988.7712   106.8040  -999.2500     4.0720
  988.9236   105.5370  -999.2500     3.8980
  989.0760   103.8080  -999.2500     3.9200
  989.2284   102.4020  -999.2500     4.4800
  989.3808   102.5890  -999.2500     5.1090
  989.5332   103.7250  -999.2500     5.5700
  989.6856   105.6930  -999.2500     5.8410
  989.8380   107.4840  -999.2500     6.0360
  989.9904   108.4680  -999.2500     6.0450
  990.1428   108.7870  -999.2500     5.9680
  990.2952   108.6190  -999.2500     5.5790
  990.4476   108.0300  -999.2500     5.2240
  990.6000   107.5000  -999.2500     5.1450
  990.7524   106.3350  -999.2500     5.2360
  990.9048   105.7030  -999.2500     5.3010
  991.0572   104.8320  -999.2500     5.4750
  991.2096   104.2850  -999.2500     5.5720
  991.3620   103.8650  -999.2500     5.1690
  991.5144   103.1090  -999.2500     4.8770
  991.6668   103.1040  -999.2500     4.8600
  991.8192   102.9220  -999.2500     5.2250
  991.9716   103.7610  -999.2500     6.0980
  992.1240   104.1950  -999.2500     6.0630
  992.2764   102.7250  -999.2500     5.1030
  992.4288   101.9450  -999.2500     4.4550
  992.5812   101.6840  -999.2500     4.3660
  992.7336   102.4180  -999.2500     4.8810
  992.8860   102.3570  -999.2500     5.7270
  993.0384   102.2590  -999.2500     6.2890
  993.1908   103.0580  -999.2500     6.5190
  993.3432   103.6060  -999.2500     6.5250
  993.4956   104.9660  -999.2500     6.5250
  993.6480   105.8460  -999.2500     6.5030
  993.8004   105.9980  -999.2500     6.4350
  993.9528   105.1060  -999.2500     6.2360
  994.1052   104.3080  -999.2500     6.0100
  994.2576   104.6140  -999.2500     5.9420
  994.4100   104.5600  -999.2500     6.0240
  994.5624   104.6260  -999.2500     6.1800
  994.7148   105.1080  -999.2500     6.3320
  994.8672   105.3100  -999.2500     6.3850
  995.0196   105.3180  -999.2500     6.3450
  995.1720   105.2050  -999.2500     6.3020
  995.3244   104.9990  -999.2500     6.1210
  995.4768   105.1710  -999.2500     5.6980
  995.6292   106.9120  -999.2500     5.5650
  995.7816   108.1530  -999.2500     6.0530
  995.9340   109.1910  -999.2500     5.8520
  996.0864   110.1330  -999.2500     5.2580
  996.2388   110.5600  -999.2500     4.9330
  996.3912   109.7110  -999.2500     4.9010
  996.5436   108.9300  -999.2500     5.1210
  996.6960   108.5660  -999.2500     5.7260
  996.8484   109.4670  -999.2500     6.4730
  997.0008   110.0820  -999.2500     6.7740
  997.1532   110.4370  -999.2500     5.6610
  997.3056   110.2670  -999.2500     4.9010
  997.4580   110.1550  -999.2500     4.9690
  997.6104   111.5800  -999.2500     5.3110
  997.7628   112.3890  -999.2500     4.9360
  997.9152   112.8130  -999.2500     4.6470
  998.0676   112.2690  -999.2500     4.8300
  998.2200   109.8380  -999.2500     4.6230
  998.3724   107.7940  -999.2500     4.2370
  998.5248   105.4470  -999.2500     4.5370
  998.6772   104.5990  -999.2500     5.1070
  998.8296   105.3410  -999.2500     5.5460
  998.9820   106.8490  -999.2500     5.8500
  999.1344   107.7890  -999.2500     5.9550
  999.2868   107.4340  -999.2500     5.9850
  999.4392   106.7510  -999.2500     5.9250
  999.5916   105.7750  -999.2500     5.9250
  999.7440   104.4950  -999.2500     5.9250
  999.8964   103.3850  -999.2500     5.9250
 1000.0488   102.4520  -999.2500     5.8810
 1000.2012   101.6470  -999.2500     5.6810
 1000.3536   102.9020  -999.2500     5.1130
 1000.5060   104.2260  -999.2500     4.3430
 1000.6584   104.0620  -999.2500     3.9700
 1000.8108   103.3920  -999.2500     4.3950
 1000.9632   101.5370  -999.2500     5.2220
 1001.1156   100.0270  -999.2500     5.4960
 1001.2680   101.4600  -999.2500     5.4450
 1001.4204   102.3180  -999.2500     5.5510
 1001.5728   101.9200  -999.2500     5.8880
 1001.7252   102.0920  -999.2500     6.5110
 1001.8776   101.3030  -999.2500     7.1610
 1002.0300   102.3500  -999.2500     6.8700
 1002.1824   103.3220  -999.2500     5.8320
 1002.3348   102.8360  -999.2500     5.0650
 1002.4872   104.3220  -999.2500     4.8470
 1002.6396   105.4040  -999.2500     5.1620
 1002.7920   106.1760  -999.2500     5.7010
 1002.9444   107.7720  -999.2500     5.9700
 1003.0968   106.9250  -999.2500     6.0450
 1003.2492   107.1510  -999.2500     6.0450
 1003.4016   108.0120  -999.2500     5.9850
 1003.5540   109.4020  -999.2500     5.9460
 1003.7064   110.1350  -999.2500     5.8690
 1003.8588   108.7580  -999.2500     6.1010
 1004.0112   106.9570  -999.2500     6.6820
 1004.1636   105.0520  -999.2500     7.0700
 1004.3160   105.1870  -999.2500     6.9880
 1004.4684   105.8020  -999.2500     6.1950
 1004.6208   106.0300  -999.2500     5.5180
 1004.7732   105.8390  -999.2500     5.2250
 1004.9256   104.9820  -999.2500     5.2650
 1005.0780   104.8340  -999.2500     5.3120
 1005.2304   104.4990  -999.2500     5.4720
 1005.3828   103.9730  -999.2500     6.1790
 1005.5352   104.8510  -999.2500     6.3700
 1005.6876   106.0820  -999.2500     5.9190
 1005.8400   107.1920  -999.2500     5.5110
 1005.9924   108.0690  -999.2500     5.2190
 1006.1448   108.4820  -999.2500     5.1800
 1006.2972   108.4110  -999.2500     5.3220
 1006.4496   109.0170  -999.2500     5.8850
 1006.6020   109.8050  -999.2500     6.6370
 1006.7544   110.0180  -999.2500     7.0240
 1006.9068   109.6590  -999.2500     7.0280
 1007.0592   108.8040  -999.2500     6.8500
 1007.2116   108.2450  -999.2500     6.6180
 1007.3640   108.9130  -999.2500     6.5250
 1007.5164   110.7040  -999.2500     6.5600
 1007.6688   112.2140  -999.2500     6.5130
 1007.8212   113.7650  -999.2500     6.2210
 1007.9736   114.5460  -999.2500     5.7530
 1008.1260   114.3570  -999.2500     5.6700
 1008.2784   113.8140  -999.2500     6.0410
 1008.4308   113.0760  -999.2500     5.9340
