~VERSION INFORMATION
VERS.                                                 2.0:   CWLS Log ASCII Standard-VERSION 2.0
WRAP.                                                  NO:   One line per depth step
~Well Information Block
STRT.M                                            10.0584:   Top Depth
STOP.M                                          1400.8608:   Bottom Depth
STEP.M                                             .15240:   Depth Increment
NULL.                                            -999.250:   Null Value
FLD .                                          EEMSKANAAL:   Field Name
WELL.                                       EEMSKANAAL- 1:   NAME
EDF .m                                               5.58:   ELEV DRILL FLOOR
EPD .                                                   0:   ELEV PERM DATUM
EGL .m                                                -.9:   GROUND LEVEL
LMF .                                                  DF:   LOGS MEAS FROM
COMP.                                                 NAM:   OPERATOR
PDAT.                                                 NAP:   PERM DATUM
SPUD.                                          1970/11/08:   SPUD DATE
UWBI.                                      11000074112201:   UWBI
WELL.                                       EEMSKANAAL- 1:   HOLE NAME
~PARAMETER INFORMATION (log)
LNAM.                                RUN 02 RAW OH 14.75":   NAME
LTYP.                                                 02R:   LOG TYPE
LVSN.                                                   1:   LOG VERSION
BS  .3/4"                                              14:   BIT SIZE
BLI .M                                             1402.5:   BOTTOM DEPTH LOGGED
BHIS.                                            RCCCCCCC:   BRIEF HISTORY
FHIS.              RAW-TIGA/COPY/COPY/COPY/COPY/COPY/COPY:   FULL HISTORY
MRT .C                                                 50:   MAX REC TEMP
DFT .                                         CHALK WATER:   MUD TYPE
RMS .                                                1.44:   RM
MST .C                                                 11:   RM TEMP
RMCS.                                                1.93:   RMC
MCST.C                                                 19:   RMC TEMP
RMFS.                                               0.917:   RMF
MFST.C                                                 19:   RMF TEMP
TCS .                                                 N/A:   TIME SINCE CIRCLN
TLI .M                                                 10:   TOP DEPTH LOGGED
~Curve Information Block
#MNEM.UNIT                                        API CODE    No Description
#=========                                        ========    == ===========
DEPT.M                                       00 001 00 00:     1  DEPTH
BCSL.US/F                                                :     2  Interval Transit Time From Borehole Comp
GRIC.GAPI                                                :     3  GAMMA RAY LOG IN CASING
GRS.GAPI                                                 :     4  GAMMA RAY FROM SONIC LOG
~ASCII
# ...
 1119.5304    98.6560  -999.2500     6.5050
 1119.6828    99.8200  -999.2500     6.4450
 1119.8352   100.0820  -999.2500     6.4460
 1119.9876   101.4870  -999.2500     6.4910
 1120.1400   101.5580  -999.2500     6.5550
 1120.2924    99.8520  -999.2500     6.6100
 1120.4448    98.0010  -999.2500     6.8310
 1120.5972    95.8610  -999.2500     7.1050
 1120.7496    94.5370  -999.2500     7.1550
 1120.9020    94.1830  -999.2500     7.0930
 1121.0544    95.2000  -999.2500     6.8840
 1121.2068    96.4460  -999.2500     6.5790
 1121.3592    97.3700  -999.2500     6.4950
 1121.5116    97.8230  -999.2500     6.5050
 1121.6640    97.1140  -999.2500     6.6910
 1121.8164    98.0160  -999.2500     6.8930
 1121.9688    99.3960  -999.2500     6.6250
 1122.1212   100.8270  -999.2500     6.2780
 1122.2736   102.7400  -999.2500     6.2390
 1122.4260   103.8670  -999.2500     6.3040
 1122.5784   104.1200  -999.2500     6.3150
 1122.7308   103.2700  -999.2500     6.4500
 1122.8832   102.5610  -999.2500     6.6470
 1123.0356   101.6390  -999.2500     6.4090
 1123.1880   100.9820  -999.2500     5.8950
 1123.3404    98.1510  -999.2500     5.2280
 1123.4928    96.5850  -999.2500     4.8870
 1123.6452    95.3510  -999.2500     4.7850
 1123.7976    94.7360  -999.2500     4.9310
 1123.9500    96.5700  -999.2500     5.6320
 1124.1024    97.8440  -999.2500     6.3020
 1124.2548    99.4070  -999.2500     6.3420
 1124.4072   100.9600  -999.2500     6.3150
 1124.5596   102.0440  -999.2500     6.3150
 1124.7120   102.1740  -999.2500     6.3820
 1124.8644   101.0210  -999.2500     6.4350
 1125.0168    99.3870  -999.2500     6.3700
 1125.1692    97.9060  -999.2500     6.1250
 1125.3216    97.4190  -999.2500     5.6160
 1125.4740    97.5750  -999.2500     5.6410
 1125.6264    96.6840  -999.2500     6.3520
 1125.7788    96.5850  -999.2500     6.9770
 1125.9312    95.7910  -999.2500     7.2460
 1126.0836    94.2820  -999.2500     7.3930
 1126.2360    95.6220  -999.2500     7.2830
 1126.3884    98.0100  -999.2500     7.0860
 1126.5408    99.1370  -999.2500     6.6880
 1126.6932    99.6320  -999.2500     6.3280
 1126.8456    99.3260  -999.2500     6.2550
 1126.9980    98.9120  -999.2500     6.2550
 1127.1504    99.8550  -999.2500     6.3150
 1127.3028   101.4920  -999.2500     6.3130
 1127.4552   103.2440  -999.2500     6.2150
 1127.6076   104.2320  -999.2500     6.2780
 1127.7600   102.9120  -999.2500     6.5190
 1127.9124   101.5620  -999.2500     6.1560
 1128.0648   100.7700  -999.2500     5.5220
 1128.2172   100.4840  -999.2500     5.2710
 1128.3696    99.9140  -999.2500     5.6220
 1128.5220    98.8800  -999.2500     5.8530
 1128.6744    97.5510  -999.2500     6.0930
 1128.8268    97.1380  -999.2500     6.1470
 1128.9792    98.0460  -999.2500     6.2390
 1129.1316    98.9320  -999.2500     6.3150
 1129.2840    99.9270  -999.2500     6.3650
 1129.4364   100.1510  -999.2500     6.3530
 1129.5888    98.6640  -999.2500     6.1290
 1129.7412    97.6500  -999.2500     5.8300
 1129.8936    96.8350  -999.2500     5.7010
 1130.0460    96.8040  -999.2500     6.0040
 1130.1984    98.2200  -999.2500     6.1940
 1130.3508    99.8890  -999.2500     6.0280
 1130.5032   101.1810  -999.2500     5.8320
 1130.6556   101.3750  -999.2500     5.6880
 1130.8080    99.8840  -999.2500     5.6500
 1130.9604    98.9680  -999.2500     5.5770
 1131.1128    98.3370  -999.2500     5.5430
 1131.2652    98.4430  -999.2500     5.6240
 1131.4176    99.6830  -999.2500     5.6520
 1131.5700   100.2590  -999.2500     5.6080
 1131.7224   100.5680  -999.2500     5.3360
 1131.8748   100.3680  -999.2500     5.1860
 1132.0272    98.8380  -999.2500     5.1790
 1132.1796    97.4160  -999.2500     5.3210
 1132.3320    95.7260  -999.2500     5.6660
 1132.4844    94.7490  -999.2500     5.8930
 1132.6368    94.6870  -999.2500     5.8620
 1132.7892    95.3720  -999.2500     5.7250
 1132.9416    95.0270  -999.2500     5.5800
 1133.0940    95.4120  -999.2500     5.1930
 1133.2464    94.4120  -999.2500     4.9310
 1133.3988    93.2000  -999.2500     4.8750
 1133.5512    92.5870  -999.2500     5.0270
 1133.7036    91.4990  -999.2500     5.5040
 1133.8560    91.7970  -999.2500     5.9890
 1134.0084    93.9230  -999.2500     5.9100
 1134.1608    96.8240  -999.2500     5.6450
 1134.3132    99.2280  -999.2500     5.7740
 1134.4656   101.0000  -999.2500     6.3130
 1134.6180   100.8020  -999.2500     6.4580
 1134.7704    99.4920  -999.2500     6.4740
 1134.9228    99.1020  -999.2500     6.3950
 1135.0752    99.6530  -999.2500     6.3260
 1135.2276   100.5640  -999.2500     6.0690
 1135.3800   100.8580  -999.2500     5.7030
 1135.5324   100.0670  -999.2500     5.2910
 1135.6848    98.9800  -999.2500     5.1770
 1135.8372    98.1870  -999.2500     5.2350
 1135.9896    97.6250  -999.2500     5.1810
 1136.1420    97.1140  -999.2500     5.1150
 1136.2944    96.4850  -999.2500     5.3130
 1136.4468    97.1560  -999.2500     5.9430
 1136.5992    96.1560  -999.2500     6.3740
 1136.7516    97.1920  -999.2500     6.0010
 1136.9040    97.7610  -999.2500     5.4650
 1137.0564    97.0550  -999.2500     5.3110
 1137.2088    96.3980  -999.2500     5.7370
 1137.3612    96.1000  -999.2500     5.3460
 1137.5136    97.3650  -999.2500     4.9450
 1137.6660    99.0620  -999.2500     6.0130
 1137.8184   100.5740  -999.2500     6.1350
 1137.9708   100.9600  -999.2500     6.0930
 1138.1232    99.6000  -999.2500     5.9300
 1138.2756    98.1280  -999.2500     5.8950
 1138.4280    97.1550  -999.2500     5.7620
 1138.5804    95.6640  -999.2500     5.7180
 1138.7328    95.1910  -999.2500     5.7790
 1138.8852    95.1350  -999.2500     5.9480
 1139.0376    96.2060  -999.2500     5.8720
 1139.1900    97.4360  -999.2500     5.7540
 1139.3424    98.1690  -999.2500     5.2880
 1139.4948    98.1290  -999.2500     4.9870
 1139.6472    96.9820  -999.2500     4.7470
 1139.7996    95.9120  -999.2500     4.8000
 1139.9520    94.3480  -999.2500     5.2870
 1140.1044    93.9670  -999.2500     5.7070
 1140.2568    94.2160  -999.2500     5.8820
 1140.4092    93.0360  -999.2500     5.8890
 1140.5616    92.7740  -999.2500     5.8350
 1140.7140    91.6710  -999.2500     5.6980
 1140.8664    91.3920  -999.2500     5.4660
 1141.0188    92.0530  -999.2500     5.2950
 1141.1712    91.9180  -999.2500     5.2950
 1141.3236    92.3040  -999.2500     5.3450
 1141.4760    93.0810  -999.2500     5.5630
 1141.6284    94.5720  -999.2500     6.0320
 1141.7808    96.4960  -999.2500     6.4430
 1141.9332    98.1390  -999.2500     6.8050
 1142.0856    99.2360  -999.2500     6.9660
 1142.2380    99.6590  -999.2500     6.8430
 1142.3904    99.7310  -999.2500     6.4650
 1142.5428    98.7700  -999.2500     6.0920
 1142.6952    97.8040  -999.2500     5.7980
 1142.8476    97.8740  -999.2500     5.7150
 1143.0000    98.4500  -999.2500     5.7300
 1143.1524    99.0450  -999.2500     5.6290
 1143.3048    99.4230  -999.2500     5.3490
 1143.4572    98.7870  -999.2500     5.1940
 1143.6096    98.7080  -999.2500     5.1750
 1143.7620    99.3570  -999.2500     5.1750
 1143.9144   100.6220  -999.2500     5.1660
 1144.0668   101.4640  -999.2500     5.1150
 1144.2192   102.3260  -999.2500     5.2820
 1144.3716   102.9050  -999.2500     5.1400
 1144.5240   102.6280  -999.2500     4.8260
 1144.6764   101.8280  -999.2500     4.9750
 1144.8288   101.7590  -999.2500     5.1950
 1144.9812   102.3530  -999.2500     5.4650
 1145.1336   103.1680  -999.2500     5.6600
 1145.2860   104.2190  -999.2500     5.8160
 1145.4384   105.4850  -999.2500     5.8350
 1145.5908   106.2290  -999.2500     5.9170
 1145.7432   107.3630  -999.2500     6.0920
 1145.8956   108.1970  -999.2500     6.1640
 1146.0480   108.1890  -999.2500     6.2840
 1146.2004   108.9500  -999.2500     6.3150
 1146.3528   108.7550  -999.2500     6.2910
 1146.5052   108.7820  -999.2500     5.9380
 1146.6576   109.1210  -999.2500     5.2510
 1146.8100   107.7390  -999.2500     5.1790
 1146.9624   107.5720  -999.2500     5.2760
 1147.1148   106.8860  -999.2500     5.4240
