~VERSION INFORMATION
VERS.                                                 2.0:   CWLS Log ASCII Standard-VERSION 2.0
WRAP.                                                  NO:   One line per depth step
~Well Information Block
STRT.M                                          1406.0424:   Top Depth
STOP.M                                          1903.9332:   Bottom Depth
STEP.M                                             .15240:   Depth Increment
NULL.                                            -999.250:   Null Value
FLD .                                          EEMSKANAAL:   Field Name
WELL.                                       EEMSKANAAL- 1:   NAME
EDF .m                                               5.58:   ELEV DRILL FLOOR
EPD .                                                   0:   ELEV PERM DATUM
EGL .m                                                -.9:   GROUND LEVEL
LMF .                                                  DF:   LOGS MEAS FROM
COMP.                                                 NAM:   OPERATOR
PDAT.                                                 NAP:   PERM DATUM
SPUD.                                          1970/11/08:   SPUD DATE
UWBI.                                      11000074112201:   UWBI
WELL.                                       EEMSKANAAL- 1:   HOLE NAME
~PARAMETER INFORMATION (log)
LNAM.                                RUN 07 RAW OH 9.625":   NAME
LTYP.                                                 07R:   LOG TYPE
LVSN.                                                   1:   LOG VERSION
BS  .5/8"                                               9:   BIT SIZE
BLI .M                                               2950:   BOTTOM DEPTH LOGGED
BHIS.                                            RCCCCCCC:   BRIEF HISTORY
FHIS.              RAW-TIGA/COPY/COPY/COPY/COPY/COPY/COPY:   FULL HISTORY
MRT .                                                    :   MAX REC TEMP
DFT .                                          SALT SPERS:   MUD TYPE
RMS .                                               0.074:   RM
MST .C                                                 26:   RM TEMP
RMCS.                                               0.144:   RMC
MCST.C                                                 17:   RMC TEMP
RMFS.                                               0.059:   RMF
MFST.C                                                 26:   RMF TEMP
TCS .                                                 N/A:   TIME SINCE CIRCLN
TLI .M                                             1406.5:   TOP DEPTH LOGGED
~Curve Information Block
#MNEM.UNIT                                        API CODE    No Description
#=========                                        ========    == ===========
DEPT.M                                       00 001 00 00:     1  DEPTH
LL9D.OHMM                                                :     2  Dual Laterolog 9 deep
LL9S.OHMM                                                :     3  Dual Laterolog 9 shallow
MSFL.OHMM                                                :     4  MICRO SPHERICALLY FOCUSSED LOG
~ASCII
# ...
 1738.8840     1.3710     1.2120     1.8740
 1739.0364     1.3680     1.2120     1.9030
 1739.1888     1.3710     1.2130     1.8720
 1739.3412     1.3850     1.2250     1.8100
 1739.4936     1.4340     1.2580     1.8350
 1739.6460     1.5450     1.3360     1.9160
 1739.7984     1.6000     1.4020     1.9620
 1739.9508     1.5830     1.4050     1.8070
 1740.1032     1.4850     1.3560     2.2530
 1740.2556     1.4220     1.2960     2.0970
 1740.4080     1.3880     1.2550     1.7910
 1740.5604     1.3770     1.2360     1.6180
 1740.7128     1.3780     1.2300     1.5960
 1740.8652     1.3860     1.2320     1.7120
 1741.0176     1.3940     1.2340     1.6550
 1741.1700     1.3980     1.2400     1.6050
 1741.3224     1.3990     1.2430     1.7040
 1741.4748     1.3990     1.2460     1.6830
 1741.6272     1.4210     1.2720     1.6220
 1741.7796     1.5220     1.3290     1.6020
 1741.9320     1.6070     1.3880     1.7100
 1742.0844     1.5990     1.4060     1.9790
 1742.2368     1.5520     1.3970     2.1640
 1742.3892     1.4990     1.3600     2.7820
 1742.5416     1.4880     1.3230     1.9390
 1742.6940     1.4870     1.3180     1.6820
 1742.8464     1.4930     1.3390     1.8130
 1742.9988     1.5000     1.3720     2.0310
 1743.1512     1.5340     1.4000     1.8940
 1743.3036     1.5610     1.4170     1.7620
 1743.4560     1.5620     1.4040     1.9180
 1743.6084     1.5150     1.3680     1.8890
 1743.7608     1.4440     1.3080     1.9920
 1743.9132     1.4140     1.2660     1.9450
 1744.0656     1.3990     1.2600     1.6660
 1744.2180     1.4040     1.2710     1.7580
 1744.3704     1.4560     1.3250     1.6710
 1744.5228     1.4880     1.3690     1.5550
 1744.6752     1.4360     1.3640     1.6470
 1744.8276     1.3650     1.2920     2.0960
 1744.9800     1.3510     1.2630     1.9920
 1745.1324     1.3680     1.2690     1.9350
 1745.2848     1.3990     1.2830     1.8520
 1745.4372     1.4220     1.3140     1.4920
 1745.5896     1.4230     1.3270     1.5820
 1745.7420     1.4050     1.3210     1.8600
 1745.8944     1.3810     1.3130     1.9380
 1746.0468     1.3730     1.3120     1.6350
 1746.1992     1.3730     1.3120     1.8890
 1746.3516     1.3750     1.3140     1.5520
 1746.5040     1.3820     1.3270     1.5550
 1746.6564     1.4180     1.3590     1.6370
 1746.8088     1.5040     1.4290     1.6170
 1746.9612     1.6650     1.5790     1.6620
 1747.1136     1.8810     1.6610     1.8530
 1747.2660     1.8910     1.6760     1.9250
 1747.4184     1.8100     1.6320     3.0360
 1747.5708     1.4870     1.4490     3.5790
 1747.7232     1.3970     1.3300     2.8200
 1747.8756     1.3890     1.3010     2.0740
 1748.0280     1.3970     1.3000     1.5970
 1748.1804     1.4170     1.3100     1.5010
 1748.3328     1.4160     1.3210     1.6740
 1748.4852     1.4100     1.3290     1.9660
 1748.6376     1.4150     1.3250     1.8940
 1748.7900     1.4410     1.3160     1.7340
 1748.9424     1.4730     1.3340     1.6690
 1749.0948     1.4840     1.3540     1.6590
 1749.2472     1.4530     1.3270     1.7480
 1749.3996     1.3990     1.2670     1.8420
 1749.5520     1.3890     1.2590     1.7000
 1749.7044     1.3980     1.2650     1.6820
 1749.8568     1.4350     1.2850     1.7670
 1750.0092     1.4740     1.3190     1.9560
 1750.1616     1.5100     1.3550     2.1370
 1750.3140     1.5240     1.3710     2.1330
 1750.4664     1.5260     1.3720     1.9610
 1750.6188     1.5360     1.3880     1.9300
 1750.7712     1.6300     1.4670     2.1560
 1750.9236     1.7170     1.5260     2.2670
 1751.0760     1.7280     1.5310     2.2190
 1751.2284     1.6870     1.5160     2.1180
 1751.3808     1.6280     1.4700     2.8460
 1751.5332     1.6280     1.4590     2.7960
 1751.6856     1.6670     1.4750     2.1880
 1751.8380     1.7230     1.5480     2.1190
 1751.9904     1.7060     1.5620     2.2380
 1752.1428     1.6090     1.4980     2.6520
 1752.2952     1.5250     1.4010     2.5770
 1752.4476     1.4720     1.3320     2.2070
 1752.6000     1.4440     1.2830     2.1790
 1752.7524     1.4400     1.2680     2.0080
 1752.9048     1.4800     1.3020     1.8140
 1753.0572     1.5960     1.4250     1.7880
 1753.2096     1.7190     1.5410     1.9850
 1753.3620     1.7590     1.5650     2.1360
 1753.5144     1.7100     1.5250     2.4190
 1753.6668     1.6340     1.4570     2.2300
 1753.8192     1.5750     1.4070     2.8400
 1753.9716     1.5300     1.3750     2.0800
 1754.1240     1.4910     1.3390     2.2120
 1754.2764     1.4630     1.3100     2.2180
 1754.4288     1.4560     1.2950     1.9570
 1754.5812     1.4700     1.3010     1.9050
 1754.7336     1.5330     1.3570     1.9060
 1754.8860     1.6020     1.4510     1.9510
 1755.0384     1.6000     1.4550     2.5890
 1755.1908     1.5650     1.4220     2.3200
 1755.3432     1.5270     1.3750     2.4810
 1755.4956     1.5160     1.3590     2.2990
 1755.6480     1.5450     1.3730     2.1160
 1755.8004     1.6060     1.4040     2.1880
 1755.9528     1.6820     1.4910     2.4090
 1756.1052     1.7580     1.5830     2.5450
 1756.2576     1.7990     1.6410     2.5090
 1756.4100     1.7800     1.6370     2.4920
 1756.5624     1.6600     1.5810     2.6570
 1756.7148     1.4940     1.4570     3.4870
 1756.8672     1.3990     1.3690     2.7140
 1757.0196     1.3760     1.3660     2.2640
 1757.1720     1.4630     1.4270     2.1890
 1757.3244     1.6900     1.6710     2.2480
 1757.4768     1.8170     1.8400     2.1820
 1757.6292     1.8290     1.8680     2.1360
 1757.7816     1.7260     1.8390     2.7220
 1757.9340     1.5860     1.7530     4.2800
 1758.0864     1.4840     1.6560     3.7350
 1758.2388     1.4530     1.6050     2.1310
 1758.3912     1.4650     1.5970     2.1710
 1758.5436     1.5510     1.6400     1.8990
 1758.6960     1.6420     1.7650     2.2660
 1758.8484     1.7340     1.9640     2.3090
 1759.0008     1.8210     2.1340     3.0390
 1759.1532     1.8670     2.2460     2.8310
 1759.3056     1.8890     2.2780     2.4280
 1759.4580     1.7970     2.0360     3.1640
 1759.6104     1.5810     1.8610     3.6620
 1759.7628     1.5710     1.8460     3.3200
 1759.9152     1.6810     1.9110     2.2160
 1760.0676     2.0570     2.2680     2.0760
 1760.2200     2.6610     3.2460     2.2320
 1760.3724     3.8900     4.0840     4.9690
 1760.5248     3.3990     3.5850    41.7340
 1760.6772     2.7790     2.5120    40.2460
 1760.8296     2.0940     2.2010     9.6880
 1760.9820     1.9320     2.1460     2.5540
 1761.1344     2.0130     2.2420     2.3280
 1761.2868     2.1070     2.3470     2.8480
 1761.4392     2.0850     2.3210     3.1140
 1761.5916     1.9850     2.2470     2.9110
 1761.7440     1.9220     2.1430     3.2840
 1761.8964     1.8780     2.0450     3.3130
 1762.0488     1.8440     1.9400     2.5050
 1762.2012     1.7750     1.8520     2.3030
 1762.3536     1.7320     1.7750     3.6950
 1762.5060     1.7470     1.7620     2.4000
 1762.6584     1.8800     1.7960     2.1210
 1762.8108     2.0360     1.8690     2.0790
 1762.9632     2.1240     1.9610     2.2500
 1763.1156     2.1920     2.0110     4.1080
 1763.2680     2.2490     2.0240     3.3720
 1763.4204     2.2810     2.0220     2.6880
 1763.5728     2.2590     1.9880     2.8200
 1763.7252     2.0270     1.8940     5.1490
 1763.8776     1.8070     1.7100     3.3150
 1764.0300     1.7410     1.5760     2.3130
 1764.1824     1.7680     1.5580     2.2960
 1764.3348     1.7960     1.6090     2.3630
 1764.4872     1.7980     1.6280     2.3610
 1764.6396     1.7870     1.5900     2.4940
 1764.7920     1.7340     1.5260     2.6630
 1764.9444     1.6810     1.4780     2.6160
 1765.0968     1.6550     1.4230     2.3810
 1765.2492     1.6540     1.4270     2.3000
 1765.4016     1.6620     1.4630     2.2520
 1765.5540     1.6920     1.4900     2.0600
 1765.7064     1.7240     1.5180     2.5630
 1765.8588     1.7040     1.5350     2.3080
 1766.0112     1.6820     1.5320     2.1640
 1766.1636     1.6600     1.5080     2.8910
 1766.3160     1.5730     1.4020     2.3230
 1766.4684     1.5270     1.3470     2.2140
