~VERSION INFORMATION
VERS.                                                 2.0:   CWLS Log ASCII Standard-VERSION 2.0
WRAP.                                                  NO:   One line per depth step
~Well Information Block
STRT.M                                          1789.0236:   Top Depth
STOP.M                                          2779.9284:   Bottom Depth
STEP.M                                             .15240:   Depth Increment
NULL.                                            -999.250:   Null Value
FLD .                                          EEMSKANAAL:   Field Name
WELL.                                       EEMSKANAAL- 2:   NAME
APD .M                                               5.62:   ABOVE PERM DATUM
CTRY.                                                  NE:   COUNTRY
EDF .m                                               5.62:   ELEV DRILL FLOOR
EPD .                                                   0:   ELEV PERM DATUM
EGL .m                                              -1.06:   GROUND LEVEL
LMF .                                                  DF:   LOGS MEAS FROM
COMP.                                                 NAM:   OPERATOR
PDAT.                                                 NAP:   PERM DATUM
SPUD.                                          1971/03/17:   SPUD DATE
STAT.                                           Unknown m:   STATE
UWBI.                                      11000074112601:   UWBI
WELL.                                       EEMSKANAAL- 2:   HOLE NAME
~PARAMETER INFORMATION (log)
LNAM.                                RUN 01 RAW OH 9 5/8":   NAME
LTYP.                                                 01R:   LOG TYPE
LVSN.                                                   1:   LOG VERSION
BS  .5/8"                                               9:   BIT SIZE
BLI .M                                             2778.0:   BOTTOM DEPTH LOGGED
BHIS.                                                MCCC:   BRIEF HISTORY
FHIS.                                     MERGE/COPY/COPY:   FULL HISTORY
MRT .DEGC                                              84:   MAX REC TEMP
DFD .G/CC                                            1.54:   MUD DENSITY
DFT .                                   SALT SAT SPERSENE:   MUD TYPE
RMS .                                                    :   RM
MST .                                                    :   RM TEMP
RMCS.                                                    :   RMC
MCST.                                                    :   RMC TEMP
RMFS.                                                    :   RMF
MFST.                                                    :   RMF TEMP
TCS .                                                 N/A:   TIME SINCE CIRCLN
TLI .M                                             1800.0:   TOP DEPTH LOGGED
~Curve Information Block
#MNEM.UNIT                                        API CODE    No Description
#=========                                        ========    == ===========
DEPT.M                                       00 001 00 00:     1  DEPTH
CALF.IN                                                  :     2  CALIPER FROM FORMATION DENSITY LOG
FDC.G/C3                                                 :     3  Formation Density Log (Compensated Open
GR.API                                                   :     4  Gamma Ray
~ASCII
# ...
 2094.1284    10.0560     2.0690     4.6290
 2094.2808    10.0510     2.0670     4.6980
 2094.4332    10.0440     2.0630     4.6900
 2094.5856    10.0410     2.0640     4.5730
 2094.7380    10.0410     2.0690     4.5080
 2094.8904    10.0480     2.0760     4.8030
 2095.0428    10.0520     2.0720     5.2710
 2095.1952    10.0570     2.0680     5.5860
 2095.3476    10.0570     2.0740     5.2300
 2095.5000    10.0570     2.0750     5.0100
 2095.6524    10.0570     2.0620     4.9790
 2095.8048    10.0570     2.0640     5.0110
 2095.9572    10.0530     2.0780     5.0160
 2096.1096    10.0530     2.0770     4.5420
 2096.2620    10.0590     2.0880     4.2020
 2096.4144    10.0660     2.0810     4.4570
 2096.5668    10.0700     2.0780     4.7200
 2096.7192    10.0580     2.0800     4.9020
 2096.8716    10.0540     2.0890     4.9930
 2097.0240    10.0550     2.1020     4.9180
 2097.1764    10.0260     2.1010     4.7700
 2097.3288     9.9970     2.0970     4.5620
 2097.4812    10.0090     2.0960     4.1240
 2097.6336     9.9920     2.0960     3.9040
 2097.7860    10.0110     2.0980     3.5460
 2097.9384    10.0360     2.0930     4.1120
 2098.0908    10.0560     2.0970     4.1780
 2098.2432    10.0420     2.0940     3.8630
 2098.3956    10.0250     2.0900     3.9240
 2098.5480    10.0440     2.0920     4.4990
 2098.7004    10.0680     2.0920     5.0710
 2098.8528    10.0770     2.0910     5.4190
 2099.0052    10.0660     2.0900     5.4640
 2099.1576    10.0400     2.0960     4.6090
 2099.3100    10.0220     2.1000     4.0530
 2099.4624    10.0250     2.1000     4.0760
 2099.6148    10.0380     2.1120     4.5960
 2099.7672    10.0450     2.1210     4.8910
 2099.9196    10.0400     2.1220     4.8550
 2100.0720    10.0110     2.1060     4.7530
 2100.2244     9.9900     2.1010     5.2920
 2100.3768     9.9890     2.1080     5.8620
 2100.5292    10.0030     2.1210     6.0260
 2100.6816    10.0150     2.1150     5.8070
 2100.8340    10.0260     2.1110     5.2070
 2100.9864    10.0480     2.1120     4.6350
 2101.1388    10.0540     2.1200     5.0300
 2101.2912    10.0270     2.1230     5.6850
 2101.4436    10.0270     2.1110     6.0480
 2101.5960    10.0380     2.0990     6.0920
 2101.7484    10.0490     2.1040     5.6140
 2101.9008    10.0520     2.1110     4.6200
 2102.0532    10.0300     2.1060     4.8850
 2102.2056    10.0190     2.0970     5.8700
 2102.3580    10.0140     2.1040     5.2410
 2102.5104    10.0220     2.1150     4.0750
 2102.6628    10.0270     2.1370     4.0790
 2102.8152    10.0070     2.1550     5.0020
 2102.9676    10.0060     2.1470     5.2140
 2103.1200    10.0150     2.1110     4.8450
 2103.2724    10.0250     2.0740     4.5670
 2103.4248    10.0370     2.0650     4.8970
 2103.5772    10.0510     2.0610     5.0650
 2103.7296    10.0560     2.0680     5.3620
 2103.8820    10.0570     2.0610     5.9580
 2104.0344    10.0550     2.0600     5.9120
 2104.1868    10.0520     2.0540     5.4330
 2104.3392    10.0470     2.0540     5.0410
 2104.4916    10.0360     2.0700     4.9950
 2104.6440    10.0190     2.0840     5.2850
 2104.7964    10.0050     2.0690     5.7050
 2104.9488    10.0020     2.0640     5.8990
 2105.1012    10.0100     2.0640     5.1680
 2105.2536    10.0220     2.0630     4.1740
 2105.4060    10.0350     2.0560     3.5850
 2105.5584    10.0410     2.0640     3.6810
 2105.7108    10.0410     2.0670     3.9480
 2105.8632    10.0410     2.0570     4.2750
 2106.0156    10.0410     2.0600     4.5170
 2106.1680    10.0380     2.0640     4.4990
 2106.3204    10.0350     2.0580     4.3340
 2106.4728    10.0330     2.0500     3.8440
 2106.6252    10.0330     2.0550     3.5440
 2106.7776    10.0330     2.0610     3.7510
 2106.9300    10.0330     2.0600     4.1940
 2107.0824    10.0330     2.0590     4.4250
 2107.2348    10.0360     2.0550     4.1820
 2107.3872    10.0430     2.0530     3.8520
 2107.5396    10.0480     2.0540     3.9200
 2107.6920    10.0490     2.0550     4.4060
 2107.8444    10.0480     2.0430     5.1900
 2107.9968    10.0440     2.0380     5.5750
 2108.1492    10.0410     2.0440     5.7150
 2108.3016    10.0370     2.0460     5.1540
 2108.4540    10.0350     2.0480     4.7580
 2108.6064    10.0310     2.0430     5.0800
 2108.7588    10.0230     2.0410     5.4500
 2108.9112    10.0130     2.0530     4.6730
 2109.0636    10.0150     2.0580     4.4280
 2109.2160    10.0420     2.0570     4.7750
 2109.3684    10.0690     2.0580     5.4330
 2109.5208    10.0650     2.0640     5.9780
 2109.6732    10.0350     2.0700     6.2460
 2109.8256    10.0120     2.0660     6.1560
 2109.9780    10.0160     2.0680     5.5440
 2110.1304    10.0260     2.0730     5.2080
 2110.2828    10.0360     2.0710     4.9520
 2110.4352    10.0390     2.0710     4.2800
 2110.5876    10.0330     2.0740     4.0160
 2110.7400    10.0190     2.0840     4.0980
 2110.8924    10.0050     2.0860     4.4470
 2111.0448    10.0090     2.0870     4.7740
 2111.1972    10.0260     2.0970     4.8460
 2111.3496    10.0500     2.0800     4.8300
 2111.5020    10.0720     2.0880     5.1100
 2111.6544    10.0620     2.0840     5.8250
 2111.8068    10.0420     2.0790     5.5250
 2111.9592    10.0370     2.0710     5.2260
 2112.1116    10.0450     2.0700     5.6660
 2112.2640    10.0340     2.0830     5.9320
 2112.4164    10.0270     2.0920     5.8010
 2112.5688    10.0390     2.0850     5.2610
 2112.7212    10.0260     2.0930     4.8530
 2112.8736    10.0000     2.0870     4.7700
 2113.0260     9.9950     2.0850     4.4670
 2113.1784    10.0150     2.0870     3.9860
 2113.3308    10.0450     2.0880     3.5700
 2113.4832    10.0400     2.0730     3.3600
 2113.6356    10.0220     2.0650     3.5580
 2113.7880    10.0400     2.0670     4.2290
 2113.9404    10.0270     2.0680     5.4100
 2114.0928    10.0330     2.0620     6.6370
 2114.2452    10.0190     2.0550     6.3240
 2114.3976    10.0220     2.0560     4.8970
 2114.5500    10.0250     2.0690     4.5750
 2114.7024    10.0090     2.0740     5.0340
 2114.8548    10.0330     2.0690     5.5890
 2115.0072    10.0240     2.0680     5.9700
 2115.1596    10.0140     2.0770     6.0060
 2115.3120    10.0250     2.0820     6.0230
 2115.4644    10.0090     2.0800     5.8640
 2115.6168    10.0300     2.0820     4.9640
 2115.7692     9.9950     2.0810     4.1570
 2115.9216    10.0170     2.0780     4.4970
 2116.0740    10.0460     2.0850     5.0750
 2116.2264    10.0130     2.0820     4.3250
 2116.3788    10.0160     2.0910     4.0880
 2116.5312     9.9770     2.0890     4.5730
 2116.6836     9.9790     2.0810     4.8750
 2116.8360    10.0030     2.0820     4.2660
 2116.9884    10.0010     2.0800     3.7840
 2117.1408    10.0040     2.0900     4.3150
 2117.2932    10.0430     2.1100     5.8230
 2117.4456    10.0220     2.1190     6.2500
 2117.5980    10.0110     2.1220     5.3240
 2117.7504    10.0260     2.1320     4.8370
 2117.9028     9.9860     2.1400     4.6320
 2118.0552     9.9830     2.1440     4.5860
 2118.2076     9.9990     2.1400     4.7690
 2118.3600    10.0160     2.0890     5.1240
 2118.5124    10.0330     2.0470     5.5850
 2118.6648    10.0520     2.0470     5.6520
 2118.8172    10.0750     2.0470     5.2590
 2118.9696    10.0780     2.0370     5.0640
 2119.1220    10.0700     2.0400     5.2810
 2119.2744    10.0570     2.0520     4.8690
 2119.4268    10.0450     2.0550     4.8790
 2119.5792    10.0410     2.0540     5.2930
 2119.7316    10.0380     2.0470     6.1250
 2119.8840    10.0340     2.0520     6.7010
 2120.0364    10.0330     2.0600     6.1430
 2120.1888    10.0340     2.0660     5.1120
 2120.3412    10.0380     2.0660     4.3940
 2120.4936    10.0450     2.0600     3.9610
 2120.6460    10.0510     2.0550     3.9660
 2120.7984    10.0590     2.0480     4.0640
 2120.9508    10.0680     2.0510     4.2910
 2121.1032    10.0730     2.0540     4.5090
 2121.2556    10.0660     2.0530     4.8700
 2121.4080    10.0650     2.0550     5.1070
 2121.5604    10.0660     2.0520     4.4940
 2121.7128    10.0690     2.0520     3.6240
