~VERSION INFORMATION
VERS.                                                 2.0:   CWLS Log ASCII Standard-VERSION 2.0
WRAP.                                                  NO:   One line per depth step
~Well Information Block
STRT.M                                           404.0124:   Top Depth
STOP.M                                          1403.9088:   Bottom Depth
STEP.M                                             .15240:   Depth Increment
NULL.                                            -999.250:   Null Value
FLD .                                          EEMSKANAAL:   Field Name
WELL.                                       EEMSKANAAL- 1:   NAME
EDF .m                                               5.58:   ELEV DRILL FLOOR
EPD .                                                   0:   ELEV PERM DATUM
EGL .m                                                -.9:   GROUND LEVEL
LMF .                                                  DF:   LOGS MEAS FROM
COMP.                                                 NAM:   OPERATOR
PDAT.                                                 NAP:   PERM DATUM
SPUD.                                          1970/11/08:   SPUD DATE
UWBI.                                      11000074112201:   UWBI
WELL.                                       EEMSKANAAL- 1:   HOLE NAME
~PARAMETER INFORMATION (log)
LNAM.                                RUN 01 RAW OH 14.75":   NAME
LTYP.                                                 01R:   LOG TYPE
LVSN.                                                   1:   LOG VERSION
BS  .3/4"                                              14:   BIT SIZE
BLI .M                                             1406.2:   BOTTOM DEPTH LOGGED
BHIS.                                            RCCCCCCC:   BRIEF HISTORY
FHIS.              RAW-TIGA/COPY/COPY/COPY/COPY/COPY/COPY:   FULL HISTORY
MRT .C                                                 50:   MAX REC TEMP
DFT .                                         CHALK WATER:   MUD TYPE
RMS .                                                1.44:   RM
MST .C                                                 11:   RM TEMP
RMCS.                                                1.93:   RMC
MCST.C                                                 19:   RMC TEMP
RMFS.                                               0.917:   RMF
MFST.C                                                 19:   RMF TEMP
TCS .                                                 N/A:   TIME SINCE CIRCLN
TLI .M                                              403.6:   TOP DEPTH LOGGED
~Curve Information Block
#MNEM.UNIT                                        API CODE    No Description
#=========                                        ========    == ===========
DEPT.M                                       00 001 00 00:     1  DEPTH
DILD.OHMM                                                :     2  DUAL INDUCTION LOG DEEP RESISTIVITY
SN.OHMM                                                  :     3  SHORT NORMAL
~ASCII
# ...
  737.3112      .7620      .8230
  737.4636      .7620      .8240
  737.6160      .7620      .8270
  737.7684      .7620      .8310
  737.9208      .7640      .8350
  738.0732      .7700      .8410
  738.2256      .7700      .8430
  738.3780      .7700      .8420
  738.5304      .7700      .8350
  738.6828      .7700      .8200
  738.8352      .7700      .8050
  738.9876      .7700      .8010
  739.1400      .7700      .8020
  739.2924      .7700      .8100
  739.4448      .7700      .8280
  739.5972      .7700      .8390
  739.7496      .7670      .8410
  739.9020      .7620      .8400
  740.0544      .7620      .8350
  740.2068      .7540      .8340
  740.3592      .7500      .8350
  740.5116      .7460      .8360
  740.6640      .7460      .8360
  740.8164      .7460      .8360
  740.9688      .7460      .8350
  741.1212      .7450      .8350
  741.2736      .7390      .8340
  741.4260      .7310      .8340
  741.5784      .7260      .8340
  741.7308      .7220      .8340
  741.8832      .7240      .8340
  742.0356      .7290      .8340
  742.1880      .7360      .8330
  742.3404      .7410      .8320
  742.4928      .7460      .8290
  742.6452      .7460      .8280
  742.7976      .7440      .8260
  742.9500      .7410      .8250
  743.1024      .7360      .8240
  743.2548      .7320      .8230
  743.4072      .7300      .8220
  743.5596      .7290      .8180
  743.7120      .7260      .8150
  743.8644      .7220      .8110
  744.0168      .7220      .8070
  744.1692      .7220      .8030
  744.3216      .7220      .8020
  744.4740      .7220      .8010
  744.6264      .7220      .8010
  744.7788      .7220      .8010
  744.9312      .7220      .8010
  745.0836      .7220      .8000
  745.2360      .7220      .8000
  745.3884      .7220      .8010
  745.5408      .7250      .8010
  745.6932      .7300      .8020
  745.8456      .7300      .8020
  745.9980      .7300      .8030
  746.1504      .7300      .8030
  746.3028      .7300      .8040
  746.4552      .7260      .8040
  746.6076      .7220      .8040
  746.7600      .7220      .8030
  746.9124      .7220      .8030
  747.0648      .7170      .7930
  747.2172      .7140      .7910
  747.3696      .7140      .7900
  747.5220      .7140      .7920
  747.6744      .7140      .7960
  747.8268      .7140      .7990
  747.9792      .7140      .8010
  748.1316      .7140      .8040
  748.2840      .7140      .8040
  748.4364      .7140      .8040
  748.5888      .7140      .8050
  748.7412      .7140      .8060
  748.8936      .7140      .8070
  749.0460      .7140      .8060
  749.1984      .7140      .8040
  749.3508      .7080      .8020
  749.5032      .7060      .8000
  749.6556      .7060      .8000
  749.8080      .7100      .8010
  749.9604      .7140      .8030
  750.1128      .7140      .8060
  750.2652      .7140      .8100
  750.4176      .7220      .8140
  750.5700      .7220      .8170
  750.7224      .7240      .8190
  750.8748      .7360      .8220
  751.0272      .7380      .8260
  751.1796      .7380      .8320
  751.3320      .7380      .8380
  751.4844      .7380      .8450
  751.6368      .7380      .8450
  751.7892      .7430      .8430
  751.9416      .7460      .8370
  752.0940      .7460      .8300
  752.2464      .7460      .8240
  752.3988      .7460      .8190
  752.5512      .7460      .8170
  752.7036      .7460      .8180
  752.8560      .7460      .8200
  753.0084      .7460      .8200
  753.1608      .7460      .8190
  753.3132      .7460      .8160
  753.4656      .7460      .8100
  753.6180      .7450      .8020
  753.7704      .7390      .7880
  753.9228      .7390      .7830
  754.0752      .7560      .7900
  754.2276      .7730      .8040
  754.3800      .7850      .8210
  754.5324      .7820      .8360
  754.6848      .7780      .8460
  754.8372      .7780      .8500
  754.9896      .7780      .8490
  755.1420      .7780      .8450
  755.2944      .7780      .8390
  755.4468      .7710      .8310
  755.5992      .7700      .8220
  755.7516      .7700      .8150
  755.9040      .7700      .8090
  756.0564      .7750      .8040
  756.2088      .7780      .8000
  756.3612      .7780      .7950
  756.5136      .7780      .7910
  756.6660      .7780      .7890
  756.8184      .7780      .7870
  756.9708      .7780      .7870
  757.1232      .7810      .7860
  757.2756      .7860      .7850
  757.4280      .7860      .7860
  757.5804      .7860      .7870
  757.7328      .7860      .7870
  757.8852      .7860      .7880
  758.0376      .7870      .7880
  758.1900      .7930      .7880
  758.3424      .8040      .7880
  758.4948      .8100      .7880
  758.6472      .8170      .7880
  758.7996      .8240      .7880
  758.9520      .8330      .7880
  759.1044      .8400      .7880
  759.2568      .8460      .7880
  759.4092      .8480      .7880
  759.5616      .8480      .7880
  759.7140      .8480      .7880
  759.8664      .8420      .7880
  760.0188      .8400      .7880
  760.1712      .8400      .7920
  760.3236      .8400      .8120
  760.4760      .8400      .8380
  760.6284      .8510      .8610
  760.7808      .8680      .8720
  760.9332      .8860      .8630
  761.0856      .9070      .8540
  761.2380      .9250      .8520
  761.3904      .9360      .8530
  761.5428      .9320      .8570
  761.6952      .9280      .8590
  761.8476      .9250      .8600
  762.0000      .9140      .8600
  762.1524      .9120      .8600
  762.3048      .9120      .8600
  762.4572      .9120      .8610
  762.6096      .7540      .8620
  762.7620      .7540      .8620
  762.9144      .7540      .8600
  763.0668      .7540      .8590
  763.2192      .7510      .8580
  763.3716      .7460      .8580
  763.5240      .7700      .8560
  763.6764      .7700      .8550
  763.8288      .7620      .8530
  763.9812      .7600      .8520
  764.1336      .7540      .8490
  764.2860      .7540      .8460
  764.4384      .7540      .8400
  764.5908      .7520      .8320
  764.7432      .7450      .8250
  764.8956      .7380      .8220
  765.0480      .7380      .8220
  765.2004      .7380      .8220
  765.3528      .7390      .8220
  765.5052      .7440      .8220
  765.6576      .7380      .8230
  765.8100      .7360      .8230
  765.9624      .7310      .8230
  766.1148      .7300      .8230
  766.2672      .7270      .8230
  766.4196      .7220      .8240
  766.5720      .7190      .8240
  766.7244      .7130      .8250
  766.8768      .7050      .8250
  767.0292      .6940      .8250
  767.1816      .6880      .8260
  767.3340      .6830      .8260
  767.4864      .6820      .8260
  767.6388      .6820      .8260
  767.7912      .6820      .8270
  767.9436      .6850      .8280
  768.0960      .6900      .8290
  768.2484      .6900      .8300
  768.4008      .6900      .8300
  768.5532      .6920      .8300
  768.7056      .6960      .8300
  768.8580      .6980      .8300
  769.0104      .6980      .8300
  769.1628      .6980      .8300
  769.3152      .6980      .8300
  769.4676      .6980      .8300
  769.6200      .6980      .8300
  769.7724      .6980      .8300
  769.9248      .6980      .8290
  770.0772      .7020      .8280
  770.2296      .7050      .8270
  770.3820      .7060      .8260
  770.5344      .7060      .8260
  770.6868      .7060      .8250
  770.8392      .7060      .8230
  770.9916      .7060      .8200
  771.1440      .7060      .8170
  771.2964      .7060      .8160
  771.4488      .7060      .8140
  771.6012      .7060      .8120
  771.7536      .7060      .8080
  771.9060      .7060      .8020
  772.0584      .7060      .7970
  772.2108      .7060      .7950
  772.3632      .7060      .7940
  772.5156      .7060      .7920
  772.6680      .7060      .7910
  772.8204      .7060      .7900
  772.9728      .7060      .7900
  773.1252      .7060      .7900
  773.2776      .7060      .7900
  773.4300      .7060      .7900
  773.5824      .7060      .7900
  773.7348      .7060      .7900
  773.8872      .7010      .7900
  774.0396      .6980      .7900
  774.1920      .6980      .7910
