~VERSION INFORMATION
VERS.                                                 2.0:   CWLS Log ASCII Standard-VERSION 2.0
WRAP.                                                  NO:   One line per depth step
~Well Information Block
STRT.M                                            10.0584:   Top Depth
STOP.M                                          1400.8608:   Bottom Depth
STEP.M                                             .15240:   Depth Increment
NULL.                                            -999.250:   Null Value
FLD .                                          EEMSKANAAL:   Field Name
WELL.                                       EEMSKANAAL- 1:   NAME
EDF .m                                               5.58:   ELEV DRILL FLOOR
EPD .                                                   0:   ELEV PERM DATUM
EGL .m                                                -.9:   GROUND LEVEL
LMF .                                                  DF:   LOGS MEAS FROM
COMP.                                                 NAM:   OPERATOR
PDAT.                                                 NAP:   PERM DATUM
SPUD.                                          1970/11/08:   SPUD DATE
UWBI.                                      11000074112201:   UWBI
WELL.                                       EEMSKANAAL- 1:   HOLE NAME
~PARAMETER INFORMATION (log)
LNAM.                                RUN 02 RAW OH 14.75":   NAME
LTYP.                                                 02R:   LOG TYPE
LVSN.                                                   1:   LOG VERSION
BS  .3/4"                                              14:   BIT SIZE
BLI .M                                             1402.5:   BOTTOM DEPTH LOGGED
BHIS.                                            RCCCCCCC:   BRIEF HISTORY
FHIS.              RAW-TIGA/COPY/COPY/COPY/COPY/COPY/COPY:   FULL HISTORY
MRT .C                                                 50:   MAX REC TEMP
DFT .                                         CHALK WATER:   MUD TYPE
RMS .                                                1.44:   RM
MST .C                                                 11:   RM TEMP
RMCS.                                                1.93:   RMC
MCST.C                                                 19:   RMC TEMP
RMFS.                                               0.917:   RMF
MFST.C                                                 19:   RMF TEMP
TCS .                                                 N/A:   TIME SINCE CIRCLN
TLI .M                                                 10:   TOP DEPTH LOGGED
~Curve Information Block
#MNEM.UNIT                                        API CODE    No Description
#=========                                        ========    == ===========
DEPT.M                                       00 001 00 00:     1  DEPTH
BCSL.US/F                                                :     2  Interval Transit Time From Borehole Comp
GRIC.GAPI                                                :     3  GAMMA RAY LOG IN CASING
GRS.GAPI                                                 :     4  GAMMA RAY FROM SONIC LOG
~ASCII
# ...
  842.1624   175.9130  -999.2500    37.5500
  842.3148   174.7460  -999.2500    37.6950
  842.4672   172.4260  -999.2500    38.0570
  842.6196   172.4300  -999.2500    39.0740
  842.7720   172.2710  -999.2500    40.7560
  842.9244   172.3290  -999.2500    42.2430
  843.0768   174.0890  -999.2500    43.2950
  843.2292   175.2230  -999.2500    44.3980
  843.3816   175.9070  -999.2500    45.2090
  843.5340   175.8030  -999.2500    45.1270
  843.6864   175.0390  -999.2500    44.1760
  843.8388   174.4590  -999.2500    43.2120
  843.9912   173.6340  -999.2500    42.4620
  844.1436   174.3770  -999.2500    41.9360
  844.2960   176.6950  -999.2500    41.5010
  844.4484   178.0940  -999.2500    40.6740
  844.6008   178.0280  -999.2500    39.7750
  844.7532   176.6750  -999.2500    38.9650
  844.9056   174.9530  -999.2500    39.2310
  845.0580   174.0380  -999.2500    40.3040
  845.2104   173.1860  -999.2500    40.4450
  845.3628   172.9010  -999.2500    40.2680
  845.5152   172.3840  -999.2500    40.8590
  845.6676   170.5590  -999.2500    42.2600
  845.8200   167.4660  -999.2500    43.9410
  845.9724   165.9250  -999.2500    46.0330
  846.1248   168.8630  -999.2500    48.3610
  846.2772   171.3870  -999.2500    50.1610
  846.4296   170.5480  -999.2500    50.4610
  846.5820   170.6580  -999.2500    49.9470
  846.7344   170.9970  -999.2500    50.6500
  846.8868   170.6360  -999.2500    51.0760
  847.0392   172.5040  -999.2500    50.4810
  847.1916   172.9220  -999.2500    49.1320
  847.3440   171.4930  -999.2500    48.2000
  847.4964   166.4310  -999.2500    47.4430
  847.6488   158.0630  -999.2500    47.3990
  847.8012   154.6510  -999.2500    47.7990
  847.9536   154.1430  -999.2500    49.1030
  848.1060   156.1350  -999.2500    50.6110
  848.2584   157.3520  -999.2500    52.2090
  848.4108   159.5870  -999.2500    53.1910
  848.5632   161.9250  -999.2500    52.5930
  848.7156   162.8200  -999.2500    52.3710
  848.8680   162.8640  -999.2500    52.6690
  849.0204   162.9740  -999.2500    53.9390
  849.1728   161.4760  -999.2500    55.7490
  849.3252   159.8590  -999.2500    57.5200
  849.4776   160.4460  -999.2500    59.0020
  849.6300   159.3090  -999.2500    58.1110
  849.7824   158.2670  -999.2500    56.6530
  849.9348   157.3620  -999.2500    55.2500
  850.0872   156.5750  -999.2500    54.4180
  850.2396   157.2860  -999.2500    54.1230
  850.3920   158.9240  -999.2500    54.1910
  850.5444   159.9730  -999.2500    54.4730
  850.6968   159.4930  -999.2500    55.0210
  850.8492   159.9910  -999.2500    55.5670
  851.0016   159.8920  -999.2500    55.5270
  851.1540   158.5090  -999.2500    55.1470
  851.3064   159.2080  -999.2500    54.7960
  851.4588   160.4180  -999.2500    54.5410
  851.6112   160.9030  -999.2500    54.7240
  851.7636   160.1840  -999.2500    56.1270
  851.9160   157.6060  -999.2500    57.8680
  852.0684   154.7370  -999.2500    57.9890
  852.2208   152.5470  -999.2500    56.7380
  852.3732   151.8650  -999.2500    55.5690
  852.5256   152.1700  -999.2500    54.8910
  852.6780   152.0440  -999.2500    54.7600
  852.8304   152.3630  -999.2500    54.9120
  852.9828   153.7700  -999.2500    54.1000
  853.1352   153.7600  -999.2500    51.9180
  853.2876   154.1820  -999.2500    50.4670
  853.4400   153.2580  -999.2500    49.7520
  853.5924   151.6950  -999.2500    49.5900
  853.7448   151.9650  -999.2500    49.6900
  853.8972   153.2910  -999.2500    50.0900
  854.0496   152.4960  -999.2500    51.1700
  854.2020   152.6420  -999.2500    51.9110
  854.3544   152.5330  -999.2500    50.4040
  854.5068   151.9010  -999.2500    48.9540
  854.6592   152.1230  -999.2500    47.9000
  854.8116   151.4410  -999.2500    47.6090
  854.9640   151.3510  -999.2500    48.8940
  855.1164   151.5790  -999.2500    49.9530
  855.2688   152.8380  -999.2500    51.1760
  855.4212   154.0920  -999.2500    53.2250
  855.5736   154.9870  -999.2500    55.8430
  855.7260   154.3590  -999.2500    57.4450
  855.8784   154.8330  -999.2500    56.4860
  856.0308   153.9370  -999.2500    54.8800
  856.1832   154.1400  -999.2500    54.4020
  856.3356   155.5360  -999.2500    54.5550
  856.4880   154.6110  -999.2500    54.7690
  856.6404   155.6040  -999.2500    54.9030
  856.7928   156.1770  -999.2500    54.8190
  856.9452   157.0370  -999.2500    54.1470
  857.0976   157.3640  -999.2500    53.5740
  857.2500   156.1800  -999.2500    52.8220
  857.4024   156.5250  -999.2500    51.6770
  857.5548   157.3520  -999.2500    51.1100
  857.7072   157.4310  -999.2500    51.8710
  857.8596   156.4090  -999.2500    53.3370
  858.0120   155.7810  -999.2500    54.5380
  858.1644   155.0260  -999.2500    55.9370
  858.3168   155.1990  -999.2500    56.5100
  858.4692   155.8940  -999.2500    56.3310
  858.6216   156.1840  -999.2500    57.0220
  858.7740   155.8970  -999.2500    58.0780
  858.9264   155.8030  -999.2500    58.0480
  859.0788   157.0650  -999.2500    56.5360
  859.2312   158.5100  -999.2500    54.9450
  859.3836   158.0610  -999.2500    53.3100
  859.5360   157.9630  -999.2500    52.1650
  859.6884   156.7840  -999.2500    51.7570
  859.8408   155.5630  -999.2500    51.8320
  859.9932   155.9090  -999.2500    51.9970
  860.1456   156.0600  -999.2500    52.0550
  860.2980   157.9350  -999.2500    51.9900
  860.4504   159.2220  -999.2500    52.8710
  860.6028   158.5590  -999.2500    54.0330
  860.7552   157.0770  -999.2500    54.1170
  860.9076   156.1100  -999.2500    52.4410
  861.0600   154.6780  -999.2500    49.0050
  861.2124   152.5800  -999.2500    46.2300
  861.3648   150.4860  -999.2500    40.5070
  861.5172   142.7180  -999.2500    34.3890
  861.6696   128.7650  -999.2500    29.3160
  861.8220   121.8960  -999.2500    23.8230
  861.9744   118.2690  -999.2500    18.7090
  862.1268   123.4870  -999.2500    14.5200
  862.2792   127.8180  -999.2500    11.4730
  862.4316   129.9270  -999.2500     9.4160
  862.5840   130.3940  -999.2500     8.7200
  862.7364   129.2390  -999.2500     8.5360
  862.8888   126.9250  -999.2500     8.5650
  863.0412   122.8690  -999.2500     8.6670
  863.1936   119.8540  -999.2500     8.6850
  863.3460   118.1890  -999.2500     8.6500
  863.4984   118.3210  -999.2500     8.5660
  863.6508   121.6490  -999.2500     8.3460
  863.8032   123.7260  -999.2500     7.6660
  863.9556   124.9690  -999.2500     7.1450
  864.1080   125.2440  -999.2500     7.0730
  864.2604   122.8890  -999.2500     7.2880
  864.4128   120.0290  -999.2500     7.7210
  864.5652   118.1080  -999.2500     8.4910
  864.7176   116.6550  -999.2500     9.2280
  864.8700   116.8330  -999.2500     9.6810
  865.0224   117.3880  -999.2500     9.8720
  865.1748   116.5870  -999.2500     9.7350
  865.3272   115.0290  -999.2500     9.5250
  865.4796   113.6700  -999.2500     9.4050
  865.6320   112.3250  -999.2500     9.4430
  865.7844   111.1040  -999.2500     9.7400
  865.9368   110.1270  -999.2500    10.1700
  866.0892   110.1010  -999.2500    10.4170
  866.2416   110.5610  -999.2500    10.3940
  866.3940   111.0210  -999.2500    10.2230
  866.5464   111.6290  -999.2500     9.9090
  866.6988   112.2650  -999.2500     9.6470
  866.8512   112.8800  -999.2500     9.4950
  867.0036   113.5960  -999.2500     9.3950
  867.1560   114.1470  -999.2500     8.9350
  867.3084   114.0860  -999.2500     8.3730
  867.4608   114.2100  -999.2500     7.6190
  867.6132   114.9400  -999.2500     7.1620
  867.7656   115.6230  -999.2500     6.8560
  867.9180   116.3010  -999.2500     6.8410
  868.0704   116.8950  -999.2500     7.0420
  868.2228   116.7790  -999.2500     7.3090
  868.3752   115.5930  -999.2500     7.4930
  868.5276   114.0790  -999.2500     7.7530
  868.6800   112.7640  -999.2500     8.0490
  868.8324   111.4750  -999.2500     8.4610
  868.9848   110.3200  -999.2500     8.9440
  869.1372   109.7160  -999.2500     8.8250
  869.2896   109.8480  -999.2500     8.4000
  869.4420   110.3530  -999.2500     8.0770
  869.5944   110.6890  -999.2500     7.9120
  869.7468   110.7890  -999.2500     7.9890
