~VERSION INFORMATION
VERS.                                                 2.0:   CWLS Log ASCII Standard-VERSION 2.0
WRAP.                                                  NO:   One line per depth step
~Well Information Block
STRT.M                                          2687.1168:   Top Depth
STOP.M                                          3063.8496:   Bottom Depth
STEP.M                                             .15240:   Depth Increment
NULL.                                            -999.250:   Null Value
FLD .                                          EEMSKANAAL:   Field Name
WELL.                                       EEMSKANAAL- 1:   NAME
EDF .m                                               5.58:   ELEV DRILL FLOOR
EPD .                                                   0:   ELEV PERM DATUM
EGL .m                                                -.9:   GROUND LEVEL
LMF .                                                  DF:   LOGS MEAS FROM
COMP.                                                 NAM:   OPERATOR
PDAT.                                                 NAP:   PERM DATUM
SPUD.                                          1970/11/08:   SPUD DATE
UWBI.                                      11000074112201:   UWBI
WELL.                                       EEMSKANAAL- 1:   HOLE NAME
~PARAMETER INFORMATION (log)
LNAM.                                RUN 05 RAW OH 9.625":   NAME
LTYP.                                                 05R:   LOG TYPE
LVSN.                                                   1:   LOG VERSION
BS  .5/8"                                               9:   BIT SIZE
BLI .M                                               3063:   BOTTOM DEPTH LOGGED
BHIS.                                            RCCCCCCC:   BRIEF HISTORY
FHIS.              RAW-TIGA/COPY/COPY/COPY/COPY/COPY/COPY:   FULL HISTORY
MRT .C                                                 89:   MAX REC TEMP
DFT .                                          SALT SPERS:   MUD TYPE
RMS .                                               0.074:   RM
MST .C                                                 26:   RM TEMP
RMCS.                                               0.144:   RMC
MCST.C                                                 17:   RMC TEMP
RMFS.                                               0.059:   RMF
MFST.C                                                 26:   RMF TEMP
TCS .                                               5 HRS:   TIME SINCE CIRCLN
TLI .M                                               2690:   TOP DEPTH LOGGED
~Curve Information Block
#MNEM.UNIT                                        API CODE    No Description
#=========                                        ========    == ===========
DEPT.M                                       00 001 00 00:     1  DEPTH
LL7.OHMM                                                 :     2  LATEROLOG 7
SP.MV                                                    :     3  Spontaneous potential
~ASCII
# ...
 2835.2496     5.2410   -67.6300
 2835.4020     5.2930   -67.5890
 2835.5544     5.5570   -67.5280
 2835.7068     5.7970   -67.4460
 2835.8592     5.9760   -67.3550
 2836.0116     6.1280   -67.2000
 2836.1640     5.6660   -66.9220
 2836.3164     4.8480   -66.6060
 2836.4688     4.5590   -66.2650
 2836.6212     4.5700   -65.9310
 2836.7736     4.7750   -65.8010
 2836.9260     5.2170   -65.6850
 2837.0784     5.7210   -65.6400
 2837.2308     5.9110   -65.6400
 2837.3832     5.8310   -65.6400
 2837.5356     5.7480   -65.6400
 2837.6880     5.7110   -65.6400
 2837.8404     5.7390   -65.6400
 2837.9928     5.8320   -65.6400
 2838.1452     6.3690   -65.6800
 2838.2976     7.2020   -65.6800
 2838.4500     7.6890   -65.6800
 2838.6024     7.7740   -65.7610
 2838.7548     7.7580   -65.8320
 2838.9072     7.5760   -65.8800
 2839.0596     6.0940   -65.8800
 2839.2120     4.7750   -65.8800
 2839.3644     4.9500   -65.8800
 2839.5168     5.4700   -65.8800
 2839.6692     5.6480   -65.8940
 2839.8216     5.6300   -65.9500
 2839.9740     5.5430   -66.1090
 2840.1264     5.7900   -66.3370
 2840.2788     6.5860   -66.5350
 2840.4312     7.0910   -66.6820
 2840.5836     7.6000   -66.7720
 2840.7360     8.1510   -66.7900
 2840.8884     8.8740   -66.7900
 2841.0408     9.5980   -66.7500
 2841.1932    10.6800   -66.7500
 2841.3456    11.3330   -66.7500
 2841.4980    11.6020   -66.7500
 2841.6504    10.2370   -66.7550
 2841.8028     8.5330   -66.7900
 2841.9552     7.4120   -66.8230
 2842.1076     6.5050   -67.0110
 2842.2600     5.8230   -67.3720
 2842.4124     5.8130   -67.5550
 2842.5648     6.0620   -67.5900
 2842.7172     6.2870   -67.5630
 2842.8696     6.4540   -67.1930
 2843.0220     6.7010   -66.4920
 2843.1744     7.0830   -65.8650
 2843.3268     7.4070   -65.6060
 2843.4792     7.4930   -65.4850
 2843.6316     7.3500   -65.4010
 2843.7840     7.0660   -65.3430
 2843.9364     6.6450   -65.2950
 2844.0888     6.0610   -65.2410
 2844.2412     5.9900   -65.2240
 2844.3936     5.9640   -65.2000
 2844.5460     5.8910   -65.2000
 2844.6984     5.7750   -65.2000
 2844.8508     5.5310   -65.1750
 2845.0032     5.1530   -65.1190
 2845.1556     4.5230   -65.0580
 2845.3080     4.9730   -65.0130
 2845.4604     5.6200   -64.8880
 2845.6128     6.2710   -64.7720
 2845.7652     6.7550   -64.6940
 2845.9176     7.4250   -64.6400
 2846.0700     8.3040   -64.6890
 2846.2224     8.6670   -64.9880
 2846.3748     8.7360   -65.0720
 2846.5272     8.6790   -65.0800
 2846.6796     8.7090   -65.0800
 2846.8320     8.7320   -65.1000
 2846.9844     8.9430   -65.1200
 2847.1368     9.7370   -65.1200
 2847.2892    10.0230   -65.1200
 2847.4416    10.2830   -65.1030
 2847.5940    10.4250   -65.0800
 2847.7464    10.4480   -65.0800
 2847.8988    10.4480   -65.0800
 2848.0512    10.2650   -65.0800
 2848.2036     9.9700   -65.0800
 2848.3560     9.6160   -65.0800
 2848.5084     9.0030   -65.0800
 2848.6608     8.1390   -65.0800
 2848.8132     7.3470   -65.0800
 2848.9656     7.3050   -65.0800
 2849.1180     8.0520   -65.0800
 2849.2704     7.8630   -65.0800
 2849.4228     6.8590   -65.0800
 2849.5752     5.9210   -65.0500
 2849.7276     5.3660   -64.9050
 2849.8800     5.1230   -64.3580
 2850.0324     5.0750   -63.8460
 2850.1848     5.1190   -63.3670
 2850.3372     5.4820   -62.9470
 2850.4896     6.3270   -62.5930
 2850.6420     7.5460   -62.5000
 2850.7944    10.2000   -62.5000
 2850.9468    12.1190   -62.4770
 2851.0992    11.9650   -62.3810
 2851.2516     9.2550   -62.1620
 2851.4040     6.8200   -61.9120
 2851.5564     5.6380   -61.6860
 2851.7088     5.2750   -61.5980
 2851.8612     5.3500   -61.5800
 2852.0136     6.4990   -61.5800
 2852.1660     8.0230   -61.5800
 2852.3184     9.8190   -61.5800
 2852.4708    11.8400   -61.5800
 2852.6232    12.7920   -61.5800
 2852.7756    13.4080   -61.5800
 2852.9280    14.3720   -61.5800
 2853.0804    15.4150   -61.5800
 2853.2328    16.2870   -61.5800
 2853.3852    16.3630   -61.5800
 2853.5376    16.4410   -61.5800
 2853.6900    16.3000   -61.5800
 2853.8424    14.9870   -61.5800
 2853.9948    13.1730   -61.5800
 2854.1472    12.8660   -61.5800
 2854.2996    11.7160   -61.5800
 2854.4520    11.2690   -61.5450
 2854.6044    12.4910   -61.5400
 2854.7568    15.3840   -61.5230
 2854.9092    16.6930   -61.4610
 2855.0616    17.3980   -61.2840
 2855.2140    17.3190   -61.0320
 2855.3664    16.1530   -60.7340
 2855.5188    13.4110   -60.4850
 2855.6712    11.7880   -60.3990
 2855.8236     9.7170   -60.3440
 2855.9760     7.5520   -60.2440
 2856.1284     6.0750   -60.1530
 2856.2808     5.1510   -60.0700
 2856.4332     4.8020   -59.9770
 2856.5856     4.7870   -59.8700
 2856.7380     5.2500   -59.7460
 2856.8904     6.2350   -59.5820
 2857.0428     7.9230   -59.4130
 2857.1952    10.0980   -59.2170
 2857.3476    12.2120   -59.0380
 2857.5000    13.4350   -58.8500
 2857.6524    12.8940   -58.6520
 2857.8048    13.0790   -58.4960
 2857.9572    14.3030   -58.3700
 2858.1096    13.3370   -58.2510
 2858.2620    12.9760   -58.1140
 2858.4144    11.7370   -57.9710
 2858.5668    13.9820   -57.7530
 2858.7192    15.6670   -57.5110
 2858.8716    11.8980   -57.3040
 2859.0240    12.8970   -57.1660
 2859.1764    13.0520   -57.0740
 2859.3288    13.8870   -56.9730
 2859.4812    16.5170   -56.8650
 2859.6336    24.2370   -56.7160
 2859.7860    16.9870   -56.5640
 2859.9384    20.4990   -56.4350
 2860.0908    13.5770   -56.3740
 2860.2432    12.1320   -56.3870
 2860.3956    11.8250   -56.4100
 2860.5480    11.7390   -56.4100
 2860.7004    11.7010   -56.3700
 2860.8528    11.4720   -56.3540
 2861.0052    10.1840   -56.2950
 2861.1576     8.8220   -56.1580
 2861.3100     7.5340   -56.0150
 2861.4624     7.2920   -55.9450
 2861.6148     6.5130   -55.9300
 2861.7672     5.1610   -55.9300
 2861.9196     5.1360   -55.9300
 2862.0720     6.3610   -55.9300
 2862.2244     6.2840   -55.9300
 2862.3768     5.6770   -55.9300
 2862.5292     5.2970   -55.9300
 2862.6816     5.2560   -55.9300
 2862.8340     5.2360   -55.9300
 2862.9864     5.1540   -55.9650
 2863.1388     5.1810   -56.0330
 2863.2912     5.5980   -56.0970
 2863.4436     6.0060   -56.1300
 2863.5960     5.9130   -56.1300
 2863.7484     4.0370   -56.0950
 2863.9008     2.4190   -56.1300
 2864.0532     4.4390   -56.0990
 2864.2056     6.1420   -56.0900
 2864.3580     5.9930   -56.0900
 2864.5104     5.7830   -56.0900
 2864.6628     5.5910   -56.1150
 2864.8152     5.3400   -56.1300
 2864.9676     5.0880   -56.1300
 2865.1200     5.1780   -56.1300
 2865.2724     5.5200   -56.1300
 2865.4248     5.3980   -56.1300
 2865.5772     5.2680   -56.1300
 2865.7296     5.3500   -56.1420
 2865.8820     5.5080   -56.1700
 2866.0344     4.8590   -56.2300
 2866.1868     4.5680   -56.2500
 2866.3392     4.7170   -56.2500
 2866.4916     4.5870   -56.2500
 2866.6440     4.6780   -56.2500
 2866.7964     5.3430   -56.2120
 2866.9488     6.1170   -56.2000
 2867.1012     6.4550   -56.1700
 2867.2536     6.5130   -56.0920
 2867.4060     6.3500   -55.9680
 2867.5584     6.1890   -55.9070
 2867.7108     5.6440   -55.8900
 2867.8632     4.8490   -55.8650
 2868.0156     4.0410   -55.8440
 2868.1680     3.9430   -55.7830
 2868.3204     3.8260   -55.7700
 2868.4728     3.6480   -55.7990
 2868.6252     3.8010   -55.9500
 2868.7776     4.5420   -55.8280
 2868.9300     4.4290   -55.7700
 2869.0824     4.2260   -55.7370
 2869.2348     4.2200   -55.7300
 2869.3872     4.2830   -55.6690
 2869.5396     4.6390   -55.6500
 2869.6920     4.7590   -55.6130
 2869.8444     4.5000   -55.6100
 2869.9968     5.0650   -55.6100
 2870.1492     5.5850   -55.6400
 2870.3016     6.1250   -55.6910
 2870.4540     6.1740   -55.7520
 2870.6064     6.0640   -55.7700
 2870.7588     5.2040   -55.7940
 2870.9112     4.8470   -55.8100
 2871.0636     5.6530   -55.8160
 2871.2160     5.8470   -55.9010
 2871.3684     5.6740   -56.0150
 2871.5208     4.4730   -56.0980
 2871.6732     3.7800   -56.1590
 2871.8256     3.2840   -56.1650
 2871.9780     2.8460   -56.0170
 2872.1304     2.7160   -55.7700
