~VERSION INFORMATION
VERS.                                                 2.0:   CWLS Log ASCII Standard-VERSION 2.0
WRAP.                                                  NO:   One line per depth step
~Well Information Block
STRT.M                                          1789.0236:   Top Depth
STOP.M                                          2779.9284:   Bottom Depth
STEP.M                                             .15240:   Depth Increment
NULL.                                            -999.250:   Null Value
FLD .                                          EEMSKANAAL:   Field Name
WELL.                                       EEMSKANAAL- 2:   NAME
APD .M                                               5.62:   ABOVE PERM DATUM
CTRY.                                                  NE:   COUNTRY
EDF .m                                               5.62:   ELEV DRILL FLOOR
EPD .                                                   0:   ELEV PERM DATUM
EGL .m                                              -1.06:   GROUND LEVEL
LMF .                                                  DF:   LOGS MEAS FROM
COMP.                                                 NAM:   OPERATOR
PDAT.                                                 NAP:   PERM DATUM
SPUD.                                          1971/03/17:   SPUD DATE
STAT.                                           Unknown m:   STATE
UWBI.                                      11000074112601:   UWBI
WELL.                                       EEMSKANAAL- 2:   HOLE NAME
~PARAMETER INFORMATION (log)
LNAM.                                RUN 01 RAW OH 9 5/8":   NAME
LTYP.                                                 01R:   LOG TYPE
LVSN.                                                   1:   LOG VERSION
BS  .5/8"                                               9:   BIT SIZE
BLI .M                                             2778.0:   BOTTOM DEPTH LOGGED
BHIS.                                                MCCC:   BRIEF HISTORY
FHIS.                                     MERGE/COPY/COPY:   FULL HISTORY
MRT .DEGC                                              84:   MAX REC TEMP
DFD .G/CC                                            1.54:   MUD DENSITY
DFT .                                   SALT SAT SPERSENE:   MUD TYPE
RMS .                                                    :   RM
MST .                                                    :   RM TEMP
RMCS.                                                    :   RMC
MCST.                                                    :   RMC TEMP
RMFS.                                                    :   RMF
MFST.                                                    :   RMF TEMP
TCS .                                                 N/A:   TIME SINCE CIRCLN
TLI .M                                             1800.0:   TOP DEPTH LOGGED
~Curve Information Block
#MNEM.UNIT                                        API CODE    No Description
#=========                                        ========    == ===========
DEPT.M                                       00 001 00 00:     1  DEPTH
CALF.IN                                                  :     2  CALIPER FROM FORMATION DENSITY LOG
FDC.G/C3                                                 :     3  Formation Density Log (Compensated Open
GR.API                                                   :     4  Gamma Ray
~ASCII
 1789.0236     9.7780     2.5440    76.1450
 1789.1760     9.7780     2.5330    75.6990
 1789.3284     9.7770     2.5330    76.0160
 1789.4808     9.7710     2.5240    77.5690
 1789.6332     9.7590     2.5070    79.1040
 1789.7856     9.7510     2.4980    79.7970
 1789.9380     9.7500     2.5030    76.2310
 1790.0904     9.7500     2.5000    73.0690
 1790.2428     9.7550     2.4990    71.8670
 1790.3952     9.7620     2.5080    70.6470
 1790.5476     9.7620     2.5130    69.7410
 1790.7000     9.7620     2.4960    73.3950
 1790.8524     9.7620     2.4960    80.0280
 1791.0048     9.7620     2.5070    80.7560
 1791.1572     9.7620     2.5130    80.1450
 1791.3096     9.7620     2.5210    81.2440
 1791.4620     9.7620     2.5350    81.1230
 1791.6144     9.7620     2.5170    80.6530
 1791.7668     9.7590     2.5060    77.6920
 1791.9192     9.7580     2.5130    78.2900
 1792.0716     9.7610     2.5260    78.0860
 1792.2240     9.7620     2.5420    77.0130
 1792.3764     9.7620     2.5360    77.0030
 1792.5288     9.7630     2.5310    78.1950
 1792.6812     9.7620     2.5330    79.5700
 1792.8336     9.7650     2.5400    80.5260
 1792.9860     9.7690     2.5440    81.4070
 1793.1384     9.7700     2.5340    82.6710
 1793.2908     9.7660     2.5330    82.2870
 1793.4432     9.7660     2.5360    79.8320
 1793.5956     9.7620     2.5470    79.4590
 1793.7480     9.7620     2.5620    78.2370
 1793.9004     9.7620     2.5580    76.5150
 1794.0528     9.7660     2.5550    76.4250
 1794.2052     9.7660     2.5490    76.0310
 1794.3576     9.7660     2.5480    73.0810
 1794.5100     9.7700     2.5550    71.5900
 1794.6624     9.7700     2.5470    70.3310
 1794.8148     9.7700     2.5340    68.4940
 1794.9672     9.7700     2.5430    67.5900
 1795.1196     9.7670     2.5490    66.4590
 1795.2720     9.7630     2.5440    68.3460
 1795.4244     9.7620     2.5310    70.3990
 1795.5768     9.7620     2.5280    72.0450
 1795.7292     9.7620     2.5320    73.7380
 1795.8816     9.7620     2.5380    75.2310
 1796.0340     9.7660     2.5410    74.3340
 1796.1864     9.7690     2.5450    71.5290
 1796.3388     9.7700     2.5770    69.8310
 1796.4912     9.7710     2.5940    67.0200
 1796.6436     9.7740     2.6090    68.2770
 1796.7960     9.7780     2.5940    71.2120
 1796.9484     9.7840     2.5730    74.7940
 1797.1008     9.7930     2.5620    74.8390
 1797.2532     9.8070     2.5460    71.0660
 1797.4056     9.8150     2.5590    76.0830
 1797.5580     9.8230     2.5550    72.7230
 1797.7104     9.8300     2.5590    69.7790
 1797.8628     9.8340     2.5610    68.5450
 1798.0152     9.8300     2.5560    68.7780
 1798.1676     9.8270     2.5340    70.4630
 1798.3200     9.8170     2.5320    70.3710
 1798.4724     9.8110     2.5300    73.7380
 1798.6248     9.8050     2.5390    75.9690
 1798.7772     9.8050     2.5520    77.5380
 1798.9296     9.8060     2.5500    80.0110
 1799.0820     9.8030     2.5490    79.9470
 1799.2344     9.8030     2.5420    78.3770
 1799.3868     9.8060     2.5400    75.5440
 1799.5392     9.8080     2.5490    75.3940
 1799.6916     9.8100     2.5560    76.6160
 1799.8440     9.8140     2.5570    77.5710
 1799.9964     9.8140     2.5730    76.3540
 1800.1488     9.8140     2.5840    73.1360
 1800.3012     9.8100     2.5850    69.7110
 1800.4536     9.8100     2.5560    67.0730
 1800.6060     9.8100     2.5450    69.4700
 1800.7584     9.8100     2.5520    72.5640
 1800.9108     9.8140     2.5550    74.0460
 1801.0632     9.8140     2.5500    74.2670
 1801.2156     9.8140     2.5470    74.1630
 1801.3680     9.8140     2.5530    72.9080
 1801.5204     9.8180     2.5480    73.2960
 1801.6728     9.8210     2.5580    77.0950
 1801.8252     9.8220     2.5480    81.1080
 1801.9776     9.8250     2.5360    82.7520
 1802.1300     9.8260     2.5300    82.9080
 1802.2824     9.8260     2.5440    83.3080
 1802.4348     9.8260     2.5440    78.8450
 1802.5872     9.8260     2.5510    76.1420
 1802.7396     9.8260     2.5510    75.0760
 1802.8920     9.8260     2.5400    74.9400
 1803.0444     9.8230     2.5440    75.4080
 1803.1968     9.8190     2.5390    76.3280
 1803.3492     9.8160     2.5250    77.3010
 1803.5016     9.8140     2.5120    75.9480
 1803.6540     9.8140     2.5210    76.2210
 1803.8064     9.8170     2.5540    77.4810
 1803.9588     9.8200     2.5550    78.7720
 1804.1112     9.8230     2.5540    79.5960
 1804.2636     9.8260     2.5440    78.6260
 1804.4160     9.8260     2.5490    74.5800
 1804.5684     9.8260     2.5440    69.5460
 1804.7208     9.8280     2.5320    65.8170
 1804.8732     9.8300     2.5280    64.5330
 1805.0256     9.8300     2.5280    64.3760
 1805.1780     9.8300     2.5270    66.1570
 1805.3304     9.8300     2.5240    70.8980
 1805.4828     9.8290     2.5430    73.7840
 1805.6352     9.8250     2.5810    73.5340
 1805.7876     9.8230     2.5790    76.4720
 1805.9400     9.8200     2.5670    79.1010
 1806.0924     9.8180     2.5650    79.0920
 1806.2448     9.8180     2.5560    80.3930
 1806.3972     9.8180     2.5430    77.9110
 1806.5496     9.8180     2.5400    75.0060
 1806.7020     9.8220     2.5490    73.7400
 1806.8544     9.8240     2.5500    73.9340
 1807.0068     9.8250     2.5380    76.8860
 1807.1592     9.8260     2.5320    81.0060
 1807.3116     9.8260     2.5350    82.7240
 1807.4640     9.8260     2.5390    81.2800
 1807.6164     9.8260     2.5340    78.2170
 1807.7688     9.8290     2.5140    76.2480
 1807.9212     9.8330     2.5010    74.9580
 1808.0736     9.8370     2.5050    70.9150
 1808.2260     9.8410     2.5200    68.3800
 1808.3784     9.8420     2.5280    72.0760
 1808.5308     9.8430     2.5250    73.8580
 1808.6832     9.8460     2.5090    74.5370
 1808.8356     9.8480     2.4920    76.5510
 1808.9880     9.8510     2.4820    77.5380
 1809.1404     9.8540     2.4850    78.7890
 1809.2928     9.8570     2.4860    76.6530
 1809.4452     9.8580     2.4930    76.3230
 1809.5976     9.8580     2.5010    77.4880
 1809.7500     9.8580     2.5050    76.3120
 1809.9024     9.8580     2.5210    75.5530
 1810.0548     9.8580     2.5260    76.2790
 1810.2072     9.8580     2.5410    79.0750
 1810.3596     9.8580     2.5590    76.4230
 1810.5120     9.8580     2.5500    75.7120
 1810.6644     9.8570     2.5370    74.1500
 1810.8168     9.8550     2.5390    74.3270
 1810.9692     9.8550     2.5630    77.4050
 1811.1216     9.8570     2.5610    80.5500
 1811.2740     9.8540     2.5510    83.1960
 1811.4264     9.8540     2.5380    84.2980
 1811.5788     9.8540     2.5370    79.8840
 1811.7312     9.8550     2.5480    75.6300
 1811.8836     9.8580     2.5520    76.4510
 1812.0360     9.8550     2.5410    78.4440
 1812.1884     9.8520     2.5330    80.3190
 1812.3408     9.8510     2.5350    78.9510
 1812.4932     9.8500     2.5410    79.9780
 1812.6456     9.8500     2.5470    82.3700
 1812.7980     9.8500     2.5540    79.3170
 1812.9504     9.8480     2.5600    76.4760
 1813.1028     9.8470     2.5640    77.0480
 1813.2552     9.8460     2.5570    79.7680
 1813.4076     9.8430     2.5420    80.3460
 1813.5600     9.8400     2.5150    79.4820
 1813.7124     9.8390     2.5000    80.7150
 1813.8648     9.8380     2.5140    80.4700
 1814.0172     9.8380     2.5230    79.0130
 1814.1696     9.8380     2.5280    74.9370
 1814.3220     9.8380     2.5270    69.8640
 1814.4744     9.8380     2.5260    68.3370
 1814.6268     9.8380     2.5260    68.4980
 1814.7792     9.8400     2.5260    71.6180
 1814.9316     9.8420     2.5310    75.9750
 1815.0840     9.8420     2.5440    80.0730
 1815.2364     9.8440     2.5500    79.5840
 1815.3888     9.8480     2.5650    76.7150
 1815.5412     9.8500     2.5770    74.5880
 1815.6936     9.8500     2.5680    74.9930
 1815.8460     9.8500     2.5490    74.1280
 1815.9984     9.8500     2.5370    73.1420
 1816.1508     9.8500     2.5340    75.0790
 1816.3032     9.8500     2.5340    77.0960
 1816.4556     9.8500     2.5270    72.6450
 1816.6080     9.8480     2.5240    68.7900
