~VERSION INFORMATION
VERS.                                                 2.0:   CWLS Log ASCII Standard-VERSION 2.0
WRAP.                                                  NO:   One line per depth step
~Well Information Block
STRT.M                                           836.5236:   Top Depth
STOP.M                                          2800.0452:   Bottom Depth
STEP.M                                             .15240:   Depth Increment
NULL.                                            -999.250:   Null Value
FLD .                                          EEMSKANAAL:   Field Name
WELL.                                       EEMSKANAAL- 2:   NAME
APD .M                                               5.62:   ABOVE PERM DATUM
CTRY.                                                  NE:   COUNTRY
EDF .m                                               5.62:   ELEV DRILL FLOOR
EPD .                                                   0:   ELEV PERM DATUM
EGL .m                                              -1.06:   GROUND LEVEL
LMF .                                                  DF:   LOGS MEAS FROM
COMP.                                                 NAM:   OPERATOR
PDAT.                                                 NAP:   PERM DATUM
SPUD.                                          1971/03/17:   SPUD DATE
STAT.                                           Unknown m:   STATE
UWBI.                                      11000074112601:   UWBI
WELL.                                       EEMSKANAAL- 2:   HOLE NAME
~PARAMETER INFORMATION (log)
LNAM.                              RUN 04 RAW CH OCT 2002:   NAME
LTYP.                                                 04R:   LOG TYPE
LVSN.                                                   1:   LOG VERSION
BHT .DEGC                                             101:   BH TEMP
BS  .IN                                             9.625:   BIT SIZE
BHS .                                                CASE:   BOREHOLE STATUS
BLI .M                                               2800:   BOTTOM DEPTH LOGGED
BHIS.                                                  RC:   BRIEF HISTORY
CS  .IN                                             7.625:   CASING SIZE
CSW .LB/F                                            52.3:   CASING WEIGHT
R1  .                                 Log correlated with:   COMMENT  1
R2  .       Compensated formation density log 1-April-197:   COMMENT  2
R4  .          Weight expendable tubing 18.6 lbs per foot:   COMMENT  4
R5  .              Weight 7 5/8" casing 33.7 lbs per foot:   COMMENT  5
R7  .                                      Set CSID 5.98":   COMMENT  7
R8  .                   Set CWEI 33.7 + 18.6  =  52.3 LBS:   COMMENT  8
R9  .                                    Set CSIZ 7.625 ":   COMMENT  9
DMF .                                                 ORT:   DRILL MEAS FROM
EDF .M                                               5.62:   ELEV DRILL FLOOR
ELZ .                                              5.62 M:   ELEVATION LOG ZERO
ENGI.                                         M. Riedeman:   ENGINEER
FHIS.                                            RAW-DLIS:   FULL HISTORY
HIDE.                                               RST-C:   HEADER ID
LCNM.                                        Schlumberger:   LOGGING CONTRACTOR
LMF .                                                 ORT:   LOGS MEAS FROM
MATR.                                                LIME:   MATRIX
MRT .DEGC                                             101:   MAX REC TEMP
DFT .                                                 gas:   MUD TYPE
CN  .                                                 NAM:   OPERATOR
RUN .                                                   1:   RUN
DATE.                                          2002/10/25:   RUN DATE
RW  .OHMM                                               1:   RW
STEM.DEGC                                              18:   SURFACE TEMPERATURE
TLAB.                                                1100:   TIME LOGGER ON BOT
TLI .M                                                840:   TOP DEPTH LOGGED
WITN.                           P van der Zee & S. Yntema:   WITNESS
~Curve Information Block
#MNEM.UNIT                                        API CODE    No Description
#=========                                        ========    == ===========
DEPT.M                                       00 001 00 00:     1  DEPTH
AIRB.                                                    :     2  RST Air Borehole Diagnostic
CIRF.                                                    :     3  RST Capture to Inelastic Ratio Far
CIRN.                                                    :     4  RST Capture to Inelastic Ratio Near
FBAC.CPS                                                 :     5  Far Background Count Rate
GR.API                                                   :     6  Gamma Ray
IRAT.                                                    :     7  RST Inelastic Ratio
NBAC.CPS                                                 :     8  Near Background Count Rate
SBNA.CU                                                  :     9  RST Sigma Borehole Near Apparent
SFNA.CU                                                  :    10  RST Sigma Formation Near Apparent
SIGM.CU                                                  :    11  Formation Sigma (Neutron Capture Cross S
TPHI.FRAC                                                :    12  Thermal Decay Porosity
~ASCII
# ...
 1357.1220     1.0000      .6182      .3219  3405.4905    12.6849      .8406  2017.4872    82.0843    28.5079    30.6254      .2290
 1357.2744     1.0000      .6076      .3318  3393.4585    12.4285      .8409  2028.8508    82.5035    29.3393    31.4261      .2291
 1357.4268     1.0000      .6007      .3226  3413.2227    14.0315      .8485  2050.5085    86.6067    28.5262    31.3036      .2200
 1357.5792     1.0000      .6089      .3205  3409.9033    14.6351      .8469  2031.7921    86.1803    31.3667    31.3287      .2144
 1357.7316     1.0000      .6032      .3262  3431.1375    14.8167      .8462  2037.0059    84.8913    30.3419    30.9130      .2184
 1357.8840     1.0000      .6228      .3348  3405.5940    14.2130      .8457  2032.9952    85.4057    28.9343    30.6243      .2244
 1358.0364     1.0000      .6258      .3440  3386.0525    14.2970      .8531  2023.3695    83.7531    30.0017    29.4611      .2191
 1358.1888     1.0000      .6210      .3412  3404.6201    12.7806      .8580  2020.6957    84.7375    29.6199    29.5135      .2106
 1358.3412     1.0000      .6216      .3232  3353.4170    12.7832      .8536  2023.1021    87.8485    29.3216    29.6635      .2084
 1358.4936     1.0000      .6059      .3289  3351.6702    11.5583      .8499  2026.7379    81.8219    30.5816    30.5358      .2073
 1358.6460     1.0000      .6080      .3244  3343.2476    12.8840      .8452  2055.0803    87.6301    30.2307    30.0141      .2072
 1358.7984     1.0000      .6219      .3195  3336.4065    14.0914      .8560  2047.9946    82.1267    31.1734    30.5426      .2033
 1358.9508     1.0000      .6114      .3287  3358.8665    14.0081      .8593  2059.3584    80.0685    30.5188    30.0358      .1976
 1359.1032     1.0000      .6322      .3358  3360.3594    14.3619      .8480  2057.2192    83.4336    29.5406    30.3191      .1940
 1359.2556     1.0000      .6327      .3139  3381.0583    15.3968      .8325  2069.9197    84.1435    29.3402    29.4923      .1747
 1359.4080     1.0000      .5605      .2863  3371.1970    14.5023      .8261  2070.7217    96.6681    29.9276    30.2039      .1914
 1359.5604     1.0000      .5114      .2860  3390.8494    14.0023      .8311  2089.7112    85.7968    31.6321    31.0014      .2038
 1359.7128     1.0000      .5687      .3088  3395.9609    14.1723      .8420  2094.3906    89.8198    30.9093    32.2289      .2228
 1359.8652     1.0000      .5944      .3204  3418.6885    14.0831      .8499  2110.4387    89.6206    31.2215    31.9924      .2186
 1360.0176     1.0000      .5821      .3147  3474.8381    14.1723      .8486  2125.1445    82.9686    29.8311    31.9075      .2227
 1360.1700     1.0000      .5977      .3117  3456.7898    14.7992      .8540  2111.7756    79.6822    31.0843    31.6694      .2115
 1360.3224     1.0000      .5846      .3200  3450.9070    14.7817      .8556  2087.0430    89.9160    29.4104    32.4360      .2117
 1360.4748     1.0000      .6094      .3248  3423.6572    14.0727      .8587  2092.9253    84.2355    32.2145    32.7060      .2031
 1360.6272     1.0000      .5783      .3179  3416.2585    14.0642      .8537  2076.2141    85.7769    32.3168    33.0105      .2109
 1360.7796     1.0000      .5942      .3168  3396.6064    13.6267      .8561  2082.0964    89.1303    31.1560    32.5464      .2094
 1360.9320     1.0000      .5922      .3212  3409.3076    13.2585      .8523  2090.7861    84.2388    30.0839    33.0080      .2255
 1361.0844     1.0000      .6021      .3235  3398.7373    14.1689      .8512  2066.5605    82.1913    29.9391    33.5025      .2433
 1361.2368     1.0000      .5617      .3223  3415.4490    16.0853      .8508  2064.5498    84.5893    33.1160    34.8652      .2570
 1361.3892     1.0000      .5694      .3125  3411.7048    15.2018      .8513  2062.5447    84.2705    33.6261    34.8418      .2380
 1361.5416     1.0000      .5780      .3078  3378.2822    14.3444      .8510  2064.2773    87.4121    30.8006    34.9146      .2227
 1361.6940     1.0000      .5546      .2931  3361.5798    13.4799      .8402  2046.8977    88.2142    29.6097    34.2619      .2025
 1361.8464     1.0000      .5670      .3052  3383.6384    12.6763      .8334  2040.8867    89.5563    30.9242    34.3967      .2054
 1361.9988     1.0000      .5444      .2835  3395.9377    11.3827      .8285  2032.8652    91.7902    30.1736    33.6900      .2031
 1362.1512     1.0000      .5220      .2867  3415.1663    12.6144      .8368  2031.7958    94.3176    29.8590    33.4051      .2243
 1362.3036     1.0000      .5639      .3116  3422.1638    14.2746      .8490  2036.4751    82.6633    29.5082    33.2131      .2268
 1362.4560     1.0000      .5855      .3246  3430.7197    13.9317      .8521  2016.4215    89.2954    30.5736    34.0215      .2305
 1362.6084     1.0000      .5933      .3219  3405.3179    13.4852      .8509  2009.4696    86.5074    31.4752    34.2905      .2129
 1362.7608     1.0000      .6159      .3161  3413.8743    13.6577      .8503  2007.6257    89.2057    28.5274    34.6502      .2190
 1362.9132     1.0000      .5789      .3324  3371.6045    13.0503      .8513  2001.2085    87.7855    31.3845    34.9538      .2344
 1363.0656     1.0000      .5650      .3261  3393.1196    13.8033      .8574  2002.5454    87.4938    31.6818    35.4090      .2435
 1363.2180     1.0000      .5829      .3149  3395.7937    14.9329      .8570  1993.9891    89.7251    32.3351    35.4580      .2438
 1363.3704     1.0000      .5728      .3226  3387.2375    15.6472      .8523  1999.1763    84.8718    30.2316    34.9752      .2400
 1363.5228     1.0000      .5887      .3152  3397.2646    14.8710      .8489  2012.1388    83.9521    31.0600    34.8015      .2340
 1363.6752     1.0000      .5854      .3161  3394.5906    14.8710      .8509  2020.1603    87.3735    32.0415    34.8029      .2213
 1363.8276     1.0000      .5757      .3161  3406.7798    13.2286      .8536  2040.8876    89.0730    31.2459    34.7585      .2078
 1363.9800     1.0000      .6087      .3190  3421.4854    13.0477      .8534  2022.1710    86.1561    30.5919    34.6617      .2071
 1364.1324     1.0000      .5989      .3141  3402.1084    11.7954      .8509  2044.8984    82.8318    29.4014    34.9638      .2133
 1364.2848     1.0000      .5905      .3171  3404.9392    12.7585      .8446  2044.3636    85.0764    30.7275    34.7700      .2228
 1364.4372     1.0000      .6030      .3200  3415.6345    12.7589      .8442  2051.7166    83.1212    30.5234    33.9834      .2284
 1364.5896     1.0000      .6057      .3259  3440.3679    13.8839      .8416  2043.1605    86.1423    30.8041    33.4885      .2376
 1364.7420     1.0000      .6133      .3436  3428.0688    14.2154      .8525  2026.4491    83.7940    29.3885    33.3293      .2451
 1364.8944     1.0000      .6204      .3412  3431.2542    15.9594      .8530  2023.7753    84.5723    30.8923    33.3615      .2564
 1365.0468     1.0000      .5941      .3336  3445.5508    16.2899      .8536  2018.5884    81.5352    31.1335    32.9627      .2630
 1365.1992     1.0000      .6047      .3363  3449.3030    16.2895      .8485  2020.8612    79.9056    30.7377    32.5429      .2540
 1365.3516     1.0000      .6341      .3340  3435.1086    14.9981      .8501  2045.0590    82.0083    31.1535    32.3008      .2386
 1365.5040     1.0000      .6172      .3225  3411.7126    14.5777      .8504  2016.5774    80.2599    32.7005    31.8904      .2255
 1365.6564     1.0000      .6227      .3291  3404.7166    12.7818      .8460  2035.2941    80.3125    30.7344    32.0667      .2273
 1365.8088     1.0000      .6000      .3224  3410.7244    12.5231      .8439  2027.9413    83.5399    31.1364    32.0853      .2342
 1365.9612     1.0000      .5980      .3222  3414.0667    12.6960      .8409  2032.0911    82.3937    29.8485    31.6467      .2240
 1366.1136     1.0000      .6095      .3204  3392.6765    13.9012      .8475  2046.7970    87.1457    29.2849    30.9236      .2081
 1366.2660     1.0000      .6245      .3335  3410.2126    14.3525      .8455  2048.9360    87.3470    30.2052    30.4063      .2002
