~VERSION INFORMATION
VERS.                                                 2.0:   CWLS Log ASCII Standard-VERSION 2.0
WRAP.                                                  NO:   One line per depth step
~Well Information Block
STRT.M                                          1789.0236:   Top Depth
STOP.M                                          2779.9284:   Bottom Depth
STEP.M                                             .15240:   Depth Increment
NULL.                                            -999.250:   Null Value
FLD .                                          EEMSKANAAL:   Field Name
WELL.                                       EEMSKANAAL- 2:   NAME
APD .M                                               5.62:   ABOVE PERM DATUM
CTRY.                                                  NE:   COUNTRY
EDF .m                                               5.62:   ELEV DRILL FLOOR
EPD .                                                   0:   ELEV PERM DATUM
EGL .m                                              -1.06:   GROUND LEVEL
LMF .                                                  DF:   LOGS MEAS FROM
COMP.                                                 NAM:   OPERATOR
PDAT.                                                 NAP:   PERM DATUM
SPUD.                                          1971/03/17:   SPUD DATE
STAT.                                           Unknown m:   STATE
UWBI.                                      11000074112601:   UWBI
WELL.                                       EEMSKANAAL- 2:   HOLE NAME
~PARAMETER INFORMATION (log)
LNAM.                                RUN 01 RAW OH 9 5/8":   NAME
LTYP.                                                 01R:   LOG TYPE
LVSN.                                                   1:   LOG VERSION
BS  .5/8"                                               9:   BIT SIZE
BLI .M                                             2778.0:   BOTTOM DEPTH LOGGED
BHIS.                                                MCCC:   BRIEF HISTORY
FHIS.                                     MERGE/COPY/COPY:   FULL HISTORY
MRT .DEGC                                              84:   MAX REC TEMP
DFD .G/CC                                            1.54:   MUD DENSITY
DFT .                                   SALT SAT SPERSENE:   MUD TYPE
RMS .                                                    :   RM
MST .                                                    :   RM TEMP
RMCS.                                                    :   RMC
MCST.                                                    :   RMC TEMP
RMFS.                                                    :   RMF
MFST.                                                    :   RMF TEMP
TCS .                                                 N/A:   TIME SINCE CIRCLN
TLI .M                                             1800.0:   TOP DEPTH LOGGED
~Curve Information Block
#MNEM.UNIT                                        API CODE    No Description
#=========                                        ========    == ===========
DEPT.M                                       00 001 00 00:     1  DEPTH
CALF.IN                                                  :     2  CALIPER FROM FORMATION DENSITY LOG
FDC.G/C3                                                 :     3  Formation Density Log (Compensated Open
GR.API                                                   :     4  Gamma Ray
~ASCII
# ...
 2038.6548    10.1770     2.0530     6.8260
 2038.8072    10.1810     2.0490     6.9540
 2038.9596    10.1850     2.0440     7.1280
 2039.1120    10.1890     2.0400     7.2330
 2039.2644    10.1930     2.0490     7.5970
 2039.4168    10.1970     2.0590     8.1830
 2039.5692    10.2000     2.0520     8.2450
 2039.7216    10.1990     2.0540     8.1300
 2039.8740    10.1940     2.0540     8.1300
 2040.0264    10.1900     2.0530     8.0960
 2040.1788    10.1840     2.0590     7.4850
 2040.3312    10.1770     2.0560     7.1950
 2040.4836    10.1760     2.0470     7.6890
 2040.6360    10.1760     2.0420     8.5420
 2040.7884    10.1760     2.0450     9.0450
 2040.9408    10.1760     2.0520     8.3850
 2041.0932    10.1760     2.0600     8.4080
 2041.2456    10.1800     2.0640     9.0920
 2041.3980    10.1800     2.0730     8.3560
 2041.5504    10.1830     2.0700     7.3640
 2041.7028    10.1880     2.0550     7.3010
 2041.8552    10.1900     2.0590     7.8940
 2042.0076    10.1910     2.0590     8.3000
 2042.1600    10.1840     2.0580     8.2920
 2042.3124    10.1790     2.0530     7.9470
 2042.4648    10.1750     2.0500     7.2750
 2042.6172    10.1700     2.0470     6.5300
 2042.7696    10.1680     2.0470     5.8590
 2042.9220    10.1680     2.0500     5.5180
 2043.0744    10.1680     2.0530     5.4380
 2043.2268    10.1700     2.0520     5.7370
 2043.3792    10.1740     2.0510     6.3560
 2043.5316    10.1770     2.0540     6.9110
 2043.6840    10.1820     2.0480     7.2540
 2043.8364    10.1870     2.0480     7.2740
 2043.9888    10.1880     2.0460     7.1250
 2044.1412    10.1890     2.0530     6.9230
 2044.2936    10.1920     2.0620     6.8700
 2044.4460    10.1920     2.0570     6.9850
 2044.5984    10.1970     2.0460     7.3010
 2044.7508    10.2050     2.0440     7.6740
 2044.9032    10.2110     2.0470     7.7950
 2045.0556    10.2140     2.0530     7.4010
 2045.2080    10.2160     2.0480     6.8120
 2045.3604    10.2120     2.0520     6.7140
 2045.5128    10.1960     2.0610     7.1000
 2045.6652    10.1830     2.0690     7.8290
 2045.8176    10.1690     2.0750     8.2270
 2045.9700    10.1580     2.0770     7.9800
 2046.1224    10.1570     2.0690     7.5130
 2046.2748    10.1570     2.0660     7.3950
 2046.4272    10.1580     2.0670     7.6090
 2046.5796    10.1610     2.0660     8.1350
 2046.7320    10.1610     2.0630     8.4680
 2046.8844    10.1610     2.0600     8.4740
 2047.0368    10.1610     2.0540     8.1440
 2047.1892    10.1610     2.0560     7.6010
 2047.3416    10.1590     2.0560     6.9900
 2047.4940    10.1570     2.0570     6.5120
 2047.6464    10.1570     2.0540     6.1780
 2047.7988    10.1580     2.0550     5.9710
 2047.9512    10.1610     2.0570     5.7120
 2048.1036    10.1610     2.0600     5.4920
 2048.2560    10.1610     2.0650     5.7010
 2048.4084    10.1570     2.0700     6.4570
 2048.5608    10.1570     2.0770     7.5500
 2048.7132    10.1570     2.0770     8.3690
 2048.8656    10.1570     2.0700     8.8980
 2049.0180    10.1570     2.0630     7.8580
 2049.1704    10.1570     2.0650     6.5480
 2049.3228    10.1570     2.0670     5.9680
 2049.4752    10.1530     2.0640     6.0230
 2049.6276    10.1490     2.0570     6.2660
 2049.7800    10.1480     2.0590     6.5430
 2049.9324    10.1450     2.0590     6.6450
 2050.0848    10.1430     2.0540     6.6750
 2050.2372    10.1380     2.0530     6.4860
 2050.3896    10.1370     2.0510     6.3450
 2050.5420    10.1350     2.0550     6.5530
 2050.6944    10.1280     2.0630     6.4570
 2050.8468    10.1230     2.0650     6.2540
 2050.9992    10.1210     2.0610     6.3300
 2051.1516    10.1210     2.0600     6.5410
 2051.3040    10.1210     2.0670     6.6950
 2051.4564    10.1230     2.0640     6.7760
 2051.6088    10.1250     2.0650     6.5410
 2051.7612    10.1250     2.0560     6.0560
 2051.9136    10.1270     2.0550     5.8500
 2052.0660    10.1290     2.0530     5.9090
 2052.2184    10.1290     2.0620     6.0980
 2052.3708    10.1320     2.0620     6.1770
 2052.5232    10.1320     2.0640     6.2910
 2052.6756    10.1290     2.0640     6.6430
 2052.8280    10.1270     2.0610     7.5650
 2052.9804    10.1290     2.0610     6.9350
 2053.1328    10.1290     2.0610     6.0800
 2053.2852    10.1290     2.0450     6.3500
 2053.4376    10.1290     2.0450     6.9510
 2053.5900    10.1330     2.0530     7.6780
 2053.7424    10.1330     2.0570     7.8360
 2053.8948    10.1330     2.0570     7.1360
 2054.0472    10.1350     2.0610     6.9300
 2054.1996    10.1370     2.0520     6.9000
 2054.3520    10.1320     2.0550     6.5770
 2054.5044    10.1250     2.0600     6.8390
 2054.6568    10.1090     2.0600     7.2850
 2054.8092    10.1060     2.0550     7.2630
 2054.9616    10.1120     2.0580     6.4350
 2055.1140    10.1140     2.0600     6.9290
 2055.2664    10.1210     2.0540     6.1540
 2055.4188    10.1210     2.0600     5.1090
 2055.5712    10.1210     2.0560     6.3360
 2055.7236    10.1270     2.0570     8.1100
 2055.8760    10.1290     2.0590     8.5810
 2056.0284    10.1300     2.0580     7.6460
 2056.1808    10.1360     2.0600     7.2020
 2056.3332    10.1320     2.0700     7.2400
 2056.4856    10.1290     2.0690     7.2390
 2056.6380    10.1240     2.0560     6.5390
 2056.7904    10.1320     2.0630     5.9710
 2056.9428    10.1180     2.0670     6.4390
 2057.0952    10.0910     2.0600     6.9760
 2057.2476    10.0810     2.0590     6.7920
 2057.4000    10.0910     2.0630     6.5700
 2057.5524    10.1050     2.0600     6.6950
 2057.7048    10.1120     2.0490     7.0830
 2057.8572    10.0890     2.0470     7.6290
 2058.0096    10.0660     2.0530     8.0510
 2058.1620    10.0570     2.0590     6.7690
 2058.3144    10.0660     2.0690     6.2040
 2058.4668    10.0760     2.0790     7.0060
 2058.6192    10.0770     2.0760     7.3740
 2058.7716    10.0770     2.0580     7.2430
 2058.9240    10.0770     2.0510     6.7950
 2059.0764    10.0800     2.0530     6.1090
 2059.2288    10.0790     2.0550     5.7810
 2059.3812    10.0730     2.0500     5.4150
 2059.5336    10.0730     2.0470     5.3400
 2059.6860    10.0730     2.0500     5.4520
 2059.8384    10.0690     2.0510     5.5020
 2059.9908    10.0690     2.0520     5.5880
 2060.1432    10.0710     2.0520     5.6700
 2060.2956    10.0730     2.0540     5.8880
 2060.4480    10.0740     2.0510     6.0510
 2060.6004    10.0800     2.0410     6.2250
 2060.7528    10.0810     2.0400     6.3220
 2060.9052    10.0810     2.0480     6.2310
 2061.0576    10.0800     2.0600     5.8870
 2061.2100    10.0780     2.0600     5.5380
 2061.3624    10.0770     2.0690     5.6960
 2061.5148    10.0750     2.0690     5.9170
 2061.6672    10.0710     2.0630     5.8240
 2061.8196    10.0670     2.0620     5.3290
 2061.9720    10.0610     2.0650     5.0520
 2062.1244    10.0530     2.0610     5.1440
 2062.2768    10.0460     2.0640     5.3270
 2062.4292    10.0420     2.0720     5.3440
 2062.5816    10.0420     2.0620     5.1450
 2062.7340    10.0440     2.0490     4.9040
 2062.8864    10.0480     2.0470     4.5650
 2063.0388    10.0490     2.0540     4.7620
 2063.1912    10.0460     2.0540     5.3250
 2063.3436    10.0440     2.0540     5.4380
 2063.4960    10.0400     2.0620     5.4300
 2063.6484    10.0360     2.0580     4.9970
 2063.8008    10.0320     2.0500     4.2490
 2063.9532    10.0300     2.0450     4.8630
 2064.1056    10.0290     2.0430     5.0520
 2064.2580    10.0260     2.0490     5.0800
 2064.4104    10.0250     2.0550     5.6130
 2064.5628    10.0230     2.0590     5.9420
 2064.7152    10.0230     2.0650     5.5270
 2064.8676    10.0250     2.0640     5.0740
 2065.0200    10.0250     2.0610     4.8240
 2065.1724    10.0250     2.0590     4.4460
 2065.3248    10.0250     2.0540     4.2300
 2065.4772    10.0220     2.0500     4.1390
 2065.6296    10.0160     2.0530     4.3730
 2065.7820    10.0110     2.0600     4.6350
 2065.9344    10.0090     2.0560     4.8660
 2066.0868    10.0120     2.0600     4.9480
 2066.2392    10.0170     2.0630     4.8170
