~VERSION INFORMATION
VERS.                                                 2.0:   CWLS Log ASCII Standard-VERSION 2.0
WRAP.                                                  NO:   One line per depth step
~Well Information Block
STRT.M                                           404.0124:   Top Depth
STOP.M                                          1403.9088:   Bottom Depth
STEP.M                                             .15240:   Depth Increment
NULL.                                            -999.250:   Null Value
FLD .                                          EEMSKANAAL:   Field Name
WELL.                                       EEMSKANAAL- 1:   NAME
EDF .m                                               5.58:   ELEV DRILL FLOOR
EPD .                                                   0:   ELEV PERM DATUM
EGL .m                                                -.9:   GROUND LEVEL
LMF .                                                  DF:   LOGS MEAS FROM
COMP.                                                 NAM:   OPERATOR
PDAT.                                                 NAP:   PERM DATUM
SPUD.                                          1970/11/08:   SPUD DATE
UWBI.                                      11000074112201:   UWBI
WELL.                                       EEMSKANAAL- 1:   HOLE NAME
~PARAMETER INFORMATION (log)
LNAM.                                RUN 01 RAW OH 14.75":   NAME
LTYP.                                                 01R:   LOG TYPE
LVSN.                                                   1:   LOG VERSION
BS  .3/4"                                              14:   BIT SIZE
BLI .M                                             1406.2:   BOTTOM DEPTH LOGGED
BHIS.                                            RCCCCCCC:   BRIEF HISTORY
FHIS.              RAW-TIGA/COPY/COPY/COPY/COPY/COPY/COPY:   FULL HISTORY
MRT .C                                                 50:   MAX REC TEMP
DFT .                                         CHALK WATER:   MUD TYPE
RMS .                                                1.44:   RM
MST .C                                                 11:   RM TEMP
RMCS.                                                1.93:   RMC
MCST.C                                                 19:   RMC TEMP
RMFS.                                               0.917:   RMF
MFST.C                                                 19:   RMF TEMP
TCS .                                                 N/A:   TIME SINCE CIRCLN
TLI .M                                              403.6:   TOP DEPTH LOGGED
~Curve Information Block
#MNEM.UNIT                                        API CODE    No Description
#=========                                        ========    == ===========
DEPT.M                                       00 001 00 00:     1  DEPTH
DILD.OHMM                                                :     2  DUAL INDUCTION LOG DEEP RESISTIVITY
SN.OHMM                                                  :     3  SHORT NORMAL
~ASCII
# ...
  515.1120      .6500     1.0190
  515.2644      .6570     1.0300
  515.4168      .6860     1.0580
  515.5692      .7390     1.0990
  515.7216      .7870     1.1390
  515.8740      .8750     1.2030
  516.0264      .9800     1.2870
  516.1788     1.0620     1.4040
  516.3312     1.1610     1.5420
  516.4836     1.2490     1.6700
  516.6360     1.3000     1.7940
  516.7884     1.2680     1.8630
  516.9408     1.2000     1.8540
  517.0932     1.1180     1.7970
  517.2456      .9250     1.6400
  517.3980      .7210     1.4820
  517.5504      .6360     1.3240
  517.7028      .5610     1.1650
  517.8552      .5070     1.0520
  518.0076      .4770     1.0200
  518.1600      .4580      .9960
  518.3124      .4500      .9700
  518.4648      .4450      .9450
  518.6172      .4420      .9270
  518.7696      .4420      .9210
  518.9220      .4500      .9400
  519.0744      .4680      .9840
  519.2268      .5160     1.0240
  519.3792      .5580     1.0530
  519.5316      .6170     1.0700
  519.6840      .6900     1.0850
  519.8364      .7690     1.0860
  519.9888      .8280     1.0840
  520.1412      .8680     1.1230
  520.2936      .9030     1.1240
  520.4460      .9300     1.1350
  520.5984      .9420     1.1800
  520.7508      .9500     1.2460
  520.9032      .9580     1.3050
  521.0556      .9580     1.3360
  521.2080      .9580     1.3430
  521.3604      .9540     1.3430
  521.5128      .9500     1.3420
  521.6652      .9450     1.3340
  521.8176      .9310     1.3240
  521.9700      .9160     1.3150
  522.1224      .9100     1.3060
  522.2748      .9100     1.3100
  522.4272      .9100     1.3100
  522.5796      .9120     1.2580
  522.7320      .9180     1.1900
  522.8844      .9200     1.1340
  523.0368      .9260     1.1040
  523.1892      .9260     1.0690
  523.3416      .9260     1.0380
  523.4940      .9260     1.0210
  523.6464      .9260     1.0130
  523.7988      .9260     1.0080
  523.9512      .9260     1.0070
  524.1036      .9260     1.0090
  524.2560      .9260     1.0120
  524.4084      .9260     1.0170
  524.5608      .9210     1.0220
  524.7132      .9190     1.0210
  524.8656      .9260     1.0160
  525.0180      .9400     1.0110
  525.1704      .9580     1.0090
  525.3228      .9900     1.0090
  525.4752     1.0660     1.0190
  525.6276     1.1810     1.0680
  525.7800     1.2500     1.1580
  525.9324     1.3000     1.2830
  526.0848     1.3560     1.4030
  526.2372     1.4100     1.6130
  526.3896     1.4090     1.8420
  526.5420     1.3550     1.9020
  526.6944     1.2580     1.7950
  526.8468     1.1690     1.5960
  526.9992     1.0760     1.4540
  527.1516     1.0090     1.3120
  527.3040      .9470     1.1840
  527.4564      .9200     1.1020
  527.6088      .9100     1.0720
  527.7612      .9260     1.0770
  527.9136      .9780     1.1080
  528.0660     1.0440     1.1980
  528.2184     1.1010     1.2740
  528.3708     1.1390     1.3020
  528.5232     1.1490     1.3080
  528.6756     1.1490     1.2940
  528.8280     1.1270     1.2560
  528.9804     1.1000     1.2080
  529.1328     1.0390     1.1580
  529.2852      .9690     1.1100
  529.4376      .9250     1.0630
  529.5900      .8970     1.0210
  529.7424      .8720      .9790
  529.8948      .8430      .9300
  530.0472      .8160      .9020
  530.1996      .8060      .8940
  530.3520      .8120      .8950
  530.5044      .8330      .8970
  530.6568      .8510      .9050
  530.8092      .8540      .9210
  530.9616      .8540      .9460
  531.1140      .8460      .9760
  531.2664      .8410      .9870
  531.4188      .8380      .9700
  531.5712      .8380      .9460
  531.7236      .8300      .9450
  531.8760      .8300      .9610
  532.0284      .8360      .9880
  532.1808      .8370     1.0440
  532.3332      .8380     1.1190
  532.4856      .8380     1.1810
  532.6380      .8390     1.1420
  532.7904      .8450     1.0770
  532.9428      .8430     1.0240
  533.0952      .8520      .9750
  533.2476      .8660      .9410
  533.4000      .8840      .9310
  533.5524      .9070      .9410
  533.7048      .9430      .9660
  533.8572      .9790     1.0010
  534.0096     1.0140     1.0360
  534.1620     1.0470     1.1020
  534.3144     1.0600     1.1800
  534.4668     1.0600     1.2830
  534.6192     1.0300     1.3770
  534.7716      .9890     1.3940
  534.9240      .9450     1.3570
  535.0764      .9030     1.3130
  535.2288      .8580     1.1980
  535.3812      .8050     1.0900
  535.5336      .7690     1.0180
  535.6860      .7410      .9590
  535.8384      .7000      .9290
  535.9908      .6470      .9180
  536.1432      .5990      .9150
  536.2956      .5570      .9120
  536.4480      .5400      .9080
  536.6004      .5380      .9070
  536.7528      .5600      .9070
  536.9052      .5870      .9100
  537.0576      .6140      .9100
  537.2100      .6380      .9110
  537.3624      .6660      .9170
  537.5148      .6820      .9300
  537.6672      .7050      .9440
  537.8196      .7340      .9570
  537.9720      .7600      .9740
  538.1244      .7700      .9930
  538.2768      .7820     1.0200
  538.4292      .7910     1.0390
  538.5816      .7920     1.0410
  538.7340      .7970     1.0230
  538.8864      .8000      .9860
  539.0388      .8190      .9540
  539.1912      .8440      .9470
  539.3436      .8610      .9510
  539.4960      .8780      .9640
  539.6484      .8720      .9890
  539.8008      .8540     1.0320
  539.9532      .8250     1.0750
  540.1056      .7850     1.0930
  540.2580      .7440     1.1010
  540.4104      .7100     1.0610
  540.5628      .6750     1.0550
  540.7152      .6330     1.0040
  540.8676      .5860      .9270
  541.0200      .5640      .8730
  541.1724      .5620      .8430
  541.3248      .5640      .8180
  541.4772      .5780      .7970
  541.6296      .6280      .7970
  541.7820      .7330      .8180
  541.9344      .8250      .8690
  542.0868      .9110      .9400
  542.2392      .9670     1.0260
  542.3916     1.0170     1.1020
  542.5440     1.0720     1.1560
  542.6964     1.1090     1.1910
  542.8488     1.1250     1.2130
  543.0012     1.1320     1.2300
  543.1536     1.1330     1.2350
  543.3060     1.1380     1.2360
  543.4584     1.1340     1.2350
  543.6108     1.1270     1.2330
  543.7632     1.1170     1.2310
  543.9156     1.1090     1.2240
  544.0680     1.0820     1.2100
  544.2204     1.0660     1.1990
  544.3728     1.0500     1.1900
  544.5252     1.0340     1.1850
  544.6776     1.0250     1.1820
  544.8300     1.0140     1.1650
  544.9824      .9990     1.1490
  545.1348      .9950     1.0960
  545.2872      .9760     1.1080
  545.4396      .9490     1.1270
  545.5920      .8950     1.1230
  545.7444      .8100     1.1340
  545.8968      .7410     1.1610
  546.0492      .7000     1.1640
  546.2016      .6780     1.1240
  546.3540      .6600     1.0370
  546.5064      .6350      .9510
  546.6588      .6100      .8950
  546.8112      .5810      .8690
  546.9636      .5700      .8690
  547.1160      .5770      .8900
  547.2684      .6020      .9400
  547.4208      .6450      .9960
  547.5732      .6770     1.0560
  547.7256      .7040     1.0840
  547.8780      .7040     1.0860
  548.0304      .6970     1.0890
  548.1828      .6960     1.0980
  548.3352      .7040     1.0500
  548.4876      .7040     1.0050
  548.6400      .7040      .9940
  548.7924      .7040      .9990
  548.9448      .7080     1.0440
  549.0972      .7240     1.0830
  549.2496      .7520     1.1190
  549.4020      .7680     1.1400
  549.5544      .7640     1.1300
  549.7068      .7490     1.1020
  549.8592      .7250     1.0740
  550.0116      .7030     1.0740
  550.1640      .6860     1.0990
  550.3164      .6850     1.1230
  550.4688      .7230     1.1440
  550.6212      .7510     1.1630
  550.7736      .7940     1.1770
  550.9260      .8620     1.1850
  551.0784      .9360     1.1870
  551.2308      .9980     1.1860
  551.3832     1.0650     1.2020
  551.5356     1.1340     1.2590
  551.6880     1.2260     1.3200
  551.8404     1.2770     1.3650
  551.9928     1.2890     1.3750
