~VERSION INFORMATION
VERS.                                                 2.0:   CWLS Log ASCII Standard-VERSION 2.0
WRAP.                                                  NO:   One line per depth step
~Well Information Block
STRT.M                                          2769.1080:   Top Depth
STOP.M                                          2949.8544:   Bottom Depth
STEP.M                                             .15240:   Depth Increment
NULL.                                            -999.250:   Null Value
FLD .                                          EEMSKANAAL:   Field Name
WELL.                                       EEMSKANAAL- 2:   NAME
APD .M                                               5.62:   ABOVE PERM DATUM
CTRY.                                                  NE:   COUNTRY
EDF .m                                               5.62:   ELEV DRILL FLOOR
EPD .                                                   0:   ELEV PERM DATUM
EGL .m                                              -1.06:   GROUND LEVEL
LMF .                                                  DF:   LOGS MEAS FROM
COMP.                                                 NAM:   OPERATOR
PDAT.                                                 NAP:   PERM DATUM
SPUD.                                          1971/03/17:   SPUD DATE
STAT.                                           Unknown m:   STATE
UWBI.                                      11000074112601:   UWBI
WELL.                                       EEMSKANAAL- 2:   HOLE NAME
~PARAMETER INFORMATION (log)
LNAM.                                RUN 02 RAW OH 6 1/4":   NAME
LTYP.                                                 02R:   LOG TYPE
LVSN.                                                   1:   LOG VERSION
BS  .1/4"                                               6:   BIT SIZE
BLI .M                                             2942.0:   BOTTOM DEPTH LOGGED
BHIS.                                             RCCCCCC:   BRIEF HISTORY
FHIS.                   RAW-TIGA/COPY/COPY/COPY/COPY/COPY:   FULL HISTORY
MRT .DEGC                                              84:   MAX REC TEMP
DFD .G/CC                                            1.36:   MUD DENSITY
DFT .                                     SALT SAT UNICAL:   MUD TYPE
RMS .OHMM                                           0.031:   RM
MST .DEGC                                              12:   RM TEMP
RMCS.OHMM                                           0.136:   RMC
MCST. DEGC                                             12:   RMC TEMP
RMFS.OHMM                                           0.053:   RMF
MFST.DEGC                                              19:   RMF TEMP
TCS .                                                 N/A:   TIME SINCE CIRCLN
TLI .M                                             2772.0:   TOP DEPTH LOGGED
~Curve Information Block
#MNEM.UNIT                                        API CODE    No Description
#=========                                        ========    == ===========
DEPT.M                                       00 001 00 00:     1  DEPTH
CALF.IN                                                  :     2  CALIPER FROM FORMATION DENSITY LOG
FDC.G/C3                                                 :     3  Formation Density Log (Compensated Open
GR.API                                                   :     4  Gamma Ray
~ASCII
# ...
 2907.7920     6.2070     2.5730    18.9350
 2907.9444     6.2450     2.5660    18.6970
 2908.0968     6.2870     2.5480    20.4470
 2908.2492     6.3320     2.5090    23.8900
 2908.4016     6.3490     2.4410    25.4270
 2908.5540     6.3400     2.3950    24.5340
 2908.7064     6.3370     2.3560    22.1840
 2908.8588     6.3560     2.3120    22.2160
 2909.0112     6.3370     2.3170    22.8630
 2909.1636     6.2460     2.3190    21.5550
 2909.3160     6.2330     2.3270    20.6060
 2909.4684     6.2400     2.3300    19.0780
 2909.6208     6.2490     2.3230    18.5510
 2909.7732     6.2620     2.3340    19.0390
 2909.9256     6.2760     2.3420    19.4570
 2910.0780     6.2760     2.3410    19.9490
 2910.2304     6.2790     2.3350    20.7790
 2910.3828     6.2870     2.3270    20.1850
 2910.5352     6.2790     2.3400    20.5000
 2910.6876     6.2720     2.3580    21.2910
 2910.8400     6.2690     2.3570    20.9760
 2910.9924     6.2600     2.3350    21.9380
 2911.1448     6.2560     2.3410    23.7650
 2911.2972     6.2420     2.3410    24.6050
 2911.4496     6.2250     2.3130    24.7770
 2911.6020     6.2000     2.3110    24.2470
 2911.7544     6.1790     2.3130    22.9340
 2911.9068     6.1530     2.3280    22.7840
 2912.0592     6.1420     2.3200    23.5480
 2912.2116     6.1450     2.3400    24.8940
 2912.3640     6.1520     2.3690    25.1320
 2912.5164     6.1510     2.3860    25.6370
 2912.6688     6.1450     2.4050    25.4440
 2912.8212     6.1360     2.4170    24.8220
 2912.9736     6.1350     2.4170    23.5040
 2913.1260     6.1380     2.4100    22.7250
 2913.2784     6.1500     2.4020    23.7780
 2913.4308     6.1660     2.4020    22.6290
 2913.5832     6.2010     2.4030    21.9430
 2913.7356     6.2380     2.4180    20.8750
 2913.8880     6.2620     2.4310    21.5910
 2914.0404     6.2760     2.4510    21.9810
 2914.1928     6.2800     2.4640    22.1740
 2914.3452     6.2800     2.4810    22.2300
 2914.4976     6.2860     2.4650    22.3470
 2914.6500     6.2950     2.4420    22.8450
 2914.8024     6.3090     2.4250    22.3520
 2914.9548     6.3190     2.4610    26.4990
 2915.1072     6.3200     2.4930    28.7660
 2915.2596     6.3200     2.5420    30.0090
 2915.4120     6.3110     2.5320    31.0570
 2915.5644     6.2980     2.5080    31.7970
 2915.7168     6.2870     2.4890    34.2770
 2915.8692     6.2840     2.5450    43.3980
 2916.0216     6.2810     2.6010    58.5160
 2916.1740     6.2830     2.6300    60.0870
 2916.3264     6.2880     2.6040    49.8720
 2916.4788     6.2940     2.5800    41.2740
 2916.6312     6.3090     2.5530    34.6620
 2916.7836     6.3280     2.5130    32.6250
 2916.9360     6.3450     2.4740    33.8900
 2917.0884     6.2730     2.4990    37.1560
 2917.2408     6.1160     2.5230    42.4640
 2917.3932     6.0810     2.5470    48.8870
 2917.5456     6.0920     2.5630    49.8670
 2917.6980     6.2320     2.5730    43.3980
 2917.8504     6.3410     2.5390    37.3210
 2918.0028     6.3600     2.5110    36.3600
 2918.1552     6.3630     2.5600    44.7460
 2918.3076     6.4180     2.6000    56.4170
 2918.4600     6.4170     2.6770    66.5700
 2918.6124     6.3790     2.6790    76.8140
 2918.7648     6.3760     2.6650    90.4070
 2918.9172     6.3820     2.6680    98.0230
 2919.0696     6.4330     2.6760    97.9890
 2919.2220     6.5080     2.6900    93.7890
 2919.3744     6.5450     2.6830    92.4300
 2919.5268     6.5720     2.6970    96.8240
 2919.6792     6.6930     2.7080   102.4030
 2919.8316     6.7260     2.6980    97.3990
 2919.9840     6.7130     2.6900    91.2880
 2920.1364     6.6780     2.6700    79.4820
 2920.2888     6.6390     2.6780    71.2410
 2920.4412     6.5830     2.6490    61.5270
 2920.5936     6.4150     2.6060    49.8960
 2920.7460     6.2690     2.5950    53.6630
 2920.8984     6.2710     2.6300    60.0550
 2921.0508     6.2820     2.6390    56.3980
 2921.2032     6.2660     2.6290    46.6190
 2921.3556     6.2000     2.5780    42.7860
 2921.5080     6.1390     2.5320    42.6910
 2921.6604     6.0870     2.5440    49.1890
 2921.8128     6.1210     2.5510    57.3030
 2921.9652     6.1930     2.5730    63.2550
 2922.1176     6.2240     2.5830    66.1530
 2922.2700     6.1860     2.5660    70.9120
 2922.4224     6.1750     2.5410    80.0200
 2922.5748     6.1870     2.5440    89.9510
 2922.7272     6.2030     2.5190    97.4000
 2922.8796     6.2220     2.6030   103.0890
 2923.0320     6.2540     2.7060   103.8910
 2923.1844     6.4190     2.7080    99.1820
 2923.3368     6.6010     2.6650    96.7940
 2923.4892     6.6680     2.6590    98.0210
 2923.6416     6.6710     2.6610   104.5480
 2923.7940     6.4930     2.6730   107.8780
 2923.9464     6.4150     2.7160   100.5960
 2924.0988     6.4730     2.6920    91.2200
 2924.2512     6.5320     2.6720    81.3860
 2924.4036     6.5700     2.6650    71.4940
 2924.5560     6.5810     2.6860    76.7630
 2924.7084     6.5830     2.6740    82.0480
 2924.8608     6.5790     2.6770    85.0720
 2925.0132     6.5800     2.6620    87.1410
 2925.1656     6.5990     2.6360    90.0780
 2925.3180     6.6070     2.6330    91.3680
 2925.4704     6.4450     2.6430    90.9550
 2925.6228     6.3590     2.6560    94.5260
 2925.7752     6.3530     2.6900    97.3480
 2925.9276     6.3500     2.7110    97.9330
 2926.0800     6.3350     2.7320    96.4140
 2926.2324     6.2930     2.7160    94.6160
 2926.3848     6.2550     2.7010    93.8140
 2926.5372     6.2500     2.7050    93.1600
 2926.6896     6.2780     2.7090    93.1750
 2926.8420     6.3430     2.6960    97.0450
 2926.9944     6.3830     2.6670   103.8190
 2927.1468     6.3860     2.6470   105.7600
 2927.2992     6.3680     2.6480   105.6310
 2927.4516     6.2970     2.6470   108.3620
 2927.6040     6.2780     2.6490   112.4760
 2927.7564     6.3470     2.6410   115.9030
 2927.9088     6.3910     2.6290   117.8310
 2928.0612     6.4330     2.6300   116.8810
 2928.2136     6.4710     2.6530   116.2290
 2928.3660     6.4930     2.6740   122.4390
 2928.5184     6.5560     2.7060   125.2560
 2928.6708     6.6910     2.6690   124.9740
 2928.8232     6.9830     2.6290   119.9750
 2928.9756     7.0120     2.6690   107.5430
 2929.1280     6.9350     2.7360    85.1580
 2929.2804     6.8860     2.7510    78.2030
 2929.4328     6.8830     2.7390    81.3370
 2929.5852     6.6700     2.7000    83.6470
 2929.7376     6.4820     2.6940    88.6670
 2929.8900     6.5300     2.6830    92.9470
 2930.0424     6.5240     2.6890    92.9390
 2930.1948     6.4210     2.7280    89.4820
 2930.3472     6.3390     2.7360    90.0060
 2930.4996     6.2920     2.7410    92.5450
 2930.6520     6.2680     2.7640    94.5310
 2930.8044     6.3000     2.7640    96.3070
 2930.9568     6.3650     2.7640    94.4620
 2931.1092     6.3680     2.7550    95.2880
 2931.2616     6.3440     2.7670    98.4600
 2931.4140     6.3070     2.7570   103.4350
 2931.5664     6.2770     2.7350   106.6360
 2931.7188     6.2920     2.7270   108.6770
 2931.8712     6.3570     2.7630   110.3290
 2932.0236     6.4130     2.7760   110.7790
 2932.1760     6.4360     2.7300   110.6360
 2932.3284     6.4480     2.7110   109.1720
 2932.4808     6.4450     2.7050   109.3410
 2932.6332     6.4210     2.6900   110.4590
 2932.7856     6.4230     2.6950   110.9950
 2932.9380     6.6110     2.7120   104.9580
 2933.0904     6.6840     2.7150   101.4790
 2933.2428     6.6670     2.7040   100.7200
 2933.3952     6.5770     2.7080   101.5830
 2933.5476     6.4690     2.7300    95.6170
 2933.7000     6.4660     2.7320    92.9700
 2933.8524     6.5360     2.7100    94.2550
 2934.0048     6.6110     2.7090    98.3500
 2934.1572     6.6200     2.7030   103.0530
 2934.3096     6.5640     2.6940   106.5030
 2934.4620     6.5120     2.6670   108.8890
 2934.6144     6.4560     2.6570   109.2630
 2934.7668     6.4620     2.6700   105.6430
 2934.9192     6.5350     2.6660   101.1280
 2935.0716     6.4680     2.6510    98.6960
 2935.2240     6.4110     2.6670    98.9740
 2935.3764     6.4570     2.7050   103.9900
