~VERSION INFORMATION
VERS.                                                 2.0:   CWLS Log ASCII Standard-VERSION 2.0
WRAP.                                                  NO:   One line per depth step
~Well Information Block
STRT.M                                          1407.1092:   Top Depth
STOP.M                                          3062.9352:   Bottom Depth
STEP.M                                             .15240:   Depth Increment
NULL.                                            -999.250:   Null Value
FLD .                                          EEMSKANAAL:   Field Name
WELL.                                       EEMSKANAAL- 1:   NAME
EDF .m                                               5.58:   ELEV DRILL FLOOR
EPD .                                                   0:   ELEV PERM DATUM
EGL .m                                                -.9:   GROUND LEVEL
LMF .                                                  DF:   LOGS MEAS FROM
COMP.                                                 NAM:   OPERATOR
PDAT.                                                 NAP:   PERM DATUM
SPUD.                                          1970/11/08:   SPUD DATE
UWBI.                                      11000074112201:   UWBI
WELL.                                       EEMSKANAAL- 1:   HOLE NAME
~PARAMETER INFORMATION (log)
LNAM.                                RUN 03 RAW OH 9.625":   NAME
LTYP.                                                 03R:   LOG TYPE
LVSN.                                                   1:   LOG VERSION
BS  .5/8"                                               9:   BIT SIZE
BLI .M                                               3064:   BOTTOM DEPTH LOGGED
BHIS.                                            RCCCCCCC:   BRIEF HISTORY
FHIS.              RAW-TIGA/COPY/COPY/COPY/COPY/COPY/COPY:   FULL HISTORY
MRT .C                                                 98:   MAX REC TEMP
DFT .                                          SALT SPERS:   MUD TYPE
RMS .                                                    :   RM
MST .                                                    :   RM TEMP
RMCS.                                                    :   RMC
MCST.                                                    :   RMC TEMP
RMFS.                                                    :   RMF
MFST.                                                    :   RMF TEMP
TCS .                                               4 HRS:   TIME SINCE CIRCLN
TLI .M                                               1407:   TOP DEPTH LOGGED
~Curve Information Block
#MNEM.UNIT                                        API CODE    No Description
#=========                                        ========    == ===========
DEPT.M                                       00 001 00 00:     1  DEPTH
CALF.IN                                                  :     2  CALIPER FROM FORMATION DENSITY LOG
FDC.g/c3                                                 :     3  Formation Density Log (Compensated Open
GR.GAPI                                                  :     4  Gamma Ray
~ASCII
# ...
 3043.5804     8.7910     2.5270    43.8630
 3043.7328     8.8320     2.5550    46.4620
 3043.8852     8.9180     2.5710    53.8280
 3044.0376     8.9590     2.5810    60.0380
 3044.1900     8.9720     2.5830    64.5430
 3044.3424     8.9870     2.5740    65.4320
 3044.4948     8.9920     2.5920    63.1660
 3044.6472     8.9910     2.5730    60.4980
 3044.7996     8.9860     2.5810    60.8660
 3044.9520     8.9900     2.5900    63.2960
 3045.1044     8.9920     2.5750    63.5060
 3045.2568     8.9940     2.5860    64.3230
 3045.4092     8.9920     2.5970    65.6950
 3045.5616     8.9980     2.5940    64.2370
 3045.7140     9.0110     2.5990    59.7400
 3045.8664     9.0030     2.6030    53.3660
 3046.0188     9.0190     2.5920    48.2390
 3046.1712     9.0200     2.5760    41.3110
 3046.3236     8.9790     2.5550    30.5030
 3046.4760     8.8740     2.5500    28.1770
 3046.6284     8.8560     2.5720    30.1760
 3046.7808     8.8460     2.5580    31.4450
 3046.9332     8.8810     2.5370    32.1100
 3047.0856     9.0740     2.5220    32.2500
 3047.2380     9.3010     2.5350    32.2580
 3047.3904     9.5330     2.5780    33.9030
 3047.5428     9.6980     2.5920    42.9720
 3047.6952     9.7460     2.6240    52.4650
 3047.8476     9.6550     2.6340    59.1760
 3048.0000     9.4970     2.6630    63.7500
 3048.1524     9.3740     2.6660    65.3410
 3048.3048     9.2650     2.6580    69.1490
 3048.4572     9.2390     2.6350    66.6550
 3048.6096     9.2470     2.6420    64.6390
 3048.7620     9.3030     2.6610    65.6920
 3048.9144     9.3690     2.6520    68.5650
 3049.0668     9.2760     2.6530    75.8930
 3049.2192     9.2530     2.6730    88.0350
 3049.3716     9.3280     2.6790    95.6070
 3049.5240     9.3630     2.6750    91.3920
 3049.6764     9.2920     2.6690    94.3450
 3049.8288     9.2410     2.6600    96.2720
 3049.9812     9.2600     2.6620    95.6100
 3050.1336     9.3240     2.6370    97.7220
 3050.2860     9.3550     2.6460    99.5530
 3050.4384     9.3390     2.6590   101.8110
 3050.5908     9.3080     2.6860    99.2270
 3050.7432     9.2810     2.7050    94.3220
 3050.8956     9.2480     2.6910    91.5310
 3051.0480     9.2470     2.7070    89.4750
 3051.2004     9.2940     2.7030    85.0040
 3051.3528     9.3940     2.6750    73.8310
 3051.5052     9.3240     2.6730    67.4150
 3051.6576     9.2090     2.6550    57.6050
 3051.8100     9.1530     2.6530    46.4410
 3051.9624     9.1480     2.6490    40.6990
 3052.1148     9.1520     2.6590    42.7710
 3052.2672     9.1500     2.6400    60.0890
 3052.4196     9.1340     2.6220    77.3440
 3052.5720     9.1030     2.6220    82.4280
 3052.7244     9.0830     2.6220    70.2740
 3052.8768     9.0820     2.6180    61.9710
 3053.0292     9.0970     2.6040    58.6530
 3053.1816     9.1120     2.5850    54.6670
 3053.3340     9.1010     2.5790    44.5210
 3053.4864     9.0730     2.5790    37.1220
 3053.6388     9.0680     2.5710    31.3380
 3053.7912     9.0690     2.5700    29.1500
 3053.9436     9.0680     2.6050    30.5520
 3054.0960     9.0520     2.6220    28.6460
 3054.2484     8.9950     2.6390    26.6740
 3054.4008     9.0390     2.6090    25.6710
 3054.5532     9.1360     2.5630    27.2360
 3054.7056     9.1470     2.5500    29.3980
 3054.8580     9.1520     2.5640    31.0650
 3055.0104     9.1520     2.5830    32.5290
 3055.1628     9.1520     2.5790    34.4330
 3055.3152     9.1520     2.5610    36.7200
 3055.4676     9.1550     2.5490    38.1810
 3055.6200     9.1610     2.5480    39.5610
 3055.7724     9.1800     2.5700    47.0050
 3055.9248     9.2040     2.6010    59.4320
 3056.0772     9.2120     2.6400    61.3550
 3056.2296     9.1540     2.6250    57.1050
 3056.3820     9.0150     2.5760    50.6370
 3056.5344     8.9360     2.5520    44.4470
 3056.6868     8.9230     2.5510    42.9700
 3056.8392     8.9400     2.5340    43.3410
 3056.9916     8.9360     2.5270    43.5260
 3057.1440     8.9380     2.5500    40.7960
 3057.2964     8.9460     2.5920    41.6130
 3057.4488     8.9780     2.6070    42.1030
 3057.6012     9.0320     2.6240    42.6370
 3057.7536     9.0600     2.6120    43.3930
 3057.9060     9.0730     2.5930    44.7140
 3058.0584     9.0780     2.5780    46.4860
 3058.2108     9.0870     2.5640    49.2410
 3058.3632     9.0920     2.5440    52.0450
 3058.5156     9.0920     2.5550    54.3150
 3058.6680     9.1020     2.5700    59.8230
 3058.8204     9.1650     2.6110    62.9470
 3058.9728     9.2290     2.6390    62.7080
 3059.1252     9.2420     2.6100  -999.2500
 3059.2776     9.1970     2.5900  -999.2500
 3059.4300     8.9950     2.6000  -999.2500
 3059.5824     8.9070     2.6100  -999.2500
 3059.7348     9.1790     2.5910  -999.2500
 3059.8872     9.2470     2.6010  -999.2500
 3060.0396     9.1790     2.5860  -999.2500
 3060.1920     9.1090     2.5430  -999.2500
 3060.3444     9.0970     2.5320  -999.2500
 3060.4968     9.1750     2.5400  -999.2500
 3060.6492     9.3010     2.5640  -999.2500
 3060.8016     9.3730     2.5810  -999.2500
 3060.9540     9.3920     2.5560  -999.2500
 3061.1064     9.3800     2.5590  -999.2500
 3061.2588     9.3900     2.6310  -999.2500
 3061.4112     9.4260     2.6680  -999.2500
 3061.5636     9.4270     2.7070  -999.2500
 3061.7160     9.3610     2.7120  -999.2500
 3061.8684     9.3100     2.6950  -999.2500
 3062.0208     9.2810     2.6890  -999.2500
 3062.1732     9.2730     2.6910  -999.2500
 3062.3256     9.2570     2.6820  -999.2500
 3062.4780     9.1370     2.6650  -999.2500
 3062.6304     8.7060     2.6400  -999.2500
 3062.7828     8.4740     2.6060  -999.2500
 3062.9352     8.4550     2.5950  -999.2500
