~VERSION INFORMATION
VERS.                                                 2.0:   CWLS Log ASCII Standard-VERSION 2.0
WRAP.                                                  NO:   One line per depth step
~Well Information Block
STRT.M                                            10.0584:   Top Depth
STOP.M                                          1400.8608:   Bottom Depth
STEP.M                                             .15240:   Depth Increment
NULL.                                            -999.250:   Null Value
FLD .                                          EEMSKANAAL:   Field Name
WELL.                                       EEMSKANAAL- 1:   NAME
EDF .m                                               5.58:   ELEV DRILL FLOOR
EPD .                                                   0:   ELEV PERM DATUM
EGL .m                                                -.9:   GROUND LEVEL
LMF .                                                  DF:   LOGS MEAS FROM
COMP.                                                 NAM:   OPERATOR
PDAT.                                                 NAP:   PERM DATUM
SPUD.                                          1970/11/08:   SPUD DATE
UWBI.                                      11000074112201:   UWBI
WELL.                                       EEMSKANAAL- 1:   HOLE NAME
~PARAMETER INFORMATION (log)
LNAM.                                RUN 02 RAW OH 14.75":   NAME
LTYP.                                                 02R:   LOG TYPE
LVSN.                                                   1:   LOG VERSION
BS  .3/4"                                              14:   BIT SIZE
BLI .M                                             1402.5:   BOTTOM DEPTH LOGGED
BHIS.                                            RCCCCCCC:   BRIEF HISTORY
FHIS.              RAW-TIGA/COPY/COPY/COPY/COPY/COPY/COPY:   FULL HISTORY
MRT .C                                                 50:   MAX REC TEMP
DFT .                                         CHALK WATER:   MUD TYPE
RMS .                                                1.44:   RM
MST .C                                                 11:   RM TEMP
RMCS.                                                1.93:   RMC
MCST.C                                                 19:   RMC TEMP
RMFS.                                               0.917:   RMF
MFST.C                                                 19:   RMF TEMP
TCS .                                                 N/A:   TIME SINCE CIRCLN
TLI .M                                                 10:   TOP DEPTH LOGGED
~Curve Information Block
#MNEM.UNIT                                        API CODE    No Description
#=========                                        ========    == ===========
DEPT.M                                       00 001 00 00:     1  DEPTH
BCSL.US/F                                                :     2  Interval Transit Time From Borehole Comp
GRIC.GAPI                                                :     3  GAMMA RAY LOG IN CASING
GRS.GAPI                                                 :     4  GAMMA RAY FROM SONIC LOG
~ASCII
# ...
  453.8472   168.0300  -999.2500    55.8040
  453.9996   167.9400  -999.2500    56.1290
  454.1520   167.8690  -999.2500    56.3960
  454.3044   167.3480  -999.2500    56.5870
  454.4568   166.5600  -999.2500    56.2020
  454.6092   165.7700  -999.2500    55.5100
  454.7616   164.8850  -999.2500    54.8350
  454.9140   164.4410  -999.2500    54.4050
  455.0664   164.9390  -999.2500    54.3550
  455.2188   165.3010  -999.2500    54.6680
  455.3712   165.6510  -999.2500    55.6030
  455.5236   166.1780  -999.2500    56.7400
  455.6760   166.8110  -999.2500    58.0770
  455.8284   167.2050  -999.2500    59.2340
  455.9808   167.5550  -999.2500    60.1210
  456.1332   167.9060  -999.2500    60.6750
  456.2856   168.2560  -999.2500    60.6070
  456.4380   168.1510  -999.2500    59.9880
  456.5904   168.0470  -999.2500    59.2520
  456.7428   167.9460  -999.2500    58.4920
  456.8952   168.5660  -999.2500    57.6140
  457.0476   169.6330  -999.2500    56.4760
  457.2000   170.7000  -999.2500    55.7700
  457.3524   171.7670  -999.2500    55.9520
  457.5048   172.8230  -999.2500    56.7440
  457.6572   173.8900  -999.2500    57.7590
  457.8096   174.9570  -999.2500    58.7860
  457.9620   176.0240  -999.2500    59.3970
  458.1144   176.8820  -999.2500    59.4810
  458.2668   173.0870  -999.2500    59.4300
  458.4192   167.7160  -999.2500    59.7130
  458.5716   168.0760  -999.2500    59.6590
  458.7240   168.4660  -999.2500    58.9150
  458.8764   169.2900  -999.2500    58.0690
  459.0288   174.8740  -999.2500    57.3440
  459.1812   177.4740  -999.2500    57.0590
  459.3336   175.5150  -999.2500    57.6920
  459.4860   171.3890  -999.2500    59.1540
  459.6384   166.9530  -999.2500    59.9190
  459.7908   166.0220  -999.2500    59.8440
  459.9432   165.5730  -999.2500    61.3700
  460.0956   165.0450  -999.2500    61.4580
  460.2480   164.2050  -999.2500    61.3660
  460.4004   163.0390  -999.2500    61.3350
  460.5528   162.7990  -999.2500    60.9770
  460.7052   163.1490  -999.2500    60.0610
  460.8576   164.0760  -999.2500    59.4140
  461.0100   165.0700  -999.2500    59.0040
  461.1624   165.9150  -999.2500    58.5580
  461.3148   166.4610  -999.2500    58.5680
  461.4672   166.6530  -999.2500    59.3180
  461.6196   166.4670  -999.2500    60.0930
  461.7720   165.9610  -999.2500    59.6620
  461.9244   165.8580  -999.2500    58.7440
  462.0768   166.4930  -999.2500    57.8420
  462.2292   167.2510  -999.2500    57.0160
  462.3816   167.5960  -999.2500    56.7770
  462.5340   167.9650  -999.2500    58.5170
  462.6864   168.3460  -999.2500    58.6900
  462.8388   168.5810  -999.2500    58.6640
  462.9912   168.6210  -999.2500    59.1070
  463.1436   168.5470  -999.2500    59.9590
  463.2960   168.3450  -999.2500    60.3700
  463.4484   168.3590  -999.2500    58.8950
  463.6008   168.1070  -999.2500    57.3080
  463.7532   167.6460  -999.2500    56.1540
  463.9056   167.5450  -999.2500    55.3800
  464.0580   167.4180  -999.2500    55.0030
  464.2104   167.1300  -999.2500    54.8260
  464.3628   166.7570  -999.2500    54.5640
  464.5152   166.3900  -999.2500    54.2760
  464.6676   166.1160  -999.2500    53.8170
  464.8200   166.3880  -999.2500    53.2050
  464.9724   166.5980  -999.2500    52.7530
  465.1248   166.4950  -999.2500    53.1250
  465.2772   165.9760  -999.2500    53.2340
  465.4296   165.4720  -999.2500    52.0420
  465.5820   165.0350  -999.2500    51.4700
  465.7344   165.2190  -999.2500    51.4500
  465.8868   165.9100  -999.2500    51.5450
  466.0392   166.2890  -999.2500    52.1140
  466.1916   166.2650  -999.2500    54.2150
  466.3440   165.9420  -999.2500    55.7880
  466.4964   165.5190  -999.2500    57.6460
  466.6488   165.8090  -999.2500    59.0940
  466.8012   166.3310  -999.2500    59.1180
  466.9536   166.4830  -999.2500    57.4830
  467.1060   166.5800  -999.2500    55.9000
  467.2584   166.4380  -999.2500    54.6660
  467.4108   165.8380  -999.2500    54.2950
  467.5632   165.0140  -999.2500    55.4570
  467.7156   164.3440  -999.2500    55.6670
  467.8680   163.6970  -999.2500    55.1170
  468.0204   163.3100  -999.2500    54.1590
  468.1728   163.1280  -999.2500    53.4410
  468.3252   162.9830  -999.2500    53.5060
  468.4776   163.4380  -999.2500    54.4100
  468.6300   163.3680  -999.2500    55.3020
  468.7824   163.7970  -999.2500    56.0010
  468.9348   163.6400  -999.2500    56.2730
  469.0872   162.9500  -999.2500    55.9260
  469.2396   162.5790  -999.2500    55.3010
  469.3920   163.0270  -999.2500    54.7340
  469.5444   161.2720  -999.2500    54.8130
  469.6968   159.1530  -999.2500    55.0920
  469.8492   158.4160  -999.2500    54.5440
  470.0016   157.6970  -999.2500    53.5240
  470.1540   157.3270  -999.2500    52.5380
  470.3064   159.1060  -999.2500    51.7030
  470.4588   159.5190  -999.2500    50.9140
  470.6112   158.7170  -999.2500    49.9740
  470.7636   159.3240  -999.2500    49.2160
  470.9160   159.4430  -999.2500    48.9760
  471.0684   158.9940  -999.2500    49.6360
  471.2208   158.5520  -999.2500    50.5350
  471.3732   159.7700  -999.2500    50.9570
  471.5256   160.3230  -999.2500    50.7590
  471.6780   160.5670  -999.2500    50.6130
  471.8304   160.8970  -999.2500    51.2440
  471.9828   160.4120  -999.2500    51.4190
  472.1352   159.6480  -999.2500    50.4510
  472.2876   159.5610  -999.2500    49.2820
  472.4400   158.7560  -999.2500    48.4560
  472.5924   157.4010  -999.2500    47.7480
  472.7448   156.7920  -999.2500    47.3530
  472.8972   155.9200  -999.2500    47.2950
  473.0496   155.9600  -999.2500    47.6610
  473.2020   155.9920  -999.2500    48.4040
  473.3544   157.0130  -999.2500    49.3570
  473.5068   157.9980  -999.2500    49.9700
  473.6592   158.4370  -999.2500    49.1820
  473.8116   158.5390  -999.2500    47.9250
  473.9640   158.6550  -999.2500    46.7270
  474.1164   158.5780  -999.2500    46.3450
  474.2688   157.5970  -999.2500    46.4360
  474.4212   160.4960  -999.2500    46.2870
  474.5736   159.2760  -999.2500    45.5030
  474.7260   159.5440  -999.2500    44.1730
  474.8784   160.7210  -999.2500    44.2180
  475.0308   160.6440  -999.2500    44.6940
  475.1832   159.4430  -999.2500    44.8750
  475.3356   158.2730  -999.2500    44.5600
  475.4880   157.2180  -999.2500    43.8440
  475.6404   159.5900  -999.2500    42.9690
  475.7928   162.6870  -999.2500    41.6490
  475.9452   154.9700  -999.2500    40.0860
  476.0976   154.3710  -999.2500    38.8090
  476.2500   156.1650  -999.2500    38.3100
  476.4024   157.4250  -999.2500    38.3930
  476.5548   158.1000  -999.2500    39.0930
  476.7072   157.7290  -999.2500    39.9670
  476.8596   157.0910  -999.2500    40.3610
  477.0120   156.1080  -999.2500    40.5450
  477.1644   155.7220  -999.2500    41.1850
  477.3168   154.4100  -999.2500    42.0530
  477.4692   152.7260  -999.2500    42.5270
  477.6216   151.3750  -999.2500    41.9720
  477.7740   150.7920  -999.2500    41.0240
  477.9264   151.0210  -999.2500    40.1020
  478.0788   151.6530  -999.2500    39.1750
  478.2312   152.2780  -999.2500    38.3550
  478.3836   151.9490  -999.2500    37.6990
  478.5360   150.8570  -999.2500    37.4020
  478.6884   150.0550  -999.2500    37.3750
  478.8408   148.6230  -999.2500    37.4790
  478.9932   146.7670  -999.2500    37.4730
  479.1456   145.3630  -999.2500    37.2190
  479.2980   143.8570  -999.2500    36.6100
  479.4504   144.2190  -999.2500    36.0810
  479.6028   146.2260  -999.2500    35.7770
  479.7552   147.6500  -999.2500    35.8930
  479.9076   147.2410  -999.2500    36.2340
  480.0600   146.4540  -999.2500    37.0920
  480.2124   146.3240  -999.2500    38.0620
  480.3648   146.2620  -999.2500    39.1260
  480.5172   147.8750  -999.2500    40.4260
  480.6696   147.7510  -999.2500    41.8480
  480.8220   142.1910  -999.2500    41.8430
  480.9744   138.6980  -999.2500    39.0360
  481.1268   137.9330  -999.2500    36.6930
  481.2792   137.5520  -999.2500    36.4940
  481.4316   143.0290  -999.2500    36.9190
