~VERSION INFORMATION
VERS.                                                 2.0:   CWLS Log ASCII Standard-VERSION 2.0
WRAP.                                                  NO:   One line per depth step
~Well Information Block
STRT.M                                          2769.1080:   Top Depth
STOP.M                                          2949.8544:   Bottom Depth
STEP.M                                             .15240:   Depth Increment
NULL.                                            -999.250:   Null Value
FLD .                                          EEMSKANAAL:   Field Name
WELL.                                       EEMSKANAAL- 2:   NAME
APD .M                                               5.62:   ABOVE PERM DATUM
CTRY.                                                  NE:   COUNTRY
EDF .m                                               5.62:   ELEV DRILL FLOOR
EPD .                                                   0:   ELEV PERM DATUM
EGL .m                                              -1.06:   GROUND LEVEL
LMF .                                                  DF:   LOGS MEAS FROM
COMP.                                                 NAM:   OPERATOR
PDAT.                                                 NAP:   PERM DATUM
SPUD.                                          1971/03/17:   SPUD DATE
STAT.                                           Unknown m:   STATE
UWBI.                                      11000074112601:   UWBI
WELL.                                       EEMSKANAAL- 2:   HOLE NAME
~PARAMETER INFORMATION (log)
LNAM.                                RUN 02 RAW OH 6 1/4":   NAME
LTYP.                                                 02R:   LOG TYPE
LVSN.                                                   1:   LOG VERSION
BS  .1/4"                                               6:   BIT SIZE
BLI .M                                             2942.0:   BOTTOM DEPTH LOGGED
BHIS.                                             RCCCCCC:   BRIEF HISTORY
FHIS.                   RAW-TIGA/COPY/COPY/COPY/COPY/COPY:   FULL HISTORY
MRT .DEGC                                              84:   MAX REC TEMP
DFD .G/CC                                            1.36:   MUD DENSITY
DFT .                                     SALT SAT UNICAL:   MUD TYPE
RMS .OHMM                                           0.031:   RM
MST .DEGC                                              12:   RM TEMP
RMCS.OHMM                                           0.136:   RMC
MCST. DEGC                                             12:   RMC TEMP
RMFS.OHMM                                           0.053:   RMF
MFST.DEGC                                              19:   RMF TEMP
TCS .                                                 N/A:   TIME SINCE CIRCLN
TLI .M                                             2772.0:   TOP DEPTH LOGGED
~Curve Information Block
#MNEM.UNIT                                        API CODE    No Description
#=========                                        ========    == ===========
DEPT.M                                       00 001 00 00:     1  DEPTH
CALF.IN                                                  :     2  CALIPER FROM FORMATION DENSITY LOG
FDC.G/C3                                                 :     3  Formation Density Log (Compensated Open
GR.API                                                   :     4  Gamma Ray
~ASCII
# ...
 2880.0552     6.3000     2.4050    23.2700
 2880.2076     6.3000     2.4160    24.7190
 2880.3600     6.2980     2.4290    26.5740
 2880.5124     6.2960     2.4440    28.4690
 2880.6648     6.2970     2.4780    30.0660
 2880.8172     6.3010     2.4990    31.2190
 2880.9696     6.3190     2.5130    30.9850
 2881.1220     6.3440     2.4790    29.5360
 2881.2744     6.3630     2.4480    27.6150
 2881.4268     6.3730     2.4250    26.2650
 2881.5792     6.3820     2.4020    25.7790
 2881.7316     6.3930     2.3910    26.5270
 2881.8840     6.3600     2.3920    27.0620
 2882.0364     6.3280     2.4410    27.4260
 2882.1888     6.2990     2.4870    29.2290
 2882.3412     6.2790     2.5140    32.1360
 2882.4936     6.2720     2.5140    34.5010
 2882.6460     6.2810     2.4990    34.6480
 2882.7984     6.2880     2.5010    31.7960
 2882.9508     6.2970     2.4740    29.6780
 2883.1032     6.3170     2.4570    28.4010
 2883.2556     6.3270     2.4670    27.1230
 2883.4080     6.3160     2.4890    25.6360
 2883.5604     6.3200     2.4800    24.7970
 2883.7128     6.3280     2.4620    24.6760
 2883.8652     6.3250     2.4500    25.3030
 2884.0176     6.3130     2.4460    25.5400
 2884.1700     6.2950     2.4440    24.8530
 2884.3224     6.2860     2.4350    23.9060
 2884.4748     6.2740     2.4230    23.3560
 2884.6272     6.2680     2.4320    23.2280
 2884.7796     6.2710     2.4590    23.2980
 2884.9320     6.2720     2.4530    23.2080
 2885.0844     6.2750     2.4320    22.8020
 2885.2368     6.2780     2.4320    22.7150
 2885.3892     6.2860     2.4170    23.0010
 2885.5416     6.2980     2.3900    23.3690
 2885.6940     6.3080     2.3820    23.2610
 2885.8464     6.3180     2.3910    23.0950
 2885.9988     6.3120     2.3980    24.1240
 2886.1512     6.2940     2.3960    25.1460
 2886.3036     6.2710     2.4030    25.8130
 2886.4560     6.2590     2.4150    26.4020
 2886.6084     6.2480     2.4410    27.0900
 2886.7608     6.2480     2.4560    26.6720
 2886.9132     6.2520     2.4500    23.6660
 2887.0656     6.2550     2.4540    22.6650
 2887.2180     6.2690     2.4520    22.2440
 2887.3704     6.2750     2.4580    22.2120
 2887.5228     6.2860     2.4540    22.3490
 2887.6752     6.3010     2.4230    22.8380
 2887.8276     6.3180     2.3680    23.5360
 2887.9800     6.3300     2.3450    24.4020
 2888.1324     6.3440     2.3370    24.3050
 2888.2848     6.3550     2.3540    26.0210
 2888.4372     6.3620     2.3960    30.4870
 2888.5896     6.3680     2.4400    32.7270
 2888.7420     6.3680     2.4700    30.0770
 2888.8944     6.3720     2.4480    23.5030
 2889.0468     6.3810     2.4410    20.8300
 2889.1992     6.3840     2.4530    19.1190
 2889.3516     6.3850     2.4340    18.1390
 2889.5040     6.3840     2.4220    18.6240
 2889.6564     6.3810     2.4160    19.5980
 2889.8088     6.3750     2.4230    20.3720
 2889.9612     6.3590     2.4390    20.5500
 2890.1136     6.3420     2.4280    20.7350
 2890.2660     6.3230     2.4340    19.8110
 2890.4184     6.2980     2.4310    18.7520
 2890.5708     6.2760     2.4220    18.4310
 2890.7232     6.2680     2.4360    18.7820
 2890.8756     6.2650     2.4340    19.8880
 2891.0280     6.2740     2.4300    21.0200
 2891.1804     6.2940     2.4260    20.3710
 2891.3328     6.3160     2.4320    18.8580
 2891.4852     6.3430     2.4590    20.9250
 2891.6376     6.3590     2.4670    27.5480
 2891.7900     6.3600     2.4660    31.7370
 2891.9424     6.3600     2.4800    34.8430
 2892.0948     6.3600     2.4900    35.4270
 2892.2472     6.3610     2.4940    32.8000
 2892.3996     6.3640     2.4730    30.1550
 2892.5520     6.3640     2.4550    37.2190
 2892.7044     6.3680     2.4500    45.0380
 2892.8568     6.3680     2.4640    47.1100
 2893.0092     6.3680     2.4940    38.9420
 2893.1616     6.3660     2.4580    30.0450
 2893.3140     6.3680     2.4600    23.9400
 2893.4664     6.3710     2.4420    22.0050
 2893.6188     6.3770     2.4280    22.3730
 2893.7712     6.3730     2.4470    22.8250
 2893.9236     6.3480     2.4450    22.9250
 2894.0760     6.3370     2.4040    23.2000
 2894.2284     6.3360     2.3980    23.0740
 2894.3808     6.3360     2.4160    21.4130
 2894.5332     6.3430     2.4200    21.6830
 2894.6856     6.3510     2.4460    23.6490
 2894.8380     6.3550     2.4510    25.0960
 2894.9904     6.3690     2.4520    26.0010
 2895.1428     6.3760     2.4380    25.5460
 2895.2952     6.3670     2.4430    23.9080
 2895.4476     6.3440     2.4440    23.6240
 2895.6000     6.3240     2.4750    24.6150
 2895.7524     6.3150     2.4870    27.3680
 2895.9048     6.3040     2.4870    32.9830
 2896.0572     6.3060     2.5120    37.5980
 2896.2096     6.3120     2.5480    38.9900
 2896.3620     6.3120     2.5300    35.3720
 2896.5144     6.3120     2.5150    30.2790
 2896.6668     6.3190     2.5010    26.1370
 2896.8192     6.3250     2.4720    21.3080
 2896.9716     6.3330     2.4350    19.7550
 2897.1240     6.3400     2.3760    20.5020
 2897.2764     6.3170     2.3580    20.6840
 2897.4288     6.2790     2.3690    19.8240
 2897.5812     6.2650     2.3830    19.2690
 2897.7336     6.2640     2.3790    19.6110
 2897.8860     6.2670     2.3720    20.5860
 2898.0384     6.2740     2.3890    21.6020
 2898.1908     6.2830     2.4090    23.0110
 2898.3432     6.2960     2.4260    23.5530
 2898.4956     6.3100     2.4300    26.6710
 2898.6480     6.3240     2.4090    36.4040
 2898.8004     6.3390     2.4300    41.4450
 2898.9528     6.3540     2.4750    43.8420
 2899.1052     6.3640     2.4890    36.4730
 2899.2576     6.3570     2.4990    28.5980
 2899.4100     6.3520     2.4690    23.8090
 2899.5624     6.3480     2.3850    20.9170
 2899.7148     6.3430     2.3370    19.9680
 2899.8672     6.3340     2.3320    20.1200
 2900.0196     6.3120     2.3500    20.2500
 2900.1720     6.2760     2.3720    20.2500
 2900.3244     6.2550     2.3870    20.0870
 2900.4768     6.2540     2.4110    19.3200
 2900.6292     6.2600     2.4150    18.9550
 2900.7816     6.2750     2.4000    19.7820
 2900.9340     6.2910     2.3840    20.5770
 2901.0864     6.3000     2.3970    20.9220
 2901.2388     6.3100     2.4010    20.9700
 2901.3912     6.3190     2.3940    20.8880
 2901.5436     6.3260     2.3670    20.6650
 2901.6960     6.3090     2.3370    20.3210
 2901.8484     6.2940     2.3440    19.5230
 2902.0008     6.2960     2.3730    18.4430
 2902.1532     6.3090     2.4100    17.3840
 2902.3056     6.3160     2.3910    17.8030
 2902.4580     6.3220     2.3790    19.3460
 2902.6104     6.3240     2.3780    20.6930
 2902.7628     6.3240     2.3830    21.8290
 2902.9152     6.3190     2.3990    22.5650
 2903.0676     6.3130     2.4200    22.3770
 2903.2200     6.3120     2.4130    22.1820
 2903.3724     6.3180     2.4290    23.5990
 2903.5248     6.3200     2.4830    27.1040
 2903.6772     6.3150     2.5100    33.8850
 2903.8296     6.3030     2.5190    40.9190
 2903.9820     6.2990     2.5310    45.4430
 2904.1344     6.2970     2.5570    42.5210
 2904.2868     6.3090     2.5420    30.9690
 2904.4392     6.3300     2.5040    25.8310
 2904.5916     6.3400     2.4550    23.1850
 2904.7440     6.3480     2.4310    22.4510
 2904.8964     6.3640     2.4120    22.2240
 2905.0488     6.3740     2.4090    21.5410
 2905.2012     6.3760     2.4230    19.0490
 2905.3536     6.3750     2.4190    17.2720
 2905.5060     6.3260     2.3980    16.3700
 2905.6584     6.2940     2.3760    15.7740
 2905.8108     6.2840     2.3980    15.6060
 2905.9632     6.2890     2.4190    16.0260
 2906.1156     6.2980     2.4340    16.6370
 2906.2680     6.3040     2.4390    17.0740
 2906.4204     6.3030     2.4420    17.2980
 2906.5728     6.2970     2.4390    16.4140
 2906.7252     6.2950     2.4470    16.3050
 2906.8776     6.2920     2.4460    16.6480
 2907.0300     6.2920     2.4550    17.2410
 2907.1824     6.2920     2.5170    17.9800
 2907.3348     6.2490     2.5360    18.7040
 2907.4872     6.2070     2.5490    19.0180
 2907.6396     6.1960     2.5680    19.1430
