~VERSION INFORMATION
VERS.                                                 2.0:   CWLS Log ASCII Standard-VERSION 2.0
WRAP.                                                  NO:   One line per depth step
~Well Information Block
STRT.M                                          2687.1168:   Top Depth
STOP.M                                          3063.8496:   Bottom Depth
STEP.M                                             .15240:   Depth Increment
NULL.                                            -999.250:   Null Value
FLD .                                          EEMSKANAAL:   Field Name
WELL.                                       EEMSKANAAL- 1:   NAME
EDF .m                                               5.58:   ELEV DRILL FLOOR
EPD .                                                   0:   ELEV PERM DATUM
EGL .m                                                -.9:   GROUND LEVEL
LMF .                                                  DF:   LOGS MEAS FROM
COMP.                                                 NAM:   OPERATOR
PDAT.                                                 NAP:   PERM DATUM
SPUD.                                          1970/11/08:   SPUD DATE
UWBI.                                      11000074112201:   UWBI
WELL.                                       EEMSKANAAL- 1:   HOLE NAME
~PARAMETER INFORMATION (log)
LNAM.                                RUN 05 RAW OH 9.625":   NAME
LTYP.                                                 05R:   LOG TYPE
LVSN.                                                   1:   LOG VERSION
BS  .5/8"                                               9:   BIT SIZE
BLI .M                                               3063:   BOTTOM DEPTH LOGGED
BHIS.                                            RCCCCCCC:   BRIEF HISTORY
FHIS.              RAW-TIGA/COPY/COPY/COPY/COPY/COPY/COPY:   FULL HISTORY
MRT .C                                                 89:   MAX REC TEMP
DFT .                                          SALT SPERS:   MUD TYPE
RMS .                                               0.074:   RM
MST .C                                                 26:   RM TEMP
RMCS.                                               0.144:   RMC
MCST.C                                                 17:   RMC TEMP
RMFS.                                               0.059:   RMF
MFST.C                                                 26:   RMF TEMP
TCS .                                               5 HRS:   TIME SINCE CIRCLN
TLI .M                                               2690:   TOP DEPTH LOGGED
~Curve Information Block
#MNEM.UNIT                                        API CODE    No Description
#=========                                        ========    == ===========
DEPT.M                                       00 001 00 00:     1  DEPTH
LL7.OHMM                                                 :     2  LATEROLOG 7
SP.MV                                                    :     3  Spontaneous potential
~ASCII
# ...
 2983.3824    17.2570   -64.8000
 2983.5348    14.8780   -64.8000
 2983.6872    16.0790   -64.7740
 2983.8396    16.7710   -64.7600
 2983.9920    15.4550   -64.7600
 2984.1444    15.1370   -64.7600
 2984.2968    15.2920   -64.7600
 2984.4492    15.7820   -64.7400
 2984.6016    16.5660   -64.6900
 2984.7540    17.1780   -64.5950
 2984.9064    17.2780   -64.7190
 2985.0588    16.7400   -64.6880
 2985.2112    15.2560   -64.6850
 2985.3636    11.9740   -64.8660
 2985.5160    11.3960   -65.3710
 2985.6684    14.4930   -65.9230
 2985.8208    15.3760   -66.3000
 2985.9732    15.5680   -66.5630
 2986.1256    16.0140   -66.7080
 2986.2780    15.7530   -66.8680
 2986.4304    14.5900   -67.0430
 2986.5828    14.0010   -67.2110
 2986.7352    13.6180   -67.4320
 2986.8876    13.3450   -67.5800
 2987.0400    13.0450   -67.6900
 2987.1924    12.7730   -67.7850
 2987.3448    12.4760   -67.8600
 2987.4972    12.2900   -67.8600
 2987.6496    12.1580   -67.8600
 2987.8020    11.9930   -67.8600
 2987.9544    11.7580   -67.8600
 2988.1068    11.3730   -67.8600
 2988.2592    10.8240   -67.8780
 2988.4116     8.6170   -67.9450
 2988.5640     6.8020   -68.0440
 2988.7164     7.5010   -68.1750
 2988.8688    10.3140   -68.3050
 2989.0212    11.2470   -68.4050
 2989.1736    11.2320   -68.5120
 2989.3260    11.1820   -68.5730
 2989.4784    11.2150   -68.6960
 2989.6308    11.8070   -68.9750
 2989.7832    13.5950   -69.2530
 2989.9356    12.0510   -69.4120
 2990.0880     9.2910   -69.4960
 2990.2404     8.9200   -69.5000
 2990.3928     8.7150   -69.5280
 2990.5452     8.6020   -69.5400
 2990.6976     8.5170   -69.5400
 2990.8500     8.4220   -69.5400
 2991.0024     8.3520   -69.5400
 2991.1548     8.3060   -69.5400
 2991.3072     8.2690   -69.5400
 2991.4596     8.0860   -69.5400
 2991.6120     7.5530   -69.5400
 2991.7644     6.7410   -69.5400
 2991.9168     6.1360   -69.5330
 2992.0692     7.2290   -69.5000
 2992.2216     8.0420   -69.4980
 2992.3740     8.7630   -69.4530
 2992.5264    11.0380   -69.3700
 2992.6788    11.0740   -69.2930
 2992.8312     9.5910   -69.2410
 2992.9836     9.5840   -69.1500
 2993.1360     9.5720   -69.0520
 2993.2884     9.3400   -69.0200
 2993.4408     8.7970   -68.9680
 2993.5932     8.4840   -68.8380
 2993.7456     8.4190   -68.6750
 2993.8980     8.3990   -68.5220
 2994.0504     8.4150   -68.3250
 2994.2028     8.4900   -68.1380
 2994.3552     8.9460   -68.0370
 2994.5076    10.0050   -67.9800
 2994.6600    11.4260   -67.9800
 2994.8124    12.9160   -67.9750
 2994.9648    14.1530   -67.9400
 2995.1172    15.4750   -67.9000
 2995.2696    15.0720   -67.9140
 2995.4220    15.0740   -67.9740
 2995.5744    15.9470   -67.9430
 2995.7268    15.8480   -67.9000
 2995.8792    14.3720   -67.9000
 2996.0316    13.3920   -67.8510
 2996.1840    15.9350   -67.7960
 2996.3364    16.7860   -67.7500
 2996.4888    16.4970   -67.7500
 2996.6412    15.9950   -67.6850
 2996.7936    14.9400   -67.6030
 2996.9460    12.9700   -67.5580
 2997.0984    11.6690   -67.4710
 2997.2508    11.4480   -67.3450
 2997.4032    14.8100   -67.2890
 2997.5556    14.6690   -67.2590
 2997.7080    14.2920   -67.2080
 2997.8604    13.8080   -67.1620
 2998.0128    13.3650   -67.1500
 2998.1652    13.2260   -67.1370
 2998.3176    13.3140   -67.1010
 2998.4700    13.2470   -67.0390
 2998.6224    12.9620   -66.9900
 2998.7748    12.2920   -66.9600
 2998.9272    12.6190   -66.9070
 2999.0796    15.2270   -66.8380
 2999.2320    13.6230   -66.7680
 2999.3844     8.8120   -66.6100
 2999.5368     8.3980   -66.4880
 2999.6892     8.5200   -66.3970
 2999.8416     9.1140   -66.3620
 2999.9940     9.6740   -66.3500
 3000.1464     9.3780   -66.3500
 3000.2988    11.7170   -66.3200
 3000.4512    12.0980   -66.2900
 3000.6036    11.2110   -66.2700
 3000.7560    10.2440   -66.2700
 3000.9084     9.8990   -66.2680
 3001.0608    10.0530   -66.2280
 3001.2132    10.8190   -66.1900
 3001.3656    11.9160   -66.1900
 3001.5180    12.3820   -66.1900
 3001.6704    12.7730   -66.1900
 3001.8228    13.1720   -66.1900
 3001.9752    13.6890   -66.1900
 3002.1276    14.2530   -66.1900
 3002.2800    14.5020   -66.1900
 3002.4324    14.4130   -66.1900
 3002.5848    12.8060   -66.1900
 3002.7372    10.8950   -66.1900
 3002.8896    11.9580   -66.1900
 3003.0420    14.5990   -66.2230
 3003.1944    14.2910   -66.2780
 3003.3468    13.8960   -66.3230
 3003.4992    13.5610   -66.3700
 3003.6516    13.4720   -66.4100
 3003.8040    14.5340   -66.4430
 3003.9564    19.3770   -66.5340
 3004.1088    13.1390   -66.6370
 3004.2612    12.9240   -66.7590
 3004.4136    12.6860   -66.9480
 3004.5660    12.3640   -67.1460
 3004.7184    11.9540   -67.8650
 3004.8708    11.4510   -68.0010
 3005.0232    11.0160   -68.0910
 3005.1756    10.6510   -68.0600
 3005.3280    10.2200   -68.0600
 3005.4804     9.6950   -68.1160
 3005.6328     9.1980   -68.1400
 3005.7852     8.7090   -68.2170
 3005.9376     8.2550   -68.3640
 3006.0900     7.8240   -68.5550
 3006.2424     7.5300   -68.7510
 3006.3948     7.1870   -68.9340
 3006.5472     6.6740   -69.0680
 3006.6996     6.0920   -69.1400
 3006.8520     5.8580   -69.1400
 3007.0044     5.7750   -69.1610
 3007.1568     6.0580   -69.1800
 3007.3092     7.6590   -69.1830
 3007.4616     9.0680   -69.2230
 3007.6140    11.9950   -69.3070
 3007.7664    15.6140   -69.3830
 3007.9188    17.7750   -69.4730
 3008.0712    17.1030   -69.5870
 3008.2236    15.7310   -69.6790
 3008.3760    15.1760   -69.8160
 3008.5284    14.9890   -69.9730
 3008.6808    14.9270   -70.0700
 3008.8332    14.9400   -70.1370
 3008.9856    15.0720   -70.1700
 3009.1380    15.2960   -70.1820
 3009.2904    15.2890   -70.2180
 3009.4428    14.9560   -70.2760
 3009.5952    14.5290   -70.3390
 3009.7476    14.2090   -70.4290
 3009.9000    13.9900   -70.4900
 3010.0524    13.8030   -70.5110
 3010.2048    13.6490   -70.5840
 3010.3572    13.3150   -70.8650
 3010.5096    12.9890   -71.3260
 3010.6620    12.7050   -71.5300
 3010.8144    12.4640   -71.6120
 3010.9668    12.3200   -71.7070
 3011.1192    12.2240   -71.7200
 3011.2716    12.1040   -71.7200
 3011.4240    12.0180   -71.7200
 3011.5764    11.9340   -71.6900
 3011.7288    11.8110   -71.6690
 3011.8812    11.5600   -71.6080
 3012.0336    11.1260   -71.5570
 3012.1860    10.8700   -71.4810
 3012.3384    11.0370   -71.4080
 3012.4908    12.0490   -71.5740
 3012.6432    11.3620   -71.8560
 3012.7956     8.7860   -71.9780
 3012.9480     8.3660   -72.0000
 3013.1004     8.0800   -72.0000
 3013.2528     8.0650   -72.0000
 3013.4052     8.0920   -72.0000
 3013.5576     8.2430   -72.0000
 3013.7100     8.6370   -71.9940
 3013.8624     9.7870   -71.9210
 3014.0148    11.7510   -71.8740
 3014.1672     8.6760   -71.8270
 3014.3196     9.6690   -71.8000
 3014.4720     6.3890   -71.7710
 3014.6244     6.5680   -71.7550
 3014.7768     8.4990   -71.7250
 3014.9292    10.2040   -71.6810
 3015.0816     9.1190   -71.6360
 3015.2340     8.5030   -71.5360
 3015.3864     8.6010   -71.4210
 3015.5388     9.1120   -71.3070
 3015.6912    10.2540   -71.1880
 3015.8436    13.5260   -71.0580
 3015.9960    12.5900   -70.9730
 3016.1484    13.4230   -70.8120
 3016.3008    13.9570   -70.5890
 3016.4532    14.9600   -70.3910
 3016.6056    16.3920   -70.1730
 3016.7580    18.6260   -70.0210
 3016.9104    20.1170   -69.9700
 3017.0628    24.1560   -69.9700
 3017.2152    23.7650   -69.9700
 3017.3676    20.2330   -69.9700
 3017.5200    14.2250   -69.9620
 3017.6724    15.5250   -69.9300
 3017.8248    15.8470   -69.8630
 3017.9772    14.4350   -69.7950
 3018.1296    12.3670   -69.7090
 3018.2820    10.6840   -69.5780
 3018.4344    13.4570   -69.4620
 3018.5868    14.5120   -69.3810
 3018.7392    13.2040   -69.3520
 3018.8916    14.5410   -69.3400
 3019.0440    20.2740   -69.3400
 3019.1964    22.2800   -69.3400
 3019.3488    29.0590   -69.3060
 3019.5012    39.3610   -69.2500
 3019.6536    17.3190   -69.1940
 3019.8060    14.3250   -69.1170
 3019.9584    17.6090   -69.0190
 3020.1108    18.8700   -68.9320
 3020.2632    14.9480   -68.8350
