~VERSION INFORMATION
VERS.                                                 2.0:   CWLS Log ASCII Standard-VERSION 2.0
WRAP.                                                  NO:   One line per depth step
~Well Information Block
STRT.M                                           404.0124:   Top Depth
STOP.M                                          1403.9088:   Bottom Depth
STEP.M                                             .15240:   Depth Increment
NULL.                                            -999.250:   Null Value
FLD .                                          EEMSKANAAL:   Field Name
WELL.                                       EEMSKANAAL- 1:   NAME
EDF .m                                               5.58:   ELEV DRILL FLOOR
EPD .                                                   0:   ELEV PERM DATUM
EGL .m                                                -.9:   GROUND LEVEL
LMF .                                                  DF:   LOGS MEAS FROM
COMP.                                                 NAM:   OPERATOR
PDAT.                                                 NAP:   PERM DATUM
SPUD.                                          1970/11/08:   SPUD DATE
UWBI.                                      11000074112201:   UWBI
WELL.                                       EEMSKANAAL- 1:   HOLE NAME
~PARAMETER INFORMATION (log)
LNAM.                                RUN 01 RAW OH 14.75":   NAME
LTYP.                                                 01R:   LOG TYPE
LVSN.                                                   1:   LOG VERSION
BS  .3/4"                                              14:   BIT SIZE
BLI .M                                             1406.2:   BOTTOM DEPTH LOGGED
BHIS.                                            RCCCCCCC:   BRIEF HISTORY
FHIS.              RAW-TIGA/COPY/COPY/COPY/COPY/COPY/COPY:   FULL HISTORY
MRT .C                                                 50:   MAX REC TEMP
DFT .                                         CHALK WATER:   MUD TYPE
RMS .                                                1.44:   RM
MST .C                                                 11:   RM TEMP
RMCS.                                                1.93:   RMC
MCST.C                                                 19:   RMC TEMP
RMFS.                                               0.917:   RMF
MFST.C                                                 19:   RMF TEMP
TCS .                                                 N/A:   TIME SINCE CIRCLN
TLI .M                                              403.6:   TOP DEPTH LOGGED
~Curve Information Block
#MNEM.UNIT                                        API CODE    No Description
#=========                                        ========    == ===========
DEPT.M                                       00 001 00 00:     1  DEPTH
DILD.OHMM                                                :     2  DUAL INDUCTION LOG DEEP RESISTIVITY
SN.OHMM                                                  :     3  SHORT NORMAL
~ASCII
# ...
 1107.6432      .2970      .7800
 1107.7956      .2920      .7880
 1107.9480      .2920      .8080
 1108.1004      .2920      .8370
 1108.2528      .2920      .8640
 1108.4052      .2920      .8740
 1108.5576      .2920      .8680
 1108.7100      .2920      .8450
 1108.8624      .2920      .8170
 1109.0148      .2930      .8130
 1109.1672      .3000      .8270
 1109.3196      .3000      .8520
 1109.4720      .3000      .8780
 1109.6244      .3060      .8890
 1109.7768      .3080      .8840
 1109.9292      .3080      .8540
 1110.0816      .3080      .8130
 1110.2340      .3080      .7720
 1110.3864      .3100      .7390
 1110.5388      .3160      .7170
 1110.6912      .3200      .7110
 1110.8436      .3230      .7110
 1110.9960      .3240      .7150
 1111.1484      .3240      .7210
 1111.3008      .3240      .7270
 1111.4532      .3240      .7440
 1111.6056      .3320      .7620
 1111.7580      .3320      .7820
 1111.9104      .3320      .8020
 1112.0628      .3320      .8320
 1112.2152      .3320      .8500
 1112.3676      .3320      .8460
 1112.5200      .3320      .8220
 1112.6724      .3330      .8020
 1112.8248      .3390      .7910
 1112.9772      .3450      .7890
 1113.1296      .3540      .7950
 1113.2820      .3690      .7970
 1113.4344      .3890      .7890
 1113.5868      .4010      .7740
 1113.7392      .4170      .7630
 1113.8916      .4290      .7580
 1114.0440      .4390      .7610
 1114.1964      .4420      .7690
 1114.3488      .4440      .7740
 1114.5012      .4580      .7710
 1114.6536      .4560      .7590
 1114.8060      .4440      .7490
 1114.9584      .4310      .7410
 1115.1108      .4020      .7400
 1115.2632      .3730      .7450
 1115.4156      .3550      .7520
 1115.5680      .3480      .7550
 1115.7204      .3480      .7590
 1115.8728      .3480      .7710
 1116.0252      .3480      .7980
 1116.1776      .3450      .8470
 1116.3300      .3400      .8790
 1116.4824      .3400      .8760
 1116.6348      .3450      .8440
 1116.7872      .3480      .8050
 1116.9396      .3520      .7870
 1117.0920      .3560      .7930
 1117.2444      .3580      .8160
 1117.3968      .3640      .8460
 1117.5492      .3640      .8650
 1117.7016      .3640      .8660
 1117.8540      .3640      .8570
 1118.0064      .3640      .8490
 1118.1588      .3640      .8370
 1118.3112      .3640      .8270
 1118.4636      .3650      .8170
 1118.6160      .3690      .8090
 1118.7684      .3720      .8060
 1118.9208      .3720      .8110
 1119.0732      .3710      .8180
 1119.2256      .3650      .8320
 1119.3780      .3640      .8530
 1119.5304      .3630      .8860
 1119.6828      .3570      .9050
 1119.8352      .3510      .9040
 1119.9876      .3480      .8890
 1120.1400      .3510      .8570
 1120.2924      .3540      .8100
 1120.4448      .3590      .7750
 1120.5972      .3640      .7590
 1120.7496      .3730      .7550
 1120.9020      .3800      .7560
 1121.0544      .3920      .7650
 1121.2068      .4000      .7850
 1121.3592      .4060      .8130
 1121.5116      .4110      .8280
 1121.6640      .4200      .8260
 1121.8164      .4290      .8030
 1121.9688      .4360      .7820
 1122.1212      .4450      .7630
 1122.2736      .4490      .7520
 1122.4260      .4500      .7480
 1122.5784      .4530      .7410
 1122.7308      .4570      .7440
 1122.8832      .4510      .7610
 1123.0356      .4480      .7650
 1123.1880      .4420      .7610
 1123.3404      .4330      .7610
 1123.4928      .4210      .7710
 1123.6452      .4010      .7950
 1123.7976      .3900      .8520
 1123.9500      .3760      .9100
 1124.1024      .3720      .9150
 1124.2548      .3780      .8940
 1124.4072      .3800      .8670
 1124.5596      .3810      .8420
 1124.7120      .3890      .8170
 1124.8644      .4080      .7970
 1125.0168      .4380      .7700
 1125.1692      .4580      .7420
 1125.3216      .4580      .7270
 1125.4740      .4520      .7230
 1125.6264      .4410      .7500
 1125.7788      .4300      .8030
 1125.9312      .4200      .8870
 1126.0836      .4110      .9410
 1126.2360      .4030      .9540
 1126.3884      .4020      .9430
 1126.5408      .4020      .8980
 1126.6932      .4060      .8340
 1126.8456      .4210      .7830
 1126.9980      .4320      .7550
 1127.1504      .4340      .7520
 1127.3028      .4340      .7480
 1127.4552      .4340      .7470
 1127.6076      .4340      .7460
 1127.7600      .4340      .7400
 1127.9124      .4310      .7340
 1128.0648      .4260      .7310
 1128.2172      .4230      .7300
 1128.3696      .4170      .7310
 1128.5220      .4090      .7380
 1128.6744      .3920      .7670
 1128.8268      .3650      .8190
 1128.9792      .3410      .8730
 1129.1316      .3320      .9110
 1129.2840      .3300      .9170
 1129.4364      .3250      .9060
 1129.5888      .3330      .8800
 1129.7412      .3420      .8350
 1129.8936      .3480      .7890
 1130.0460      .3490      .7520
 1130.1984      .3560      .7320
 1130.3508      .3640      .7210
 1130.5032      .3700      .7190
 1130.6556      .3720      .7420
 1130.8080      .3700      .7750
 1130.9604      .3680      .7900
 1131.1128      .3660      .7890
 1131.2652      .3640      .7830
 1131.4176      .3640      .7690
 1131.5700      .3640      .7610
 1131.7224      .3640      .7730
 1131.8748      .3670      .8040
 1132.0272      .3720      .8590
 1132.1796      .3720      .9330
 1132.3320      .3720      .9440
 1132.4844      .3720      .9220
 1132.6368      .3720      .8910
 1132.7892      .3720      .8690
 1132.9416      .3720      .8650
 1133.0940      .3720      .8750
 1133.2464      .3720      .9010
 1133.3988      .3720      .9060
 1133.5512      .3720      .9020
 1133.7036      .3800      .8820
 1133.8560      .3910      .8480
 1134.0084      .4130      .8250
 1134.1608      .4230      .8020
 1134.3132      .4280      .7850
 1134.4656      .4470      .7740
 1134.6180      .4690      .7730
 1134.7704      .4930      .7780
 1134.9228      .5140      .7900
 1135.0752      .5280      .7900
 1135.2276      .5300      .7830
 1135.3800      .5270      .7770
 1135.5324      .5170      .7800
 1135.6848      .4960      .7940
 1135.8372      .4690      .8150
 1135.9896      .4530      .8370
 1136.1420      .4350      .8400
 1136.2944      .4220      .8220
 1136.4468      .4180      .8040
 1136.5992      .4120      .8020
 1136.7516      .4020      .8290
 1136.9040      .3900      .8790
 1137.0564      .3770      .8930
 1137.2088      .3700      .8790
 1137.3612      .3660      .8480
 1137.5136      .3640      .8190
 1137.6660      .3640      .7980
 1137.8184      .3640      .7830
 1137.9708      .3700      .7750
 1138.1232      .3870      .7730
 1138.2756      .4090      .7720
 1138.4280      .4210      .7730
 1138.5804      .4330      .7740
 1138.7328      .4340      .7790
 1138.8852      .4340      .7950
 1139.0376      .4330      .8320
 1139.1900      .4270      .8930
 1139.3424      .4170      .9700
 1139.4948      .4060     1.0740
 1139.6472      .3950     1.0910
 1139.7996      .3880     1.0630
 1139.9520      .3890      .9960
 1140.1044      .3940      .9240
 1140.2568      .3960      .8580
 1140.4092      .3980      .8200
 1140.5616      .4060      .8190
 1140.7140      .4100      .8390
 1140.8664      .4160      .8540
 1141.0188      .4200      .8410
 1141.1712      .4400      .8180
 1141.3236      .4680      .7960
 1141.4760      .4860      .7780
 1141.6284      .5140      .7730
 1141.7808      .5360      .7760
 1141.9332      .5570      .7820
 1142.0856      .5810      .7850
 1142.2380      .5860      .7850
 1142.3904      .5860      .7840
 1142.5428      .5860      .7840
 1142.6952      .5860      .7850
 1142.8476      .5790      .7850
 1143.0000      .5580      .7850
 1143.1524      .5140      .7880
 1143.3048      .4770      .8030
 1143.4572      .4640      .8560
 1143.6096      .4580      .9430
 1143.7620      .4580      .9820
 1143.9144      .4500      .9730
 1144.0668      .4500      .9230
 1144.2192      .4500      .8890
 1144.3716      .4470      .8700
 1144.5240      .4420      .8600
