~VERSION INFORMATION
VERS.                                                 2.0:   CWLS Log ASCII Standard-VERSION 2.0
WRAP.                                                  NO:   One line per depth step
~Well Information Block
STRT.M                                          1406.0424:   Top Depth
STOP.M                                          1903.9332:   Bottom Depth
STEP.M                                             .15240:   Depth Increment
NULL.                                            -999.250:   Null Value
FLD .                                          EEMSKANAAL:   Field Name
WELL.                                       EEMSKANAAL- 1:   NAME
EDF .m                                               5.58:   ELEV DRILL FLOOR
EPD .                                                   0:   ELEV PERM DATUM
EGL .m                                                -.9:   GROUND LEVEL
LMF .                                                  DF:   LOGS MEAS FROM
COMP.                                                 NAM:   OPERATOR
PDAT.                                                 NAP:   PERM DATUM
SPUD.                                          1970/11/08:   SPUD DATE
UWBI.                                      11000074112201:   UWBI
WELL.                                       EEMSKANAAL- 1:   HOLE NAME
~PARAMETER INFORMATION (log)
LNAM.                                RUN 07 RAW OH 9.625":   NAME
LTYP.                                                 07R:   LOG TYPE
LVSN.                                                   1:   LOG VERSION
BS  .5/8"                                               9:   BIT SIZE
BLI .M                                               2950:   BOTTOM DEPTH LOGGED
BHIS.                                            RCCCCCCC:   BRIEF HISTORY
FHIS.              RAW-TIGA/COPY/COPY/COPY/COPY/COPY/COPY:   FULL HISTORY
MRT .                                                    :   MAX REC TEMP
DFT .                                          SALT SPERS:   MUD TYPE
RMS .                                               0.074:   RM
MST .C                                                 26:   RM TEMP
RMCS.                                               0.144:   RMC
MCST.C                                                 17:   RMC TEMP
RMFS.                                               0.059:   RMF
MFST.C                                                 26:   RMF TEMP
TCS .                                                 N/A:   TIME SINCE CIRCLN
TLI .M                                             1406.5:   TOP DEPTH LOGGED
~Curve Information Block
#MNEM.UNIT                                        API CODE    No Description
#=========                                        ========    == ===========
DEPT.M                                       00 001 00 00:     1  DEPTH
LL9D.OHMM                                                :     2  Dual Laterolog 9 deep
LL9S.OHMM                                                :     3  Dual Laterolog 9 shallow
MSFL.OHMM                                                :     4  MICRO SPHERICALLY FOCUSSED LOG
~ASCII
# ...
 1683.4104     1.3990     1.3830     1.2270
 1683.5628     1.3960     1.3920     1.3010
 1683.7152     1.3800     1.4020     1.3130
 1683.8676     1.3620     1.4050     1.6280
 1684.0200     1.3600     1.4150     1.3110
 1684.1724     1.3780     1.5040     1.5580
 1684.3248     1.4180     1.5880     1.6080
 1684.4772     1.4580     1.6430     1.4540
 1684.6296     1.4960     1.6890     1.3440
 1684.7820     1.5460     1.7380     1.4120
 1684.9344     1.6450     1.8400     1.4410
 1685.0868     1.9240     2.0810     1.7260
 1685.2392     2.5240     2.5000     2.2110
 1685.3916     3.4450     3.4170     2.2060
 1685.5440     3.6230     3.7100     2.1210
 1685.6964     3.3980     3.3330     7.1820
 1685.8488     2.6260     2.7340     7.5000
 1686.0012     1.9730     2.0930     5.3400
 1686.1536     1.6770     1.9590     2.2540
 1686.3060     1.5650     1.9230     1.7720
 1686.4584     1.5650     1.9460     1.6380
 1686.6108     1.5910     1.9910     1.6240
 1686.7632     1.6360     2.0560     1.6410
 1686.9156     1.6570     2.0560     1.6450
 1687.0680     1.6170     1.9220     1.6210
 1687.2204     1.5610     1.6070     1.5840
 1687.3728     1.5480     1.4470     1.5810
 1687.5252     1.5510     1.3650     1.5890
 1687.6776     1.5870     1.3510     1.6450
 1687.8300     1.6350     1.3630     1.7720
 1687.9824     1.6720     1.4070     1.9190
 1688.1348     1.7030     1.4600     1.8050
 1688.2872     1.7220     1.5030     1.8330
 1688.4396     1.7360     1.5310     1.8210
 1688.5920     1.7430     1.5400     1.7550
 1688.7444     1.7440     1.5290     1.7500
 1688.8968     1.7440     1.5010     1.7450
 1689.0492     1.7440     1.4750     1.8780
 1689.2016     1.7440     1.4530     1.8980
 1689.3540     1.7440     1.4460     1.8070
 1689.5064     1.7470     1.4480     1.8070
 1689.6588     1.7420     1.4530     1.9160
 1689.8112     1.7350     1.4500     1.9300
 1689.9636     1.7250     1.4250     2.0330
 1690.1160     1.7130     1.3940     2.1210
 1690.2684     1.7000     1.3730     1.6850
 1690.4208     1.6870     1.3690     1.6420
 1690.5732     1.6780     1.3740     1.6270
 1690.7256     1.6870     1.3980     1.6100
 1690.8780     1.6970     1.4360     1.6190
 1691.0304     1.7120     1.4770     1.6580
 1691.1828     1.7340     1.5210     1.7580
 1691.3352     1.7710     1.5690     1.9720
 1691.4876     1.8150     1.6090     1.9280
 1691.6400     1.8480     1.6330     1.9110
 1691.7924     1.8500     1.6490     1.9800
 1691.9448     1.8340     1.6850     2.0230
 1692.0972     1.8520     1.7800     1.8850
 1692.2496     1.9070     1.8840     1.9100
 1692.4020     1.9250     1.8940     2.1600
 1692.5544     1.8870     1.8430     2.3710
 1692.7068     1.8380     1.7890     2.3860
 1692.8592     1.8180     1.7560     2.1480
 1693.0116     1.8270     1.7420     2.0220
 1693.1640     1.9040     1.7420     2.0320
 1693.3164     2.0330     1.7440     2.1640
 1693.4688     2.0830     1.7510     2.7380
 1693.6212     2.0600     1.7670     2.7310
 1693.7736     2.0210     1.7960     2.0250
 1693.9260     2.0020     1.8270     1.9890
 1694.0784     2.0150     1.8670     2.0010
 1694.2308     2.0080     1.9070     2.0400
 1694.3832     2.0230     1.9450     2.1020
 1694.5356     2.0360     1.9740     2.1080
 1694.6880     2.0530     1.9950     2.1160
 1694.8404     2.0620     1.9950     2.1690
 1694.9928     2.0550     1.9880     2.1650
 1695.1452     2.0470     1.9780     1.9970
 1695.2976     2.0360     1.9740     1.9670
 1695.4500     2.0320     1.9810     1.9660
 1695.6024     2.0310     1.9850     1.9950
 1695.7548     1.9910     1.9660     2.2180
 1695.9072     1.9440     1.9120     2.0610
 1696.0596     1.9630     1.7990     2.0410
 1696.2120     2.0320     1.6970     2.0560
 1696.3644     2.1160     1.6360     1.8560
 1696.5168     2.2140     1.6380     1.8580
 1696.6692     2.2640     1.6830     2.8360
 1696.8216     2.2410     1.7330     2.1060
 1696.9740     2.1990     1.7750     2.0030
 1697.1264     2.1330     1.8070     2.0310
 1697.2788     2.0630     1.8140     2.0210
 1697.4312     2.0270     1.8140     1.9810
 1697.5836     2.0100     1.8140     1.9630
 1697.7360     2.0170     1.8090     1.9680
 1697.8884     2.0440     1.8010     1.9850
 1698.0408     2.0870     1.7910     2.0180
 1698.1932     2.1480     1.7750     2.0670
 1698.3456     2.1960     1.7720     2.1140
 1698.4980     2.2110     1.7760     2.1410
 1698.6504     2.2030     1.7930     2.1400
 1698.8028     2.1860     1.8230     2.1290
 1698.9552     2.1460     1.8620     2.0770
 1699.1076     2.0950     1.8950     2.0230
 1699.2600     2.0750     1.9090     2.0110
 1699.4124     2.0780     1.9040     2.0150
 1699.5648     2.0860     1.8770     2.0700
 1699.7172     2.1510     1.8520     2.3080
 1699.8696     2.1560     1.8860     2.0620
 1700.0220     2.1500     1.9710     2.0030
 1700.1744     2.0900     2.0840     2.0830
 1700.3268     2.0920     2.1460     2.1120
 1700.4792     2.0890     2.1540     1.9890
 1700.6316     2.0800     2.1520     2.0710
 1700.7840     2.0590     2.1330     2.0750
 1700.9364     2.0330     2.0940     1.9720
 1701.0888     2.0220     2.0840     1.9870
 1701.2412     2.1300     2.1590     2.1660
 1701.3936     2.0350     2.2160     2.1620
 1701.5460     1.9170     2.2090     2.0230
 1701.6984     1.8740     2.1830     1.9550
 1701.8508     1.9140     2.1650     1.9990
 1702.0032     2.0230     2.1740     1.9550
 1702.1556     2.0620     2.2170     1.8080
 1702.3080     2.0530     2.2310     2.0970
 1702.4604     1.9810     2.2030     3.3930
 1702.6128     1.8730     2.1300     3.4590
 1702.7652     1.8070     2.1870     1.8800
 1702.9176     1.8130     2.7010     1.9150
 1703.0700     1.9070     3.1120     1.9810
 1703.2224     2.5870     3.3280     2.7040
 1703.3748     3.0860     3.1330     3.9780
 1703.5272     2.7720     2.5760     3.7690
 1703.6796     2.3190     2.2230     3.4500
 1703.8320     2.0420     2.0310     2.5040
 1703.9844     1.9430     1.9620     2.8310
 1704.1368     1.9050     1.9440     2.6370
 1704.2892     1.9120     1.9320     2.3850
 1704.4416     2.0430     1.9100     2.2730
 1704.5940     2.1170     1.8650     2.2480
 1704.7464     2.0970     1.7730     2.3940
 1704.8988     2.0710     1.7370     2.8600
 1705.0512     2.0630     1.7400     2.4290
 1705.2036     2.0560     1.7610     2.3540
 1705.3560     2.0540     1.7590     2.1630
 1705.5084     2.0560     1.7540     2.1860
 1705.6608     2.0580     1.7350     2.2570
 1705.8132     2.0300     1.6740     1.8700
 1705.9656     1.9680     1.6040     1.8700
 1706.1180     1.9170     1.5440     1.9520
 1706.2704     1.8690     1.4780     2.1150
 1706.4228     1.8070     1.4320     1.8800
 1706.5752     1.7620     1.4300     1.7860
 1706.7276     1.7740     1.4430     1.7250
 1706.8800     1.8160     1.4690     1.6760
 1707.0324     1.8790     1.5160     1.7620
 1707.1848     1.9180     1.5800     1.7100
 1707.3372     1.9110     1.6200     1.7530
 1707.4896     1.8650     1.6270     1.8160
 1707.6420     1.8320     1.6120     2.0160
 1707.7944     1.8130     1.5660     2.1600
 1707.9468     1.8000     1.5190     1.9700
 1708.0992     1.7810     1.5060     1.8430
 1708.2516     1.7910     1.5530     1.8000
 1708.4040     1.9110     1.6290     1.7960
 1708.5564     2.1420     1.7040     1.8650
 1708.7088     2.2320     1.7530     1.9150
 1708.8612     2.2530     1.7710     2.3230
 1709.0136     2.1910     1.7620     2.5740
 1709.1660     2.0280     1.7240     2.6890
 1709.3184     1.9020     1.6850     2.5540
 1709.4708     1.8710     1.6890     2.1550
 1709.6232     1.8640     1.7080     2.0430
 1709.7756     1.8630     1.6780     2.2340
 1709.9280     1.8630     1.6200     2.3200
 1710.0804     1.8690     1.5820     2.1690
 1710.2328     1.8850     1.5770     2.1170
 1710.3852     1.9220     1.5770     2.1620
 1710.5376     1.9590     1.6010     2.2830
 1710.6900     2.0010     1.6600     2.2390
 1710.8424     2.0520     1.7200     2.1670
 1710.9948     2.0860     1.7340     2.3170
