~VERSION INFORMATION
VERS.                                                 2.0:   CWLS Log ASCII Standard-VERSION 2.0
WRAP.                                                  NO:   One line per depth step
~Well Information Block
STRT.M                                          2684.0688:   Top Depth
STOP.M                                          2930.9568:   Bottom Depth
STEP.M                                             .15240:   Depth Increment
NULL.                                            -999.250:   Null Value
FLD .                                          EEMSKANAAL:   Field Name
WELL.                                       EEMSKANAAL- 1:   NAME
EDF .m                                               5.58:   ELEV DRILL FLOOR
EPD .                                                   0:   ELEV PERM DATUM
EGL .m                                                -.9:   GROUND LEVEL
LMF .                                                  DF:   LOGS MEAS FROM
COMP.                                                 NAM:   OPERATOR
PDAT.                                                 NAP:   PERM DATUM
SPUD.                                          1970/11/08:   SPUD DATE
UWBI.                                      11000074112201:   UWBI
WELL.                                       EEMSKANAAL- 1:   HOLE NAME
~PARAMETER INFORMATION (log)
LNAM.                                RUN 08 RAW OH 9.625":   NAME
LTYP.                                                 08R:   LOG TYPE
LVSN.                                                   1:   LOG VERSION
BS  .5/8"                                               9:   BIT SIZE
BLI .M                                               2950:   BOTTOM DEPTH LOGGED
BHIS.                                              MCCCCC:   BRIEF HISTORY
FHIS.                           MERGE/COPY/COPY/COPY/COPY:   FULL HISTORY
MRT .                                                    :   MAX REC TEMP
DFT .                                          SALT SPERS:   MUD TYPE
RMS .                                               0.074:   RM
MST .C                                                 26:   RM TEMP
RMCS.                                               0.144:   RMC
MCST.C                                                 17:   RMC TEMP
RMFS.                                               0.059:   RMF
MFST.C                                                 26:   RMF TEMP
TCS .                                                 N/A:   TIME SINCE CIRCLN
TLI .M                                             1406.5:   TOP DEPTH LOGGED
~Curve Information Block
#MNEM.UNIT                                        API CODE    No Description
#=========                                        ========    == ===========
DEPT.M                                       00 001 00 00:     1  DEPTH
LL9D.OHMM                                                :     2  Dual Laterolog 9 deep
LL9S.OHMM                                                :     3  Dual Laterolog 9 shallow
MSFL.OHMM                                                :     4  MICRO SPHERICALLY FOCUSSED LOG
~ASCII
# ...
 2795.0160     5.4760     3.1240     1.2030
 2795.1684     5.5560     3.1450     1.2450
 2795.3208     5.3840     3.0450     1.3650
 2795.4732     5.0400     2.9050     1.6790
 2795.6256     4.8250     2.8360     1.3250
 2795.7780     4.8230     2.8320     1.1900
 2795.9304     4.8930     2.8690     1.1880
 2796.0828     5.0550     2.9000      .8980
 2796.2352     5.0670     2.8630      .8550
 2796.3876     4.8770     2.8140     1.1810
 2796.5400     4.6610     2.7490     1.5880
 2796.6924     4.5590     2.6650     1.1280
 2796.8448     4.6340     2.6040      .8390
 2796.9972     4.6880     2.5860     1.0490
 2797.1496     4.6050     2.5860      .9830
 2797.3020     4.5910     2.5960      .8300
 2797.4544     4.7310     2.6570     1.0140
 2797.6068     5.0030     2.8320     1.0590
 2797.7592     5.2210     2.8430     1.2170
 2797.9116     4.9110     2.6680     1.3670
 2798.0640     4.4290     2.4190     1.5460
 2798.2164     4.0510     2.2170     1.2920
 2798.3688     3.8370     2.0360      .6640
 2798.5212     3.7350     2.0030      .6950
 2798.6736     3.8840     2.0780      .6710
 2798.8260     4.1780     2.2280      .6040
 2798.9784     4.5340     2.3650      .6330
 2799.1308     4.6170     2.4580     1.0140
 2799.2832     4.5290     2.4240      .8630
 2799.4356     4.3290     2.3170      .8850
 2799.5880     4.2800     2.2800      .7930
 2799.7404     4.3360     2.3160      .9680
 2799.8928     4.4540     2.4220      .9730
 2800.0452     4.6140     2.5120      .9340
 2800.1976     4.7390     2.5680      .9600
 2800.3500     4.7560     2.5870      .9520
 2800.5024     4.7050     2.5840      .8710
 2800.6548     4.6570     2.6030      .8610
 2800.8072     4.6210     2.6720      .9070
 2800.9596     4.6730     2.7510      .8620
 2801.1120     4.7270     2.7980      .8140
 2801.2644     4.5420     2.8380     1.0680
 2801.4168     4.2780     2.7330      .9100
 2801.5692     3.9860     2.5520      .7670
 2801.7216     3.6650     2.4010      .7320
 2801.8740     3.5840     2.3670      .7690
 2802.0264     3.7640     2.4510      .7260
 2802.1788     4.1230     2.6610      .7380
 2802.3312     4.9500     3.0720      .8750
 2802.4836     5.4180     3.3840     1.5500
 2802.6360     4.9880     3.2430     2.1650
 2802.7884     4.2710     2.9830     2.1310
 2802.9408     4.1880     2.8370     1.1850
 2803.0932     4.1790     2.8000     1.2080
 2803.2456     4.0400     2.7740     1.1640
 2803.3980     3.7730     2.7090      .7480
 2803.5504     3.6130     2.5870     1.2720
 2803.7028     3.5370     2.5540      .6410
 2803.8552     3.6810     2.6990      .6250
 2804.0076     4.1410     3.2370      .7690
 2804.1600     5.2960     3.9130     1.3060
 2804.3124     6.3520     4.3690     2.8290
 2804.4648     6.8020     5.1610     5.0330
 2804.6172     6.7140     4.8500     3.8980
 2804.7696     6.0300     3.8860     3.1270
 2804.9220     5.2230     3.2480     3.0540
 2805.0744     4.4260     2.8980     1.6730
 2805.2268     4.0090     2.6860     1.0430
 2805.3792     3.9310     2.6920      .9140
 2805.5316     4.0740     2.8290     1.1630
 2805.6840     4.3650     2.8900      .9650
 2805.8364     4.5730     2.8740      .9350
 2805.9888     4.6130     2.8290      .9650
 2806.1412     4.5360     2.7860     1.5200
 2806.2936     4.5310     2.7280     1.1800
 2806.4460     4.5660     2.6790     1.0460
 2806.5984     4.5780     2.6630     1.0540
 2806.7508     4.4850     2.6420     1.1130
 2806.9032     4.3580     2.5620     1.2070
 2807.0556     4.3300     2.5650     1.1940
 2807.2080     4.3780     2.6400     1.3370
 2807.3604     4.6390     2.7740      .9770
 2807.5128     5.0250     2.7810     1.0630
 2807.6652     5.0820     2.6840     1.0250
 2807.8176     4.8510     2.5950     1.0740
 2807.9700     4.6220     2.5330     1.2700
 2808.1224     4.5320     2.5200      .5700
 2808.2748     4.6660     2.5820      .6810
 2808.4272     5.0180     2.8340      .6520
 2808.5796     5.4480     2.9980      .7600
 2808.7320     5.5380     2.9520      .8530
 2808.8844     5.3260     2.7780      .8400
 2809.0368     4.9560     2.5840     1.6170
 2809.1892     4.7910     2.5300     1.4130
 2809.3416     4.9680     2.6610      .6840
 2809.4940     5.3620     2.9930      .6990
 2809.6464     5.6450     2.9800     1.2330
 2809.7988     5.2560     2.7080     1.2610
 2809.9512     4.3350     2.3450     1.2660
 2810.1036     3.8750     2.1370     1.1600
 2810.2560     3.7530     2.0630      .7360
 2810.4084     3.7070     2.0440      .6840
 2810.5608     3.7310     2.0970      .6610
 2810.7132     3.9160     2.2100      .6670
 2810.8656     4.2200     2.3330      .6770
 2811.0180     4.3640     2.3760      .6630
 2811.1704     4.1640     2.2830     1.0800
 2811.3228     3.9580     2.1660     1.0850
 2811.4752     3.9820     2.1600     1.0630
 2811.6276     4.0950     2.2170      .8300
 2811.7800     4.1750     2.3220      .7490
 2811.9324     4.0410     2.3140      .8880
 2812.0848     3.7860     2.1770      .8430
 2812.2372     3.5980     2.0850      .9640
 2812.3896     3.5080     2.0660      .9470
 2812.5420     3.5520     2.0870      .8620
 2812.6944     3.7400     2.1650      .6940
 2812.8468     4.0580     2.3170      .6660
 2812.9992     4.5790     2.7150      .6720
 2813.1516     5.0590     2.9190     1.3530
 2813.3040     5.1250     2.8900     1.8680
 2813.4564     4.8430     2.7290     1.2380
 2813.6088     4.0510     2.5560     1.6320
 2813.7612     3.6570     2.3520     3.3850
 2813.9136     3.6860     2.3300     1.1610
 2814.0660     3.9670     2.4700     1.0300
 2814.2184     4.1710     2.6060      .9920
 2814.3708     4.3440     2.7420     1.0210
 2814.5232     4.5550     2.8490     1.1350
 2814.6756     4.7180     2.9670     1.2170
 2814.8280     4.8290     3.0900     1.1550
 2814.9804     4.8550     3.1470     1.1090
 2815.1328     4.8040     3.0670     1.0930
 2815.2852     4.7010     3.0210     1.1750
 2815.4376     4.7520     3.0280     1.3340
 2815.5900     4.9460     3.1810     1.4610
 2815.7424     5.2160     3.6300     1.2560
 2815.8948     5.8440     4.2450     1.4250
 2816.0472     6.9450     4.7740     1.3180
 2816.1996     7.1750     4.7280     1.5580
 2816.3520     7.0390     4.4400     1.8590
 2816.5044     6.9550     4.2390     2.1170
 2816.6568     7.0500     4.2120     2.4270
 2816.8092     7.3160     4.3530     1.9110
 2816.9616     7.9810     4.7570      .7350
 2817.1140     8.4280     5.2070      .8020
 2817.2664     8.6500     5.5460      .9640
 2817.4188     8.8510     5.6490      .7500
 2817.5712     8.5170     4.8710      .7870
 2817.7236     7.3340     3.5480      .9490
 2817.8760     5.3350     3.2980      .9630
 2818.0284     4.9670     3.3060      .7860
 2818.1808     5.2100     3.4470      .5610
 2818.3332     5.8880     3.9610      .4930
 2818.4856     6.4190     4.0280     1.1250
 2818.6380     5.9390     3.6450     2.2200
 2818.7904     5.3810     3.6220     1.4530
 2818.9428     5.5800     3.6930     1.3880
 2819.0952     6.1670     3.7970     1.1650
 2819.2476     6.4980     3.7840     1.1340
 2819.4000     6.2780     3.6060     1.3700
 2819.5524     5.3160     2.9630     1.0920
 2819.7048     4.4870     2.7250      .9120
 2819.8572     4.4500     2.7230      .6360
 2820.0096     4.6350     2.7910      .6170
 2820.1620     4.9730     2.9320      .6220
 2820.3144     5.1960     2.9790      .8040
 2820.4668     5.2120     2.9430     1.2950
 2820.6192     5.1890     2.8810      .8940
 2820.7716     5.2690     2.9260      .8730
 2820.9240     5.3830     2.9970     1.1160
 2821.0764     5.3680     2.9420     1.6050
 2821.2288     5.2470     2.8890     1.2340
 2821.3812     5.2270     2.8920     1.2170
 2821.5336     5.2360     2.9080     1.0200
 2821.6860     5.2710     2.9290      .9830
 2821.8384     5.4070     2.9850     1.1010
 2821.9908     5.5940     3.0880     1.1070
 2822.1432     5.7630     3.1970     1.1500
 2822.2956     5.8990     3.2720      .9390
 2822.4480     5.9700     3.3100      .8580
 2822.6004     6.0120     3.3070     1.1910
