~VERSION INFORMATION
VERS.                                                 2.0:   CWLS Log ASCII Standard-VERSION 2.0
WRAP.                                                  NO:   One line per depth step
~Well Information Block
STRT.M                                          1406.0424:   Top Depth
STOP.M                                          1903.9332:   Bottom Depth
STEP.M                                             .15240:   Depth Increment
NULL.                                            -999.250:   Null Value
FLD .                                          EEMSKANAAL:   Field Name
WELL.                                       EEMSKANAAL- 1:   NAME
EDF .m                                               5.58:   ELEV DRILL FLOOR
EPD .                                                   0:   ELEV PERM DATUM
EGL .m                                                -.9:   GROUND LEVEL
LMF .                                                  DF:   LOGS MEAS FROM
COMP.                                                 NAM:   OPERATOR
PDAT.                                                 NAP:   PERM DATUM
SPUD.                                          1970/11/08:   SPUD DATE
UWBI.                                      11000074112201:   UWBI
WELL.                                       EEMSKANAAL- 1:   HOLE NAME
~PARAMETER INFORMATION (log)
LNAM.                                RUN 07 RAW OH 9.625":   NAME
LTYP.                                                 07R:   LOG TYPE
LVSN.                                                   1:   LOG VERSION
BS  .5/8"                                               9:   BIT SIZE
BLI .M                                               2950:   BOTTOM DEPTH LOGGED
BHIS.                                            RCCCCCCC:   BRIEF HISTORY
FHIS.              RAW-TIGA/COPY/COPY/COPY/COPY/COPY/COPY:   FULL HISTORY
MRT .                                                    :   MAX REC TEMP
DFT .                                          SALT SPERS:   MUD TYPE
RMS .                                               0.074:   RM
MST .C                                                 26:   RM TEMP
RMCS.                                               0.144:   RMC
MCST.C                                                 17:   RMC TEMP
RMFS.                                               0.059:   RMF
MFST.C                                                 26:   RMF TEMP
TCS .                                                 N/A:   TIME SINCE CIRCLN
TLI .M                                             1406.5:   TOP DEPTH LOGGED
~Curve Information Block
#MNEM.UNIT                                        API CODE    No Description
#=========                                        ========    == ===========
DEPT.M                                       00 001 00 00:     1  DEPTH
LL9D.OHMM                                                :     2  Dual Laterolog 9 deep
LL9S.OHMM                                                :     3  Dual Laterolog 9 shallow
MSFL.OHMM                                                :     4  MICRO SPHERICALLY FOCUSSED LOG
~ASCII
# ...
 1600.2000     4.0680     4.0950     4.1860
 1600.3524     3.9760     3.9440     6.3750
 1600.5048     3.6120     3.3710     4.4530
 1600.6572     2.9490     2.9160     4.6140
 1600.8096     2.4300     2.6110     3.8280
 1600.9620     1.8880     2.1930     2.4520
 1601.1144     1.4990     1.5820     2.0160
 1601.2668     1.3070     1.3850     2.3360
 1601.4192     1.1910     1.1810     1.6870
 1601.5716     1.1500     1.0850     1.2460
 1601.7240     1.1480     1.0680     1.0040
 1601.8764     1.1770     1.0870      .9270
 1602.0288     1.2140     1.1240      .9220
 1602.1812     1.2260     1.1290      .9260
 1602.3336     1.1860     1.0990     1.0810
 1602.4860     1.1000     1.0400     1.2380
 1602.6384     1.0590      .9980     1.0280
 1602.7908     1.0530      .8810      .7880
 1602.9432     1.0620      .8640      .7510
 1603.0956     1.0910      .8970      .8350
 1603.2480     1.1240      .9700      .9740
 1603.4004     1.1690     1.0340      .9760
 1603.5528     1.2540     1.0800      .8230
 1603.7052     1.3580     1.1140      .8220
 1603.8576     1.4000     1.1310     1.0410
 1604.0100     1.4020     1.1220     1.1020
 1604.1624     1.3880     1.1210     1.2100
 1604.3148     1.3930     1.1330     1.1570
 1604.4672     1.4160     1.1370     1.0330
 1604.6196     1.4030     1.1290     1.2050
 1604.7720     1.3470     1.1060     1.1510
 1604.9244     1.2930     1.0760      .9800
 1605.0768     1.2680     1.0560      .7710
 1605.2292     1.2670     1.0550      .7850
 1605.3816     1.2760     1.0560     1.0890
 1605.5340     1.2790     1.0660      .9850
 1605.6864     1.2770     1.0890      .8330
 1605.8388     1.2740     1.1280     1.0570
 1605.9912     1.2700     1.1330     1.0250
 1606.1436     1.2650     1.0890      .9330
 1606.2960     1.2700     1.0880      .9100
 1606.4484     1.3520     1.1550     1.0870
 1606.6008     1.4610     1.2060     1.0090
 1606.7532     1.4460     1.2230     1.0280
 1606.9056     1.3950     1.2250     1.2020
 1607.0580     1.3820     1.1930     1.1430
 1607.2104     1.3140     1.0920      .9520
 1607.3628     1.2730     1.0730      .8800
 1607.5152     1.2950     1.0800      .8160
 1607.6676     1.3290     1.0910      .9300
 1607.8200     1.3280     1.0950      .9250
 1607.9724     1.2940     1.0810      .9750
 1608.1248     1.2270     1.0430      .9310
 1608.2772     1.1010      .9520      .6540
 1608.4296     1.0560      .9020      .6910
 1608.5820     1.0520      .8880      .6900
 1608.7344     1.0590      .8880      .7350
 1608.8868     1.0800      .8930      .9110
 1609.0392     1.1250      .9100      .8890
 1609.1916     1.1820      .9640      .7670
 1609.3440     1.2360     1.0270      .4030
 1609.4964     1.2860     1.0960      .9780
 1609.6488     1.2900     1.1360     1.0980
 1609.8012     1.2750     1.1410     1.0990
 1609.9536     1.2530     1.1400     1.0220
 1610.1060     1.2280     1.1490     1.0260
 1610.2584     1.1880     1.1750     1.0890
 1610.4108     1.1830     1.2150     1.0790
 1610.5632     1.2030     1.2720     1.0000
 1610.7156     1.2470     1.3430      .9360
 1610.8680     1.3130     1.3950      .9640
 1611.0204     1.3830     1.4390     1.0450
 1611.1728     1.4340     1.4880     1.0530
 1611.3252     1.4750     1.5500     1.0940
 1611.4776     1.5190     1.6260     1.2390
 1611.6300     1.6750     1.7430     1.2630
 1611.7824     1.9870     1.9450     1.4940
 1611.9348     2.5620     2.5300     3.0400
 1612.0872     3.0830     3.1920     2.9670
 1612.2396     3.2730     3.4200     1.4400
 1612.3920     2.9520     3.0240     1.6000
 1612.5444     2.1720     2.4870     4.7650
 1612.6968     1.8710     2.2130    10.5500
 1612.8492     1.8750     2.1070     7.2210
 1613.0016     1.9300     2.0930     2.1750
 1613.1540     2.2270     2.2440     2.0900
 1613.3064     2.7370     2.6760     1.7940
 1613.4588     3.1830     3.1990     1.6060
 1613.6112     3.3070     3.2630     1.6630
 1613.7636     3.0860     3.1180     2.5480
 1613.9160     2.6160     2.5000     2.2740
 1614.0684     1.9730     1.8490     3.7760
 1614.2208     1.7110     1.6110     4.0060
 1614.3732     1.5860     1.4880     1.6650
 1614.5256     1.4870     1.4150     1.4540
 1614.6780     1.4160     1.3560     1.5100
 1614.8304     1.3790     1.3150     1.3900
 1614.9828     1.3480     1.2960     1.4080
 1615.1352     1.3240     1.2660     1.5400
 1615.2876     1.3180     1.2300     1.4400
 1615.4400     1.3220     1.1840     1.3420
 1615.5924     1.3300     1.1700     1.2970
 1615.7448     1.3470     1.1730     1.2670
 1615.8972     1.3660     1.1820     1.2850
 1616.0496     1.4060     1.2080     1.3430
 1616.2020     1.4400     1.2540     1.3750
 1616.3544     1.4620     1.2980     1.3250
 1616.5068     1.4660     1.3090     1.2780
 1616.6592     1.4660     1.3050     1.4040
 1616.8116     1.4550     1.2900     1.3500
 1616.9640     1.4090     1.2490     1.5340
 1617.1164     1.3290     1.1880     1.4280
 1617.2688     1.2720     1.1210     1.2010
 1617.4212     1.2340     1.0640     1.1490
 1617.5736     1.2080     1.0430     1.1180
 1617.7260     1.2200     1.0520     1.1150
 1617.8784     1.3010     1.1050     1.1600
 1618.0308     1.3690     1.1890     1.1860
 1618.1832     1.4530     1.2420     1.1670
 1618.3356     1.4470     1.2420     1.1220
 1618.4880     1.4080     1.2170     1.2510
 1618.6404     1.3630     1.1940     1.2610
 1618.7928     1.3400     1.1930     1.1520
 1618.9452     1.3780     1.2080      .9340
 1619.0976     1.4390     1.2220     1.3320
 1619.2500     1.4500     1.2170     1.4090
 1619.4024     1.4220     1.2080     1.3350
 1619.5548     1.3950     1.2110     1.1160
 1619.7072     1.4040     1.2210      .7880
 1619.8596     1.4400     1.2260      .9930
 1620.0120     1.4450     1.2220     1.1610
 1620.1644     1.4120     1.2100     1.2490
 1620.3168     1.3910     1.1980     1.0380
 1620.4692     1.4010     1.1990      .8100
 1620.6216     1.4180     1.2060      .8970
 1620.7740     1.4310     1.2190     1.3110
 1620.9264     1.4370     1.2340     1.5380
 1621.0788     1.4300     1.2430     1.5620
 1621.2312     1.4000     1.2350      .8700
 1621.3836     1.3630     1.2020      .3390
 1621.5360     1.3120     1.1470      .2300
 1621.6884     1.2450     1.0760      .2530
 1621.8408     1.1560     1.0200      .3330
 1621.9932     1.0910      .9830      .4280
 1622.1456     1.0690      .9810      .6420
 1622.2980     1.0660      .9940      .9120
 1622.4504     1.0910     1.0180      .9630
 1622.6028     1.1420     1.0460      .9540
 1622.7552     1.2180     1.0820      .8900
 1622.9076     1.2970     1.1160      .9710
 1623.0600     1.3300     1.1420     1.1220
 1623.2124     1.3370     1.1650     1.1150
 1623.3648     1.3360     1.1880     1.0850
 1623.5172     1.3420     1.2140     1.0880
 1623.6696     1.3740     1.2380     1.0490
 1623.8220     1.3920     1.2560     1.1150
 1623.9744     1.3970     1.2600     1.1310
 1624.1268     1.3940     1.2610     1.1280
 1624.2792     1.3910     1.2610     1.1020
 1624.4316     1.3980     1.2620     1.0250
 1624.5840     1.4100     1.2670     1.0220
 1624.7364     1.4110     1.2720     1.1340
 1624.8888     1.4040     1.2670     1.1120
 1625.0412     1.3850     1.2580     1.0960
 1625.1936     1.3510     1.2530     1.0980
 1625.3460     1.3150     1.2510     1.1290
 1625.4984     1.2990     1.2530     1.0920
 1625.6508     1.3190     1.2650     1.0560
 1625.8032     1.3490     1.2950     1.0200
 1625.9556     1.3780     1.3440     1.2380
 1626.1080     1.4150     1.3990     1.2420
 1626.2604     1.4700     1.4820     1.1680
 1626.4128     1.5470     1.5690     1.2210
 1626.5652     1.6170     1.6270     1.8400
 1626.7176     1.6670     1.6670     1.9190
 1626.8700     1.7200     1.7100     1.5430
 1627.0224     1.7440     1.7370     1.8520
 1627.1748     1.7320     1.7440     2.9600
 1627.3272     1.6740     1.7380     1.4230
 1627.4796     1.5910     1.7020     1.2410
 1627.6320     1.4790     1.6120     1.1260
 1627.7844     1.3790     1.5370     1.2630
