~VERSION INFORMATION
VERS.                                                 2.0:   CWLS Log ASCII Standard-VERSION 2.0
WRAP.                                                  NO:   One line per depth step
~Well Information Block
STRT.M                                           836.5236:   Top Depth
STOP.M                                          2800.0452:   Bottom Depth
STEP.M                                             .15240:   Depth Increment
NULL.                                            -999.250:   Null Value
FLD .                                          EEMSKANAAL:   Field Name
WELL.                                       EEMSKANAAL- 2:   NAME
APD .M                                               5.62:   ABOVE PERM DATUM
CTRY.                                                  NE:   COUNTRY
EDF .m                                               5.62:   ELEV DRILL FLOOR
EPD .                                                   0:   ELEV PERM DATUM
EGL .m                                              -1.06:   GROUND LEVEL
LMF .                                                  DF:   LOGS MEAS FROM
COMP.                                                 NAM:   OPERATOR
PDAT.                                                 NAP:   PERM DATUM
SPUD.                                          1971/03/17:   SPUD DATE
STAT.                                           Unknown m:   STATE
UWBI.                                      11000074112601:   UWBI
WELL.                                       EEMSKANAAL- 2:   HOLE NAME
~PARAMETER INFORMATION (log)
LNAM.                              RUN 04 RAW CH OCT 2002:   NAME
LTYP.                                                 04R:   LOG TYPE
LVSN.                                                   1:   LOG VERSION
BHT .DEGC                                             101:   BH TEMP
BS  .IN                                             9.625:   BIT SIZE
BHS .                                                CASE:   BOREHOLE STATUS
BLI .M                                               2800:   BOTTOM DEPTH LOGGED
BHIS.                                                  RC:   BRIEF HISTORY
CS  .IN                                             7.625:   CASING SIZE
CSW .LB/F                                            52.3:   CASING WEIGHT
R1  .                                 Log correlated with:   COMMENT  1
R2  .       Compensated formation density log 1-April-197:   COMMENT  2
R4  .          Weight expendable tubing 18.6 lbs per foot:   COMMENT  4
R5  .              Weight 7 5/8" casing 33.7 lbs per foot:   COMMENT  5
R7  .                                      Set CSID 5.98":   COMMENT  7
R8  .                   Set CWEI 33.7 + 18.6  =  52.3 LBS:   COMMENT  8
R9  .                                    Set CSIZ 7.625 ":   COMMENT  9
DMF .                                                 ORT:   DRILL MEAS FROM
EDF .M                                               5.62:   ELEV DRILL FLOOR
ELZ .                                              5.62 M:   ELEVATION LOG ZERO
ENGI.                                         M. Riedeman:   ENGINEER
FHIS.                                            RAW-DLIS:   FULL HISTORY
HIDE.                                               RST-C:   HEADER ID
LCNM.                                        Schlumberger:   LOGGING CONTRACTOR
LMF .                                                 ORT:   LOGS MEAS FROM
MATR.                                                LIME:   MATRIX
MRT .DEGC                                             101:   MAX REC TEMP
DFT .                                                 gas:   MUD TYPE
CN  .                                                 NAM:   OPERATOR
RUN .                                                   1:   RUN
DATE.                                          2002/10/25:   RUN DATE
RW  .OHMM                                               1:   RW
STEM.DEGC                                              18:   SURFACE TEMPERATURE
TLAB.                                                1100:   TIME LOGGER ON BOT
TLI .M                                                840:   TOP DEPTH LOGGED
WITN.                           P van der Zee & S. Yntema:   WITNESS
~Curve Information Block
#MNEM.UNIT                                        API CODE    No Description
#=========                                        ========    == ===========
DEPT.M                                       00 001 00 00:     1  DEPTH
AIRB.                                                    :     2  RST Air Borehole Diagnostic
CIRF.                                                    :     3  RST Capture to Inelastic Ratio Far
CIRN.                                                    :     4  RST Capture to Inelastic Ratio Near
FBAC.CPS                                                 :     5  Far Background Count Rate
GR.API                                                   :     6  Gamma Ray
IRAT.                                                    :     7  RST Inelastic Ratio
NBAC.CPS                                                 :     8  Near Background Count Rate
SBNA.CU                                                  :     9  RST Sigma Borehole Near Apparent
SFNA.CU                                                  :    10  RST Sigma Formation Near Apparent
SIGM.CU                                                  :    11  Formation Sigma (Neutron Capture Cross S
TPHI.FRAC                                                :    12  Thermal Decay Porosity
~ASCII
# ...
  966.6732     1.0000      .5024      .3048  3475.1599    13.9246      .8237  2172.1982    82.2693    36.5528    54.8107      .4350
  966.8256     1.0000      .4903      .2921  3475.2849    13.8546      .8246  2184.8987    77.8549    35.9572    54.5138      .4338
  966.9780     1.0000      .4929      .2949  3483.3057    13.2854      .8302  2190.1174    81.4864    37.2461    54.5753      .4213
  967.1304     1.0000      .4857      .2897  3466.8530    13.4555      .8336  2195.0642    83.7875    36.7934    54.4581      .3932
  967.2828     1.0000      .4913      .2771  3460.3110    14.0342      .8331  2217.5186    85.8201    36.4896    54.2109      .3831
  967.4352     1.0000      .4948      .2924  3427.5569    14.3711      .8256  2224.4705    82.9069    36.7756    53.7583      .4011
  967.5876     1.0000      .4777      .2817  3437.1826    14.1072      .8266  2196.3955    77.0613    35.6107    53.2323      .4092
  967.7400     1.0000      .4832      .2856  3429.4290    14.6080      .8233  2185.7002    85.1545    37.8472    53.8490      .4236
  967.8924     1.0000      .4932      .2909  3445.6055    14.3545      .8259  2162.4382    79.0877    38.1998    53.5261      .4142
  968.0448     1.0000      .4945      .2943  3414.8562    14.6157      .8328  2163.1067    79.0485    36.6005    53.3176      .4159
  968.1972     1.0000      .4785      .2866  3408.9736    14.2788      .8361  2161.5022    80.5992    35.3653    52.5526      .3999
  968.3496     1.0000      .4850      .2828  3437.4500    13.1644      .8375  2136.9033    82.7008    36.1022    52.8661      .3904
  968.5020     1.0000      .4850      .2879  3417.6641    12.0774      .8277  2125.2725    86.3831    37.5198    53.7820      .3904
  968.6544     1.0000      .4782      .2871  3433.7068    11.2448      .8267  2134.3635    87.2023    37.3021    53.7645      .4031
  968.8068     1.0000      .4731      .2848  3441.0681    10.8136      .8194  2140.1123    82.2243    37.8493    53.8084      .4003
  968.9592     1.0000      .4692      .2750  3426.3455    10.6470      .8293  2116.1819    86.1841    36.4637    54.1754      .3924
  969.1116     1.0000      .4858      .2838  3422.1780    11.4275      .8397  2118.8557    83.1351    35.8578    55.4953      .3728
  969.2640     1.0000      .4863      .2830  3396.3843    11.9302      .8427  2132.8931    85.3667    40.1933    56.9173      .3783
  969.4164     1.0000      .4808      .2804  3419.7798    12.2620      .8278  2146.2622    83.3802    38.0570    57.0610      .3856
  969.5688     1.0000      .4469      .2492  3406.4109    12.2620      .8090  2143.9355    84.7705    37.8868    56.5282      .3997
  969.7212     1.0000      .4102      .2369  3446.6611    12.3451      .8082  2134.8447    86.3267    39.4502    56.0993      .4078
  969.8736     1.0000      .4462      .2785  3456.2869    12.8566      .8223  2123.0798    87.0661    37.2927    55.8361      .4215
  970.0260     1.0000      .4687      .2901  3441.8484    13.6913      .8366  2119.8713    83.3466    36.3068    55.9436      .4297
  970.1784     1.0000      .4847      .2941  3462.0439    13.6913      .8387  2134.8445    82.4568    34.9999    55.6381      .4238
  970.3308     1.0000      .4761      .2899  3444.9314    13.2620      .8274  2147.6792    86.0496    37.1955    55.8409      .4148
  970.4832     1.0000      .5053      .2922  3452.9446    13.0116      .8241  2139.2568    83.9347    35.5602    55.6189      .4074
  970.6356     1.0000      .4976      .2931  3465.6526    12.4166      .8237  2143.1340    84.3223    37.3197    55.6382      .4083
  970.7880     1.0000      .4820      .3008  3479.1790    11.4984      .8270  2145.2727    85.7952    35.9606    55.1651      .4079
  970.9404     1.0000      .5180      .3041  3485.1865    11.4952      .8342  2141.2622    84.4866    37.1595    54.6272      .4068
  971.0928     1.0000      .5118      .3038  3435.1946    12.6845      .8355  2143.9358    82.1047    37.4820    54.6371      .4122
  971.2452     1.0000      .4986      .3085  3446.4248    14.3540      .8391  2154.5510    80.6933    36.8055    54.1949      .4070
  971.3976     1.0000      .5061      .2962  3413.2686    14.1035      .8342  2161.6367    85.9179    38.0993    53.9855      .4099
  971.5500     1.0000      .5143      .3014  3402.5732    14.6044      .8312  2160.0325    77.1267    36.4581    53.6537      .4083
  971.7024     1.0000      .5018      .2950  3375.6775    15.1767      .8324  2168.0542    80.0814    37.4221    53.6353      .4210
  971.8548     1.0000      .4967      .2978  3341.0432    15.3233      .8296  2145.9954    81.4787    36.4586    53.8159      .4220
  972.0072     1.0000      .5055      .3084  3356.8186    13.9877      .8306  2120.4548    83.0792    37.7783    54.2397      .4297
  972.1596     1.0000      .4985      .3007  3339.8401    14.6606      .8304  2120.1873    81.5626    36.7573    54.1588      .4259
  972.3120     1.0000      .4935      .2963  3332.4788    15.7073      .8335  2111.4973    81.9153    36.6615    53.9906      .4219
  972.4644     1.0000      .4921      .2948  3312.4255    14.9625      .8301  2115.7754    84.1268    36.7855    54.2485      .4041
  972.6168     1.0000      .4779      .2851  3302.6743    14.4871      .8256  2099.7327    88.0213    36.6382    54.7867      .3956
  972.7692     1.0000      .4826      .2794  3330.0728    14.3198      .8298  2097.0588    86.0352    37.2555    55.4088      .3935
  972.9216     1.0000      .4679      .2828  3313.2046    14.7510      .8307  2097.5938    82.9752    38.7648    56.5702      .4059
  973.0740     1.0000      .4691      .2781  3333.6509    13.2834      .8337  2091.5774    81.8323    37.7249    57.3478      .4186
  973.2264     1.0000      .4654      .2686  3337.9290    14.4608      .8293  2093.7166    81.1184    38.5979    58.1212      .4225
  973.3788     1.0000      .4469      .2736  3343.4338    14.2883      .8293  2098.5295    83.9006    36.8911    57.6932      .4102
  973.5312     1.0000      .4565      .2707  3366.8381    14.0295      .8259  2102.5403    89.8043    37.7248    57.2939      .3932
  973.6836     1.0000      .4654      .2695  3346.1162    14.4280      .8197  2116.4441    87.7601    38.6482    57.1306      .3776
  973.8360     1.0000      .4467      .2598  3361.0898    15.0158      .8244  2105.0803    89.6400    40.0534    57.0797      .3820
  973.9884     1.0000      .4506      .2662  3388.8970    13.7637      .8280  2115.2405    85.1195    38.1424    57.5482      .3888
  974.1408     1.0000      .4577      .2723  3395.5818    13.1984      .8284  2128.6096    86.3025    39.2279    58.1958      .4003
  974.2932     1.0000      .4324      .2577  3404.0132    14.7507      .8196  2146.6580    92.0837    35.9527    58.1895      .4145
  974.4456     1.0000      .4227      .2610  3399.6094    13.4152      .8207  2130.6150    86.3707    36.6496    58.0466      .4358
  974.5980     1.0000      .4400      .2741  3415.8088    13.6906      .8289  2100.6687    82.2674    37.1207    57.4343      .4511
  974.7504     1.0000      .4569      .2846  3426.3799    13.8516      .8359  2098.6631    80.7965    36.6821    57.0278      .4390
  974.9028     1.0000      .4691      .2724  3436.8079    14.8481      .8318  2095.9893    85.6229    39.1090    56.3571      .4218
  975.0552     1.0000      .4596      .2700  3449.1077    13.0541      .8360  2091.5510    82.3374    36.5121    56.4246      .4161
  975.2076     1.0000      .4475      .2820  3473.0476    13.6384      .8320  2088.7437    84.2733    36.6118    56.0366      .4358
  975.3600     1.0000      .4631      .2808  3491.0955    13.7547      .8344  2079.6526    81.8120    36.1057    56.6063      .4459
  975.5124     1.0000      .4450      .2714  3472.9141    13.8472      .8233  2099.0374    84.2435    38.1451    56.4913      .4436
  975.6648     1.0000      .4485      .2701  3453.1274    12.9990      .8321  2089.9465    84.8631    37.7672    56.3173      .4263
  975.8172     1.0000      .4424      .2705  3478.1367    13.8366      .8311  2057.7322    89.3501    37.4963    56.4718      .4370
