~VERSION INFORMATION
VERS.                                                 2.0:   CWLS Log ASCII Standard-VERSION 2.0
WRAP.                                                  NO:   One line per depth step
~Well Information Block
STRT.M                                           404.0124:   Top Depth
STOP.M                                          1403.9088:   Bottom Depth
STEP.M                                             .15240:   Depth Increment
NULL.                                            -999.250:   Null Value
FLD .                                          EEMSKANAAL:   Field Name
WELL.                                       EEMSKANAAL- 1:   NAME
EDF .m                                               5.58:   ELEV DRILL FLOOR
EPD .                                                   0:   ELEV PERM DATUM
EGL .m                                                -.9:   GROUND LEVEL
LMF .                                                  DF:   LOGS MEAS FROM
COMP.                                                 NAM:   OPERATOR
PDAT.                                                 NAP:   PERM DATUM
SPUD.                                          1970/11/08:   SPUD DATE
UWBI.                                      11000074112201:   UWBI
WELL.                                       EEMSKANAAL- 1:   HOLE NAME
~PARAMETER INFORMATION (log)
LNAM.                                RUN 01 RAW OH 14.75":   NAME
LTYP.                                                 01R:   LOG TYPE
LVSN.                                                   1:   LOG VERSION
BS  .3/4"                                              14:   BIT SIZE
BLI .M                                             1406.2:   BOTTOM DEPTH LOGGED
BHIS.                                            RCCCCCCC:   BRIEF HISTORY
FHIS.              RAW-TIGA/COPY/COPY/COPY/COPY/COPY/COPY:   FULL HISTORY
MRT .C                                                 50:   MAX REC TEMP
DFT .                                         CHALK WATER:   MUD TYPE
RMS .                                                1.44:   RM
MST .C                                                 11:   RM TEMP
RMCS.                                                1.93:   RMC
MCST.C                                                 19:   RMC TEMP
RMFS.                                               0.917:   RMF
MFST.C                                                 19:   RMF TEMP
TCS .                                                 N/A:   TIME SINCE CIRCLN
TLI .M                                              403.6:   TOP DEPTH LOGGED
~Curve Information Block
#MNEM.UNIT                                        API CODE    No Description
#=========                                        ========    == ===========
DEPT.M                                       00 001 00 00:     1  DEPTH
DILD.OHMM                                                :     2  DUAL INDUCTION LOG DEEP RESISTIVITY
SN.OHMM                                                  :     3  SHORT NORMAL
~ASCII
# ...
  848.4108      .4260      .7160
  848.5632      .4320      .7300
  848.7156      .4390      .7400
  848.8680      .4450      .7420
  849.0204      .4510      .7420
  849.1728      .4570      .7410
  849.3252      .4720      .7400
  849.4776      .4790      .7390
  849.6300      .4870      .7420
  849.7824      .4970      .7550
  849.9348      .5010      .7750
  850.0872      .5060      .7730
  850.2396      .5080      .7670
  850.3920      .5180      .7630
  850.5444      .5260      .7660
  850.6968      .5360      .7770
  850.8492      .5410      .7900
  851.0016      .5500      .7930
  851.1540      .5540      .7880
  851.3064      .5460      .7730
  851.4588      .5410      .7580
  851.6112      .5330      .7500
  851.7636      .5180      .7460
  851.9160      .5140      .7460
  852.0684      .5140      .7470
  852.2208      .5140      .7500
  852.3732      .5140      .7560
  852.5256      .5140      .7600
  852.6780      .5140      .7600
  852.8304      .5190      .7600
  852.9828      .5220      .7600
  853.1352      .5230      .7670
  853.2876      .5300      .7900
  853.4400      .5340      .8010
  853.5924      .5400      .8000
  853.7448      .5430      .7990
  853.8972      .5460      .7960
  854.0496      .5540      .7950
  854.2020      .5560      .7950
  854.3544      .5610      .7950
  854.5068      .5620      .7970
  854.6592      .5620      .8020
  854.8116      .5620      .8080
  854.9640      .5620      .8130
  855.1164      .5620      .8150
  855.2688      .5620      .8150
  855.4212      .5540      .8130
  855.5736      .5540      .8100
  855.7260      .5500      .8190
  855.8784      .5440      .8260
  856.0308      .5410      .8230
  856.1832      .5380      .8190
  856.3356      .5360      .8120
  856.4880      .5300      .8030
  856.6404      .5300      .7960
  856.7928      .5300      .7910
  856.9452      .5300      .7880
  857.0976      .5240      .7870
  857.2500      .5150      .7870
  857.4024      .5080      .7850
  857.5548      .4970      .7800
  857.7072      .4830      .7750
  857.8596      .4720      .7690
  858.0120      .4640      .7630
  858.1644      .4590      .7580
  858.3168      .4580      .7550
  858.4692      .4580      .7520
  858.6216      .4580      .7520
  858.7740      .4580      .7530
  858.9264      .4580      .7580
  859.0788      .4580      .7670
  859.2312      .4580      .7680
  859.3836      .4650      .7570
  859.5360      .4740      .7500
  859.6884      .4830      .7460
  859.8408      .4890      .7440
  859.9932      .4900      .7470
  860.1456      .4900      .7540
  860.2980      .4900      .7580
  860.4504      .4900      .7590
  860.6028      .4920      .7630
  860.7552      .4970      .7590
  860.9076      .4990      .7470
  861.0600      .5070      .7340
  861.2124      .5100      .7310
  861.3648      .5140      .7320
  861.5172      .5140      .7320
  861.6696      .5180      .7270
  861.8220      .5140      .7200
  861.9744      .5140      .7110
  862.1268      .5120      .7070
  862.2792      .5030      .7090
  862.4316      .4620      .7070
  862.5840      .3940      .6980
  862.7364      .3340      .6920
  862.8888      .2960      .6780
  863.0412      .2820      .6630
  863.1936      .2690      .6430
  863.3460      .2420      .6250
  863.4984      .2280      .6100
  863.6508      .2200      .5960
  863.8032      .2200      .5850
  863.9556      .2200      .5830
  864.1080      .2280      .5830
  864.2604      .2280      .5830
  864.4128      .2360      .5850
  864.5652      .2410      .5880
  864.7176      .2440      .5910
  864.8700      .2440      .5920
  865.0224      .2440      .5930
  865.1748      .2440      .5950
  865.3272      .2450      .5990
  865.4796      .2510      .6060
  865.6320      .2610      .6130
  865.7844      .2820      .6220
  865.9368      .3120      .6290
  866.0892      .3640      .6310
  866.2416      .4140      .6320
  866.3940      .4430      .6340
  866.5464      .4660      .6370
  866.6988      .4840      .6400
  866.8512      .4860      .6420
  867.0036      .4820      .6440
  867.1560      .4760      .6440
  867.3084      .4700      .6440
  867.4608      .4650      .6460
  867.6132      .4520      .6500
  867.7656      .4230      .6550
  867.9180      .3880      .6570
  868.0704      .3470      .6580
  868.2228      .3050      .6590
  868.3752      .2670      .6600
  868.5276      .2380      .6600
  868.6800      .2300      .6580
  868.8324      .2360      .6580
  868.9848      .2390      .6580
  869.1372      .2530      .6560
  869.2896      .2720      .6550
  869.4420      .3050      .6520
  869.5944      .3430      .6460
  869.7468      .3770      .6370
  869.8992      .3960      .6340
  870.0516      .3960      .6400
  870.2040      .3960      .6470
  870.3564      .3960      .6570
  870.5088      .3960      .6640
  870.6612      .3960      .6650
  870.8136      .3950      .6660
  870.9660      .3890      .6680
  871.1184      .3880      .6660
  871.2708      .3880      .6650
  871.4232      .3880      .6630
  871.5756      .3880      .6620
  871.7280      .3900      .6610
  871.8804      .3960      .6610
  872.0328      .3960      .6610
  872.1852      .3930      .6610
  872.3376      .3880      .6610
  872.4900      .3880      .6600
  872.6424      .3880      .6590
  872.7948      .3880      .6570
  872.9472      .4030      .6560
  873.0996      .4120      .6530
  873.2520      .4260      .6520
  873.4044      .4380      .6520
  873.5568      .4480      .6500
  873.7092      .4500      .6480
  873.8616      .4500      .6450
  874.0140      .4450      .6400
  874.1664      .4350      .6330
  874.3188      .4240      .6290
  874.4712      .4060      .6260
  874.6236      .3830      .6250
  874.7760      .3650      .6260
  874.9284      .3400      .6260
  875.0808      .3150      .6260
  875.2332      .3060      .6290
  875.3856      .3000      .6330
  875.5380      .2910      .6340
  875.6904      .2840      .6340
  875.8428      .2840      .6320
  875.9952      .2920      .6320
  876.1476      .2840      .6300
  876.3000      .2840      .6260
  876.4524      .2880      .6220
  876.6048      .2920      .6220
  876.7572      .2970      .6280
  876.9096      .3080      .6460
  877.0620      .3160      .6570
  877.2144      .3240      .6560
  877.3668      .3240      .6480
  877.5192      .3240      .6420
  877.6716      .3300      .6350
  877.8240      .3050      .6310
  877.9764      .2320      .6310
  878.1288      .2550      .6310
  878.2812      .2910      .6350
  878.4336      .3200      .6390
  878.5860      .3460      .6480
  878.7384      .3550      .6600
  878.8908      .3640      .6700
  879.0432      .3690      .6720
  879.1956      .3780      .6690
  879.3480      .3800      .6550
  879.5004      .3800      .6470
  879.6528      .3730      .6470
  879.8052      .3720      .6480
  879.9576      .3720      .6500
  880.1100      .3800      .6500
  880.2624      .3800      .6500
  880.4148      .3720      .6500
  880.5672      .3770      .6500
  880.7196      .3800      .6500
  880.8720      .3800      .6500
  881.0244      .3800      .6490
  881.1768      .3780      .6480
  881.3292      .3730      .6480
  881.4816      .3720      .6470
  881.6340      .3720      .6470
  881.7864      .3720      .6470
  881.9388      .3710      .6470
  882.0912      .3650      .6470
  882.2436      .3640      .6480
  882.3960      .3600      .6480
  882.5484      .3570      .6480
  882.7008      .3560      .6480
  882.8532      .3520      .6510
  883.0056      .3480      .6520
  883.1580      .3480      .6520
  883.3104      .3480      .6520
  883.4628      .3480      .6500
  883.6152      .3480      .6500
  883.7676      .3480      .6520
  883.9200      .3480      .6520
  884.0724      .3480      .6520
  884.2248      .3480      .6520
  884.3772      .3430      .6520
  884.5296      .3440      .6520
  884.6820      .3480      .6500
  884.8344      .3480      .6500
  884.9868      .3480      .6470
  885.1392      .3480      .6470
  885.2916      .3480      .6470
