~VERSION INFORMATION
VERS.                                                 2.0:   CWLS Log ASCII Standard-VERSION 2.0
WRAP.                                                  NO:   One line per depth step
~Well Information Block
STRT.M                                           404.0124:   Top Depth
STOP.M                                          1403.9088:   Bottom Depth
STEP.M                                             .15240:   Depth Increment
NULL.                                            -999.250:   Null Value
FLD .                                          EEMSKANAAL:   Field Name
WELL.                                       EEMSKANAAL- 1:   NAME
EDF .m                                               5.58:   ELEV DRILL FLOOR
EPD .                                                   0:   ELEV PERM DATUM
EGL .m                                                -.9:   GROUND LEVEL
LMF .                                                  DF:   LOGS MEAS FROM
COMP.                                                 NAM:   OPERATOR
PDAT.                                                 NAP:   PERM DATUM
SPUD.                                          1970/11/08:   SPUD DATE
UWBI.                                      11000074112201:   UWBI
WELL.                                       EEMSKANAAL- 1:   HOLE NAME
~PARAMETER INFORMATION (log)
LNAM.                                RUN 01 RAW OH 14.75":   NAME
LTYP.                                                 01R:   LOG TYPE
LVSN.                                                   1:   LOG VERSION
BS  .3/4"                                              14:   BIT SIZE
BLI .M                                             1406.2:   BOTTOM DEPTH LOGGED
BHIS.                                            RCCCCCCC:   BRIEF HISTORY
FHIS.              RAW-TIGA/COPY/COPY/COPY/COPY/COPY/COPY:   FULL HISTORY
MRT .C                                                 50:   MAX REC TEMP
DFT .                                         CHALK WATER:   MUD TYPE
RMS .                                                1.44:   RM
MST .C                                                 11:   RM TEMP
RMCS.                                                1.93:   RMC
MCST.C                                                 19:   RMC TEMP
RMFS.                                               0.917:   RMF
MFST.C                                                 19:   RMF TEMP
TCS .                                                 N/A:   TIME SINCE CIRCLN
TLI .M                                              403.6:   TOP DEPTH LOGGED
~Curve Information Block
#MNEM.UNIT                                        API CODE    No Description
#=========                                        ========    == ===========
DEPT.M                                       00 001 00 00:     1  DEPTH
DILD.OHMM                                                :     2  DUAL INDUCTION LOG DEEP RESISTIVITY
SN.OHMM                                                  :     3  SHORT NORMAL
~ASCII
# ...
  589.1784     1.0440     1.0920
  589.3308     1.0440     1.0900
  589.4832     1.0440     1.0890
  589.6356     1.0440     1.0880
  589.7880     1.0440     1.0880
  589.9404     1.0400     1.0920
  590.0928     1.0360     1.0960
  590.2452     1.0350     1.0880
  590.3976     1.0280     1.0850
  590.5500     1.0280     1.0950
  590.7024     1.0280     1.1010
  590.8548     1.0260     1.0960
  591.0072     1.0200     1.0800
  591.1596     1.0080     1.0590
  591.3120      .9770     1.0370
  591.4644      .9370     1.0200
  591.6168      .8920     1.0020
  591.7692      .8640      .9850
  591.9216      .8590      .9740
  592.0740      .8620      .9750
  592.2264      .8720      .9950
  592.3788      .8830     1.0200
  592.5312      .8940     1.0440
  592.6836      .9030     1.0540
  592.8360      .9100     1.0530
  592.9884      .9230     1.0500
  593.1408      .9280     1.0470
  593.2932      .9340     1.0460
  593.4456      .9340     1.0390
  593.5980      .9340     1.0210
  593.7504      .9240      .9990
  593.9028      .9100      .9850
  594.0552      .8960      .9820
  594.2076      .8760      .9820
  594.3600      .8650      .9840
  594.5124      .8620      .9840
  594.6648      .8670      .9840
  594.8172      .8700      .9830
  594.9696      .8700      .9820
  595.1220      .8800      .9820
  595.2744      .9090      .9840
  595.4268      .9680      .9990
  595.5792     1.0740     1.0610
  595.7316     1.2030     1.1940
  595.8840     1.2970     1.2940
  596.0364     1.3220     1.3200
  596.1888     1.3220     1.3000
  596.3412     1.3140     1.2670
  596.4936     1.2850     1.2460
  596.6460     1.2090     1.1900
  596.7984     1.0970     1.1180
  596.9508      .9860     1.0630
  597.1032      .9150     1.0180
  597.2556      .8670      .9920
  597.4080      .8340      .9680
  597.5604      .8300      .9580
  597.7128      .8310      .9540
  597.8652      .8370      .9530
  598.0176      .8380      .9530
  598.1700      .8380      .9540
  598.3224      .8320      .9550
  598.4748      .8300      .9560
  598.6272      .8200      .9550
  598.7796      .8040      .9460
  598.9320      .7840      .9320
  599.0844      .7690      .9190
  599.2368      .7660      .9150
  599.3892      .7600      .9180
  599.5416      .7460      .9330
  599.6940      .7440      .9460
  599.8464      .7540      .9470
  599.9988      .7600      .9400
  600.1512      .7660      .9340
  600.3036      .7680      .9270
  600.4560      .7750      .9200
  600.6084      .7760      .9130
  600.7608      .7800      .9350
  600.9132      .7840      .9500
  601.0656      .7890      .9540
  601.2180      .7920      .9660
  601.3704      .7920      .9830
  601.5228      .7930     1.0000
  601.6752      .7980     1.0130
  601.8276      .7980     1.0120
  601.9800      .7980     1.0100
  602.1324      .7980      .9680
  602.2848      .7980      .9620
  602.4372      .8060      .9540
  602.5896      .8060      .9430
  602.7420      .8000      .9340
  602.8944      .7980      .9260
  603.0468      .7920      .9190
  603.1992      .7920      .9140
  603.3516      .7870      .9040
  603.5040      .7840      .8930
  603.6564      .7840      .8840
  603.8088      .7840      .8820
  603.9612      .7830      .8840
  604.1136      .7760      .8840
  604.2660      .7760      .8720
  604.4184      .7750      .8680
  604.5708      .7680      .8700
  604.7232      .7680      .8770
  604.8756      .7680      .8860
  605.0280      .7680      .8910
  605.1804      .7710      .8910
  605.3328      .7760      .8930
  605.4852      .7760      .8950
  605.6376      .7840      .9000
  605.7900      .7890      .9070
  605.9424      .7920      .9140
  606.0948      .7980      .9300
  606.2472      .8070      .9450
  606.3996      .8320      .9540
  606.5520      .8500      .9570
  606.7044      .8700      .9610
  606.8568      .8700      .9620
  607.0092      .8700      .9630
  607.1616      .8700      .9630
  607.3140      .8700      .9630
  607.4664      .8700      .9620
  607.6188      .8700      .9590
  607.7712      .8640      .9520
  607.9236      .8620      .9400
  608.0760      .8550      .9390
  608.2284      .8520      .9440
  608.3808      .8430      .9480
  608.5332      .8350      .9470
  608.6856      .8300      .9350
  608.8380      .8260      .9200
  608.9904      .8220      .9170
  609.1428      .8170      .9180
  609.2952      .8020      .9240
  609.4476      .7750      .9310
  609.6000      .7540      .9340
  609.7524      .7490      .9320
  609.9048      .7420      .9270
  610.0572      .7310      .9210
  610.2096      .7280      .9090
  610.3620      .7280      .8950
  610.5144      .7280      .8850
  610.6668      .7280      .8820
  610.8192      .7280      .8820
  610.9716      .7280      .8860
  611.1240      .7280      .8940
  611.2764      .7280      .8950
  611.4288      .7280      .8900
  611.5812      .7280      .8870
  611.7336      .7280      .8860
  611.8860      .7280      .8850
  612.0384      .7280      .8840
  612.1908      .7280      .8830
  612.3432      .7280      .8830
  612.4956      .7320      .8830
  612.6480      .7360      .8830
  612.8004      .7360      .8840
  612.9528      .7360      .8850
  613.1052      .7400      .8880
  613.2576      .7440      .8890
  613.4100      .7460      .8900
  613.5624      .7500      .8900
  613.7148      .7570      .8910
  613.8672      .7600      .8870
  614.0196      .7600      .8820
  614.1720      .7600      .8780
  614.3244      .7590      .8720
  614.4768      .7520      .8660
  614.6292      .7550      .8680
  614.7816      .7590      .8750
  614.9340      .7600      .8900
  615.0864      .7620      .9050
  615.2388      .7670      .9160
  615.3912      .7680      .9200
  615.5436      .7680      .9180
  615.6960      .7720      .9120
  615.8484      .7770      .8980
  616.0008      .7880      .8800
  616.1532      .7960      .8720
  616.3056      .7980      .8760
  616.4580      .7980      .8870
  616.6104      .7940      .9000
  616.7628      .7890      .9050
  616.9152      .7830      .9030
  617.0676      .7770      .8960
  617.2200      .7760      .8860
  617.3724      .7750      .8780
  617.5248      .7700      .8770
  617.6772      .7680      .8810
  617.8296      .7680      .8900
  617.9820      .7680      .8930
  618.1344      .7680      .8910
  618.2868      .7680      .8910
  618.4392      .7680      .8910
  618.5916      .7640      .8900
  618.7440      .7620      .8870
  618.8964      .7660      .8830
  619.0488      .7590      .8830
  619.2012      .7520      .8830
  619.3536      .7450      .8830
  619.5060      .7400      .8780
  619.6584      .7370      .8640
  619.8108      .7360      .8480
  619.9632      .7320      .8430
  620.1156      .7280      .8440
  620.2680      .7280      .8460
  620.4204      .7280      .8510
  620.5728      .7280      .8520
  620.7252      .7280      .8510
  620.8776      .7280      .8500
  621.0300      .7260      .8500
  621.1824      .7200      .8510
  621.3348      .7190      .8550
  621.4872      .7190      .8570
  621.6396      .7200      .8600
  621.7920      .7200      .8610
  621.9444      .7240      .8650
  622.0968      .7280      .8660
  622.2492      .7280      .8650
  622.4016      .7270      .8640
  622.5540      .7000      .8640
  622.7064      .7040      .8640
  622.8588      .6980      .8620
  623.0112      .6920      .8580
  623.1636      .6880      .8530
  623.3160      .6870      .8480
  623.4684      .6810      .8450
  623.6208      .6760      .8420
  623.7732      .6590      .8420
  623.9256      .6530      .8410
  624.0780      .6480      .8390
  624.2304      .6480      .8390
  624.3828      .6480      .8390
  624.5352      .6480      .8390
  624.6876      .6480      .8400
  624.8400      .6480      .8430
  624.9924      .6520      .8470
  625.1448      .6600      .8530
  625.2972      .6700      .8630
  625.4496      .6720      .8630
  625.6020      .6720      .8590
  625.7544      .6720      .8510
  625.9068      .6760      .8390
  626.0592      .6800      .8370
