~VERSION INFORMATION
VERS.                                                 2.0:   CWLS Log ASCII Standard-VERSION 2.0
WRAP.                                                  NO:   One line per depth step
~Well Information Block
STRT.M                                          2684.0688:   Top Depth
STOP.M                                          2930.9568:   Bottom Depth
STEP.M                                             .15240:   Depth Increment
NULL.                                            -999.250:   Null Value
FLD .                                          EEMSKANAAL:   Field Name
WELL.                                       EEMSKANAAL- 1:   NAME
EDF .m                                               5.58:   ELEV DRILL FLOOR
EPD .                                                   0:   ELEV PERM DATUM
EGL .m                                                -.9:   GROUND LEVEL
LMF .                                                  DF:   LOGS MEAS FROM
COMP.                                                 NAM:   OPERATOR
PDAT.                                                 NAP:   PERM DATUM
SPUD.                                          1970/11/08:   SPUD DATE
UWBI.                                      11000074112201:   UWBI
WELL.                                       EEMSKANAAL- 1:   HOLE NAME
~PARAMETER INFORMATION (log)
LNAM.                                RUN 08 RAW OH 9.625":   NAME
LTYP.                                                 08R:   LOG TYPE
LVSN.                                                   1:   LOG VERSION
BS  .5/8"                                               9:   BIT SIZE
BLI .M                                               2950:   BOTTOM DEPTH LOGGED
BHIS.                                              MCCCCC:   BRIEF HISTORY
FHIS.                           MERGE/COPY/COPY/COPY/COPY:   FULL HISTORY
MRT .                                                    :   MAX REC TEMP
DFT .                                          SALT SPERS:   MUD TYPE
RMS .                                               0.074:   RM
MST .C                                                 26:   RM TEMP
RMCS.                                               0.144:   RMC
MCST.C                                                 17:   RMC TEMP
RMFS.                                               0.059:   RMF
MFST.C                                                 26:   RMF TEMP
TCS .                                                 N/A:   TIME SINCE CIRCLN
TLI .M                                             1406.5:   TOP DEPTH LOGGED
~Curve Information Block
#MNEM.UNIT                                        API CODE    No Description
#=========                                        ========    == ===========
DEPT.M                                       00 001 00 00:     1  DEPTH
LL9D.OHMM                                                :     2  Dual Laterolog 9 deep
LL9S.OHMM                                                :     3  Dual Laterolog 9 shallow
MSFL.OHMM                                                :     4  MICRO SPHERICALLY FOCUSSED LOG
~ASCII
# ...
 2905.9632     7.3540     4.0860     1.8070
 2906.1156     7.3600     3.9660     1.9510
 2906.2680     7.2430     3.8050     1.9650
 2906.4204     7.3460     3.8030     1.7490
 2906.5728     7.6000     3.8930     1.9570
 2906.7252     7.9930     4.1310     1.9060
 2906.8776     8.4740     4.4540     1.4870
 2907.0300     8.7130     4.6190     1.5170
 2907.1824     8.6060     4.5580     1.8480
 2907.3348     8.5610     4.5450     1.2540
 2907.4872     8.6210     4.6600     1.4590
 2907.6396     9.0100     4.9240     1.2980
 2907.7920    10.3610     5.7770      .9410
 2907.9444    11.5160     6.3790     1.5360
 2908.0968    11.7190     6.4540     2.2420
 2908.2492    11.6690     6.4300     8.0490
 2908.4016    11.1140     5.4200     7.7360
 2908.5540     9.8250     5.2380     2.8230
 2908.7064     9.8290     5.6340     3.1260
 2908.8588     9.5570     5.6640     7.0240
 2909.0112     8.9320     5.4720     3.1390
 2909.1636     7.8980     4.7930     3.8650
 2909.3160     7.0100     4.2600     3.3240
 2909.4684     6.5730     4.1340     2.8250
 2909.6208     6.4200     4.0950     1.4750
 2909.7732     6.8080     4.1140     3.0500
 2909.9256     6.9920     4.3660     3.2030
 2910.0780     6.7660     4.0950     2.7860
 2910.2304     6.7860     3.9380     2.2030
 2910.3828     6.8730     3.8990     1.8570
 2910.5352     7.0320     3.8850     1.6400
 2910.6876     7.3750     3.9230     1.4050
 2910.8400     8.0470     4.2410     1.5410
 2910.9924     8.9340     4.5330     1.9020
 2911.1448    10.0360     4.9270     1.6860
 2911.2972    11.1550     5.3450     1.5380
 2911.4496    12.0790     5.7440     2.6520
 2911.6020    12.6970     6.0100     2.3150
 2911.7544    13.1740     6.2390     2.8600
 2911.9068    13.3770     6.4860     2.7420
 2912.0592    13.4200     6.5960     2.8130
 2912.2116    13.0740     6.4190     2.9030
 2912.3640    12.5400     6.1450     2.8730
 2912.5164    12.2790     6.0620     3.1020
 2912.6688    12.5370     6.0740     3.0370
 2912.8212    13.0760     6.2660     2.5370
 2912.9736    13.9840     6.8770     2.7020
 2913.1260    15.8490     7.7730     4.1190
 2913.2784    16.8440     7.9490     5.0150
 2913.4308    16.9630     7.8740     3.4640
 2913.5832    18.0060     8.0790     3.4870
 2913.7356    22.0920     9.3470     3.5760
 2913.8880    24.8820     9.5200     3.2670
 2914.0404    25.3360     9.4240     3.1780
 2914.1928    24.3270     9.0900     4.2990
 2914.3452    23.6580     8.8770     4.1690
 2914.4976    23.6050     8.7960     3.3900
 2914.6500    23.8360     9.0590     2.3280
 2914.8024    25.0060     9.7370     2.2690
 2914.9548    24.6810    10.2620     2.6780
 2915.1072    21.5360    10.1340     2.6670
 2915.2596    21.5600    10.2460     2.5640
 2915.4120    24.2820    11.1250     2.4600
 2915.5644    28.6400    12.3550     2.2030
 2915.7168    30.2070    12.4820     2.2790
 2915.8692    26.4110    11.7930     2.9670
 2916.0216    19.1770    10.2120     2.9920
 2916.1740    10.4060     7.0160     1.9200
 2916.3264     8.8660     6.3910     1.3700
 2916.4788     9.6950     7.0520      .9850
 2916.6312    12.7970     8.5320      .9520
 2916.7836    18.9710    10.6730      .9150
 2916.9360    21.2980    15.2610     2.6670
 2917.0884    21.6530    15.9810     5.9870
 2917.2408    16.5560    13.6580     7.1640
 2917.3932    14.7900    11.0510     9.0540
 2917.5456    15.0760    11.2250    10.5400
 2917.6980    15.6880    11.6530     9.3140
 2917.8504    15.9600    11.9080     6.6470
 2918.0028    16.0660    11.9870     6.8800
 2918.1552    15.2190    11.3660    11.3560
 2918.3076    13.1230     8.7640     5.0670
 2918.4600    10.3140     8.2520     4.0300
 2918.6124    10.4100     8.5790     3.6060
 2918.7648    14.5680    10.9750     3.5690
 2918.9172    19.5510    13.7840     4.3210
 2919.0696    24.4670    19.0460    12.3430
 2919.2220    24.7110    19.6840    16.9850
 2919.3744    21.9170    18.3320    16.4700
 2919.5268    20.8770    17.4600    15.2070
 2919.6792    21.4580    16.7410    16.0500
 2919.8316    19.3500    16.1240    12.7950
 2919.9840    18.6720    15.7790    17.6360
 2920.1364    18.4830    15.7370    15.8650
 2920.2888    18.7070    16.1610     9.1980
 2920.4412    22.6970    18.6120    14.9590
 2920.5936    33.7080    27.5550    15.7520
 2920.7460    37.5750    27.6380    14.9540
 2920.8984    35.3110    24.4870    17.1680
 2921.0508    24.2740    17.7230    20.2990
 2921.2032    14.5120    10.8200    18.3900
 2921.3556    11.7970     9.1800     8.5440
 2921.5080    10.5910     8.5380     5.9250
 2921.6604     9.9010     8.2080     4.2350
 2921.8128     9.6430     7.9600     3.3900
 2921.9652     9.6840     7.9380     3.4000
 2922.1176     9.9320     7.9970     3.5950
 2922.2700    10.3370     8.0210     3.8040
 2922.4224    10.4830     7.9760     3.7470
 2922.5748    10.5060     7.9370     3.0190
 2922.7272    10.6230     8.0210     3.1620
 2922.8796    11.7290     8.8260     3.3590
 2923.0320    12.7300     9.6590     3.1700
 2923.1844    12.6900     9.7670     3.5650
 2923.3368    11.8170     9.3580     3.7320
 2923.4892     9.8260     8.3670     6.1240
 2923.6416     7.2110     6.4480     9.3370
 2923.7940     5.5040     4.5080     9.3390
 2923.9464     4.9160     4.3070     6.6670
 2924.0988     5.1000     4.4710     3.0270
 2924.2512     6.3720     5.5460     2.0830
 2924.4036     8.2550     7.0320     1.9870
 2924.5560     9.5590     7.9520     8.7760
 2924.7084    10.6780     8.8660     5.9680
 2924.8608    10.9970     9.2110     6.2400
 2925.0132    10.2240     8.1320     7.3250
 2925.1656     8.0170     7.1660     9.7130
 2925.3180     7.7080     6.6330     6.9420
 2925.4704     7.5300     6.6230     5.8320
 2925.6228     7.4170     6.6100     5.7900
 2925.7752     7.3340     6.6010     5.9160
 2925.9276     7.2750     6.5090     6.4810
 2926.0800     7.1620     6.3350     7.0780
 2926.2324     6.8400     6.0720     7.0520
 2926.3848     6.6310     5.8670     7.4850
 2926.5372     6.6600     5.8250     7.2450
 2926.6896     6.8290     6.0970     6.7910
 2926.8420     6.8450     6.2930     6.6090
 2926.9944     6.7390     6.3020     6.6790
 2927.1468     6.5150     6.0850     7.6620
 2927.2992     6.3780     5.7910     7.5230
 2927.4516     6.3000     5.6800     7.1080
 2927.6040     6.2250     5.6040     6.9990
 2927.7564     6.1670     5.5610     7.3960
 2927.9088     6.1410     5.5500     8.3020
 2928.0612     6.1480     5.5700     6.8210
 2928.2136     6.1710     5.7190     7.0340
 2928.3660     6.3120     6.0380     7.6360
 2928.5184     6.7190     6.4050     7.9200
 2928.6708     6.7410     6.3610     7.9410
 2928.8232     6.3620     5.4310     7.9340
 2928.9756     5.9480     5.1390     8.2980
 2929.1280     5.6720     5.0940     8.7520
 2929.2804     5.6250     5.0810     7.1010
 2929.4328     5.6070     5.0800     8.3290
 2929.5852     5.5790     5.0840     9.0960
 2929.7376     5.5380     5.0890     8.2120
 2929.8900     5.5100     5.0850     6.3210
 2930.0424     5.3850     5.0800     6.6790
 2930.1948     5.0550     5.0530     7.0920
 2930.3472     4.5610     4.7610     5.1810
 2930.4996     4.2760     4.1610     5.2310
 2930.6520     4.9350     4.2890     3.7890
 2930.8044     8.2890     5.8670     3.5270
 2930.9568     8.8800     8.9930      .7220
