~VERSION INFORMATION
VERS.                                                 2.0:   CWLS Log ASCII Standard-VERSION 2.0
WRAP.                                                  NO:   One line per depth step
~Well Information Block
STRT.M                                          1407.1092:   Top Depth
STOP.M                                          3062.9352:   Bottom Depth
STEP.M                                             .15240:   Depth Increment
NULL.                                            -999.250:   Null Value
FLD .                                          EEMSKANAAL:   Field Name
WELL.                                       EEMSKANAAL- 1:   NAME
EDF .m                                               5.58:   ELEV DRILL FLOOR
EPD .                                                   0:   ELEV PERM DATUM
EGL .m                                                -.9:   GROUND LEVEL
LMF .                                                  DF:   LOGS MEAS FROM
COMP.                                                 NAM:   OPERATOR
PDAT.                                                 NAP:   PERM DATUM
SPUD.                                          1970/11/08:   SPUD DATE
UWBI.                                      11000074112201:   UWBI
WELL.                                       EEMSKANAAL- 1:   HOLE NAME
~PARAMETER INFORMATION (log)
LNAM.                                RUN 03 RAW OH 9.625":   NAME
LTYP.                                                 03R:   LOG TYPE
LVSN.                                                   1:   LOG VERSION
BS  .5/8"                                               9:   BIT SIZE
BLI .M                                               3064:   BOTTOM DEPTH LOGGED
BHIS.                                            RCCCCCCC:   BRIEF HISTORY
FHIS.              RAW-TIGA/COPY/COPY/COPY/COPY/COPY/COPY:   FULL HISTORY
MRT .C                                                 98:   MAX REC TEMP
DFT .                                          SALT SPERS:   MUD TYPE
RMS .                                                    :   RM
MST .                                                    :   RM TEMP
RMCS.                                                    :   RMC
MCST.                                                    :   RMC TEMP
RMFS.                                                    :   RMF
MFST.                                                    :   RMF TEMP
TCS .                                               4 HRS:   TIME SINCE CIRCLN
TLI .M                                               1407:   TOP DEPTH LOGGED
~Curve Information Block
#MNEM.UNIT                                        API CODE    No Description
#=========                                        ========    == ===========
DEPT.M                                       00 001 00 00:     1  DEPTH
CALF.IN                                                  :     2  CALIPER FROM FORMATION DENSITY LOG
FDC.g/c3                                                 :     3  Formation Density Log (Compensated Open
GR.GAPI                                                  :     4  Gamma Ray
~ASCII
# ...
 2183.7396    10.8800     2.0770    10.6480
 2183.8920    10.7730     2.0730     9.8190
 2184.0444    10.8240     2.0740     8.9070
 2184.1968    10.9830     2.0690     8.7050
 2184.3492    10.9040     2.0820     8.6190
 2184.5016    10.6550     2.0800     8.2890
 2184.6540    10.6450     2.0830     7.6930
 2184.8064    10.8310     2.0860     7.1880
 2184.9588    10.9880     2.0770     6.9760
 2185.1112    10.6840     2.0670     6.3430
 2185.2636    10.7030     2.0710     5.4380
 2185.4160    10.7680     2.0710     5.3470
 2185.5684    10.9240     2.0590     5.3030
 2185.7208    11.0730     2.0540     4.8770
 2185.8732    10.9230     2.0500     4.3640
 2186.0256    10.7170     2.0610     4.3200
 2186.1780    10.8770     2.0710     4.4490
 2186.3304    11.1050     2.0820     4.7890
 2186.4828    10.9020     2.0890     5.0720
 2186.6352    10.9250     2.0960     5.3470
 2186.7876    11.1670     2.1060     5.5070
 2186.9400    11.3280     2.1090     5.6160
 2187.0924    10.9830     2.0940     5.6530
 2187.2448    10.9650     2.0790     5.6130
 2187.3972    11.1950     2.0670     5.4930
 2187.5496    10.9590     2.0680     5.1020
 2187.7020    10.9170     2.0590     4.4140
 2187.8544    10.8630     2.0560     5.5770
 2188.0068    11.0020     2.0530     6.3230
 2188.1592    11.1980     2.0600     7.1770
 2188.3116    11.1330     2.0640     7.7350
 2188.4640    10.8830     2.0650     7.1860
 2188.6164    10.9860     2.0720     6.5130
 2188.7688    11.1110     2.0790     6.0550
 2188.9212    10.9940     2.0780     5.7520
 2189.0736    11.0360     2.0820     6.4570
 2189.2260    10.8770     2.0840     6.6780
 2189.3784    10.9010     2.0790     6.6100
 2189.5308    11.0130     2.0810     6.6420
 2189.6832    11.1300     2.0770     7.1470
 2189.8356    11.0530     2.0730     8.4230
 2189.9880    10.9410     2.0660     9.4130
 2190.1404    10.9740     2.0650     9.7560
 2190.2928    10.8750     2.0730     9.8240
 2190.4452    10.9260     2.0740     9.7800
 2190.5976    10.9880     2.0660     9.7210
 2190.7500    10.8420     2.0670     9.6600
 2190.9024    10.7910     2.0650     9.7840
 2191.0548    10.9060     2.0630     9.9760
 2191.2072    10.9880     2.0610     8.5540
 2191.3596    11.0650     2.0570     5.8020
 2191.5120    11.1110     2.0620     5.1120
 2191.6644    10.8550     2.0600     4.8640
 2191.8168    10.9990     2.0660     4.9670
 2191.9692    11.2990     2.0700     5.9400
 2192.1216    10.8940     2.0690     5.9650
 2192.2740    10.9900     2.0750     6.0440
 2192.4264    11.0680     2.0760     6.1360
 2192.5788    10.9600     2.0700     6.2270
 2192.7312    10.9450     2.0690     6.0520
 2192.8836    10.8570     2.0720     5.9500
 2193.0360    10.7810     2.0720     6.0610
 2193.1884    10.6800     2.0840     6.3410
 2193.3408    10.7300     2.1010     6.4200
 2193.4932    10.7370     2.1060     6.3080
 2193.6456    11.0610     2.1120     6.1090
 2193.7980    11.2440     2.1010     5.6910
 2193.9504    11.0300     2.0800     6.1800
 2194.1028    11.2290     2.0860     6.1760
 2194.2552    11.2450     2.0870     5.8460
 2194.4076    10.8970     2.0720     5.4530
 2194.5600    10.9550     2.0790     5.3160
 2194.7124    10.9570     2.0820     5.2820
 2194.8648    10.9990     2.0830     5.3240
 2195.0172    11.0800     2.0810     5.2200
 2195.1696    10.7790     2.0720     5.2620
 2195.3220    11.0070     2.0780     5.3890
 2195.4744    10.8580     2.0800     5.8660
 2195.6268    10.7630     2.0740     5.4840
 2195.7792    10.9660     2.0690     5.1950
 2195.9316    10.7630     2.0620     5.5410
 2196.0840    10.9270     2.0610     6.0800
 2196.2364    10.8540     2.0630     6.3570
 2196.3888    10.8080     2.0730     6.0600
 2196.5412    11.0270     2.0810     5.3910
 2196.6936    10.7940     2.0780     4.8750
 2196.8460    10.8950     2.0730     4.7870
 2196.9984    11.0360     2.0720     5.5240
 2197.1508    10.8700     2.0780     6.8920
 2197.3032    10.8970     2.0790     6.7590
 2197.4556    10.7450     2.0620     6.0430
 2197.6080    10.7540     2.0540     6.2330
 2197.7604    10.8380     2.0600     6.9110
 2197.9128    10.9250     2.0580     7.2230
 2198.0652    11.0490     2.0530     6.6430
 2198.2176    11.0900     2.0570     5.9910
 2198.3700    10.6560     2.0580     5.9640
 2198.5224    10.8020     2.0630     6.0730
 2198.6748    11.0560     2.0720     6.2100
 2198.8272    10.8160     2.0840     6.2400
 2198.9796    10.8910     2.0870     6.2400
 2199.1320    10.8840     2.0790     6.2210
 2199.2844    10.9160     2.0810     6.0660
 2199.4368    10.8830     2.0760     5.6900
 2199.5892    10.9720     2.0640     5.0670
 2199.7416    10.8730     2.0780     4.9540
 2199.8940    10.9800     2.0890     5.2970
 2200.0464    11.0520     2.0920     5.7730
 2200.1988    10.7150     2.0840     6.2970
 2200.3512    10.8510     2.0810     6.4390
 2200.5036    10.6290     2.0860     5.7850
 2200.6560    10.7880     2.0850     5.7410
 2200.8084    10.8970     2.0820     5.9950
 2200.9608    10.7040     2.0780     5.8760
 2201.1132    10.9730     2.0760     5.6920
 2201.2656    10.7370     2.0700     5.5710
 2201.4180    10.8990     2.0630     4.9950
 2201.5704    10.8940     2.0640     5.0290
 2201.7228    10.8370     2.0740     5.4000
 2201.8752    10.9390     2.0740     5.4000
 2202.0276    11.0180     2.0870     5.2670
 2202.1800    10.9870     2.1050     4.9710
 2202.3324    10.9230     2.0980     4.9200
 2202.4848    10.8990     2.0960     5.0520
 2202.6372    11.0560     2.0810     5.3400
 2202.7896    10.8440     2.0830     5.2860
 2202.9420    10.9110     2.0740     4.9610
 2203.0944    10.9250     2.0680     4.5860
 2203.2468    10.8610     2.0610     4.3800
 2203.3992    10.6550     2.0580     4.4400
 2203.5516    10.9070     2.0550     4.5470
 2203.7040    11.1870     2.0660     4.7480
 2203.8564    10.9220     2.0730     5.0350
 2204.0088    11.1020     2.0640     5.0200
 2204.1612    11.2700     2.0730     4.7690
 2204.3136    11.0640     2.0810     4.8080
 2204.4660    10.7840     2.0920     4.9000
 2204.6184    10.8970     2.1030     4.9910
 2204.7708    10.9040     2.0900     5.1360
 2204.9232    11.0870     2.0710     5.1610
 2205.0756    10.9500     2.0730     4.7040
 2205.2280    11.1060     2.0730     4.8770
 2205.3804    11.0920     2.0540     4.9440
 2205.5328    10.9490     2.0640     4.7620
 2205.6852    10.9250     2.1000     4.2790
 2205.8376    10.9470     2.1090     4.3470
 2205.9900    10.8110     2.0980     4.7790
 2206.1424    10.7300     2.0920     4.9770
 2206.2948    10.7640     2.0960     5.2540
 2206.4472    10.8430     2.1090     5.4940
 2206.5996    10.7460     2.1070     5.8040
 2206.7520    10.8560     2.0950     5.9620
 2206.9044    10.8280     2.0870     5.8860
 2207.0568    10.8300     2.0970     5.4890
 2207.2092    10.8610     2.1000     5.0850
 2207.3616    10.9840     2.0920     6.0620
 2207.5140    10.8800     2.0910     6.2090
 2207.6664    10.8750     2.0930     5.7450
 2207.8188    10.8900     2.0790     5.6750
 2207.9712    10.8050     2.0710     5.8450
 2208.1236    10.7830     2.0550     6.3540
 2208.2760    10.7070     2.0560     6.5260
 2208.4284    10.8820     2.0510     6.5400
 2208.5808    11.0250     2.0440     6.5280
 2208.7332    10.9090     2.0450     6.2800
 2208.8856    10.7070     2.0550     6.0690
 2209.0380    10.7260     2.0570     6.1280
 2209.1904    10.9080     2.0620     6.4160
 2209.3428    10.8190     2.0610     6.4780
 2209.4952    10.7600     2.0600     4.9010
 2209.6476    10.8740     2.0600     4.5330
 2209.8000    10.8410     2.0620     4.4700
 2209.9524    10.7510     2.0730     4.5300
 2210.1048    10.6410     2.0870     4.5300
 2210.2572    10.7760     2.0950     4.5300
 2210.4096    10.9800     2.0790     4.6090
 2210.5620    11.1460     2.0680     4.9520
 2210.7144    11.0460     2.0710     5.3250
 2210.8668    10.9520     2.0800     5.8450
 2211.0192    10.7800     2.0800     5.8980
 2211.1716    10.8970     2.0790     4.5780
 2211.3240    10.7420     2.0790     3.3700
