~VERSION INFORMATION
VERS.                                                 2.0:   CWLS Log ASCII Standard-VERSION 2.0
WRAP.                                                  NO:   One line per depth step
~Well Information Block
STRT.M                                          2769.1080:   Top Depth
STOP.M                                          2949.8544:   Bottom Depth
STEP.M                                             .15240:   Depth Increment
NULL.                                            -999.250:   Null Value
FLD .                                          EEMSKANAAL:   Field Name
WELL.                                       EEMSKANAAL- 2:   NAME
APD .M                                               5.62:   ABOVE PERM DATUM
CTRY.                                                  NE:   COUNTRY
EDF .m                                               5.62:   ELEV DRILL FLOOR
EPD .                                                   0:   ELEV PERM DATUM
EGL .m                                              -1.06:   GROUND LEVEL
LMF .                                                  DF:   LOGS MEAS FROM
COMP.                                                 NAM:   OPERATOR
PDAT.                                                 NAP:   PERM DATUM
SPUD.                                          1971/03/17:   SPUD DATE
STAT.                                           Unknown m:   STATE
UWBI.                                      11000074112601:   UWBI
WELL.                                       EEMSKANAAL- 2:   HOLE NAME
~PARAMETER INFORMATION (log)
LNAM.                                RUN 02 RAW OH 6 1/4":   NAME
LTYP.                                                 02R:   LOG TYPE
LVSN.                                                   1:   LOG VERSION
BS  .1/4"                                               6:   BIT SIZE
BLI .M                                             2942.0:   BOTTOM DEPTH LOGGED
BHIS.                                             RCCCCCC:   BRIEF HISTORY
FHIS.                   RAW-TIGA/COPY/COPY/COPY/COPY/COPY:   FULL HISTORY
MRT .DEGC                                              84:   MAX REC TEMP
DFD .G/CC                                            1.36:   MUD DENSITY
DFT .                                     SALT SAT UNICAL:   MUD TYPE
RMS .OHMM                                           0.031:   RM
MST .DEGC                                              12:   RM TEMP
RMCS.OHMM                                           0.136:   RMC
MCST. DEGC                                             12:   RMC TEMP
RMFS.OHMM                                           0.053:   RMF
MFST.DEGC                                              19:   RMF TEMP
TCS .                                                 N/A:   TIME SINCE CIRCLN
TLI .M                                             2772.0:   TOP DEPTH LOGGED
~Curve Information Block
#MNEM.UNIT                                        API CODE    No Description
#=========                                        ========    == ===========
DEPT.M                                       00 001 00 00:     1  DEPTH
CALF.IN                                                  :     2  CALIPER FROM FORMATION DENSITY LOG
FDC.G/C3                                                 :     3  Formation Density Log (Compensated Open
GR.API                                                   :     4  Gamma Ray
~ASCII
# ...
 2935.5288     6.4050     2.6610    99.8500
 2935.6812     6.3700     2.6540    94.8820
 2935.8336     6.3820     2.6810    89.6360
 2935.9860     6.4130     2.6690    75.3230
 2936.1384     6.4540     2.6560    69.3100
 2936.2908     6.4870     2.6380    71.5140
 2936.4432     6.4380     2.6610    76.0460
 2936.5956     6.3630     2.6560    78.8800
 2936.7480     6.3760     2.6390    81.5670
 2936.9004     6.4520     2.6220    83.3790
 2937.0528     6.4850     2.6220    87.2310
 2937.2052     6.4280     2.6350    96.3560
 2937.3576     6.4020     2.6310   100.6930
 2937.5100     6.3710     2.6450   100.2480
 2937.6624     6.3620     2.6320    96.7350
 2937.8148     6.3730     2.6110    97.1040
 2937.9672     6.3760     2.6120    94.8580
 2938.1196     6.3740     2.6100    87.4510
 2938.2720     6.3700     2.6240    84.6800
 2938.4244     6.3680     2.6460    81.9560
 2938.5768     6.3710     2.6590    79.5600
 2938.7292     6.3770     2.6740    79.9120
 2938.8816     6.3830     2.6580    82.1580
 2939.0340     6.3570     2.6650    82.3250
 2939.1864     6.3190     2.6450    81.6050
 2939.3388     6.2870     2.6070    79.4490
 2939.4912     6.2650     2.6300    77.9760
 2939.6436     6.2500     2.6750    79.4280
 2939.7960     6.2240     2.7100    84.0310
 2939.9484     6.1750     2.7170    82.7170
 2940.1008     6.1860     2.6480    75.8860
 2940.2532     6.2250     2.6300    71.6170
 2940.4056     6.2000     2.6130    73.2400
 2940.5580     6.2270     2.6120    75.1300
 2940.7104     6.2980     2.6180    77.4860
 2940.8628     6.3460     2.6060    83.2580
 2941.0152     6.4300     2.6210    86.8590
 2941.1676     6.3960     2.6600    87.1710
 2941.3200     6.3300     2.6910    88.3500
 2941.4724     6.3190     2.6930    83.8190
 2941.6248     6.3300     2.6980    78.0050
 2941.7772     6.3740     2.7000    74.8710
 2941.9296     6.4550     2.6840    73.3200
 2942.0820     6.5020     2.6800    75.1260
 2942.2344     6.4170     2.6930    79.3150
 2942.3868     6.3630     2.6810    79.1270
 2942.5392     6.3570     2.6620    79.1760
 2942.6916     6.3490     2.6690    77.2130
 2942.8440     6.3150     2.6580    75.6160
 2942.9964     6.3080     2.6730    75.6820
 2943.1488     6.3550     2.7020    77.6990
 2943.3012     6.4500     2.7060    77.1960
 2943.4536     6.4790     2.7140    75.8990
 2943.6060     6.4790     2.7180    74.9010
 2943.7584     6.4790     2.7170    77.0700
 2943.9108     6.4790     2.7150    77.8470
 2944.0632     6.4790     2.7070    75.1630
 2944.2156     6.4750     2.7080    71.2410
 2944.3680     6.4740     2.6880    70.8230
 2944.5204     6.4700     2.6780    72.0460
 2944.6728     6.4640     2.6950    71.6290
 2944.8252     6.4650     2.7090    71.1300
 2944.9776     6.4670     2.6990    69.3380
 2945.1300     6.4650     2.7110    74.4300
 2945.2824     6.4670     2.7120    75.7640
 2945.4348     6.4660     2.7270    74.9510
 2945.5872     6.4630     2.7160    73.4320
 2945.7396     6.4610     2.6880    74.3150
 2945.8920     6.4550     2.6800    71.0290
 2946.0444     6.4490     2.6800    71.5850
 2946.1968     6.4400     2.6760    72.0380
 2946.3492     6.4190     2.6920    76.0100
 2946.5016     6.4000     2.6800    74.8810
 2946.6540     6.3670     2.6560    76.6580
 2946.8064     6.4210     2.6350    79.8900
 2946.9588     6.4590     2.6230    76.4270
 2947.1112     6.4630     2.6430    74.8210
 2947.2636     6.4630     2.6530    73.7860
 2947.4160     6.4630     2.6260    72.1880
 2947.5684     6.3260     2.6300    69.3160
 2947.7208     5.4960     2.6410    72.1930
 2947.8732     5.4480     2.6700    76.2040
 2948.0256     5.4500     2.6460    75.3240
 2948.1780     5.4500     2.6450    71.8850
 2948.3304     5.4460     2.6450    69.2530
 2948.4828     5.4430     2.6660    68.9980
 2948.6352     5.4330     2.6390    71.0500
 2948.7876     5.4260     2.6400    76.4890
 2948.9400     5.4150     2.6430    79.3260
 2949.0924     5.4160     2.6780    76.1750
 2949.2448     5.4470     2.6680    75.6450
 2949.3972     5.4420     2.6400    74.6750
 2949.5496     5.4360     2.6420    73.6730
 2949.7020     5.3970     2.6680    74.9170
 2949.8544     5.3710     2.6850    74.9830
