~VERSION INFORMATION
VERS.                                                 2.0:   CWLS Log ASCII Standard-VERSION 2.0
WRAP.                                                  NO:   One line per depth step
~Well Information Block
STRT.M                                          2687.1168:   Top Depth
STOP.M                                          3063.8496:   Bottom Depth
STEP.M                                             .15240:   Depth Increment
NULL.                                            -999.250:   Null Value
FLD .                                          EEMSKANAAL:   Field Name
WELL.                                       EEMSKANAAL- 1:   NAME
EDF .m                                               5.58:   ELEV DRILL FLOOR
EPD .                                                   0:   ELEV PERM DATUM
EGL .m                                                -.9:   GROUND LEVEL
LMF .                                                  DF:   LOGS MEAS FROM
COMP.                                                 NAM:   OPERATOR
PDAT.                                                 NAP:   PERM DATUM
SPUD.                                          1970/11/08:   SPUD DATE
UWBI.                                      11000074112201:   UWBI
WELL.                                       EEMSKANAAL- 1:   HOLE NAME
~PARAMETER INFORMATION (log)
LNAM.                                RUN 05 RAW OH 9.625":   NAME
LTYP.                                                 05R:   LOG TYPE
LVSN.                                                   1:   LOG VERSION
BS  .5/8"                                               9:   BIT SIZE
BLI .M                                               3063:   BOTTOM DEPTH LOGGED
BHIS.                                            RCCCCCCC:   BRIEF HISTORY
FHIS.              RAW-TIGA/COPY/COPY/COPY/COPY/COPY/COPY:   FULL HISTORY
MRT .C                                                 89:   MAX REC TEMP
DFT .                                          SALT SPERS:   MUD TYPE
RMS .                                               0.074:   RM
MST .C                                                 26:   RM TEMP
RMCS.                                               0.144:   RMC
MCST.C                                                 17:   RMC TEMP
RMFS.                                               0.059:   RMF
MFST.C                                                 26:   RMF TEMP
TCS .                                               5 HRS:   TIME SINCE CIRCLN
TLI .M                                               2690:   TOP DEPTH LOGGED
~Curve Information Block
#MNEM.UNIT                                        API CODE    No Description
#=========                                        ========    == ===========
DEPT.M                                       00 001 00 00:     1  DEPTH
LL7.OHMM                                                 :     2  LATEROLOG 7
SP.MV                                                    :     3  Spontaneous potential
~ASCII
# ...
 2761.1832     3.6770   -76.4020
 2761.3356     4.0080   -76.3830
 2761.4880     4.4530   -76.3610
 2761.6404     5.1750   -76.3460
 2761.7928     5.6440   -76.3310
 2761.9452     5.6410   -76.3060
 2762.0976     5.5260   -76.2900
 2762.2500     5.5160   -76.2750
 2762.4024     5.8710   -76.2500
 2762.5548     6.6910   -76.2350
 2762.7072     7.8230   -76.2190
 2762.8596     9.0570   -76.2040
 2763.0120     9.9940   -76.1790
 2763.1644     9.8830   -76.1640
 2763.3168     9.0090   -76.1480
 2763.4692     7.6490   -76.1260
 2763.6216     7.1060   -76.1080
 2763.7740     6.4980   -76.0930
 2763.9264     6.0510   -76.0750
 2764.0788     5.8760   -76.0520
 2764.2312     5.5590   -76.0370
 2764.3836     5.4000   -76.0220
 2764.5360     6.5650   -76.0360
 2764.6884     6.6660   -76.1890
 2764.8408     6.4710   -76.3410
 2764.9932     6.1940   -76.4930
 2765.1456     6.0160   -76.4710
 2765.2980     6.0010   -76.4410
 2765.4504     6.0570   -76.4100
 2765.6028     6.2240   -76.3800
 2765.7552     6.3920   -76.3490
 2765.9076     6.5190   -76.3190
 2766.0600     6.5110   -76.2880
 2766.2124     6.3100   -76.2580
 2766.3648     5.8060   -76.2270
 2766.5172     5.4570   -76.1970
 2766.6696     5.9630   -76.1660
 2766.8220     6.7190   -76.1360
 2766.9744     7.3050   -76.1050
 2767.1268     7.1360   -76.0750
 2767.2792     6.3980   -76.0440
 2767.4316     6.3840   -76.0140
 2767.5840     6.5250   -75.9830
 2767.7364     6.5240   -75.9530
 2767.8888     6.4050   -75.9220
 2768.0412     6.2900   -75.8920
 2768.1936     6.2390   -75.8610
 2768.3460     6.2430   -75.8310
 2768.4984     6.3580   -75.8000
 2768.6508     7.1450   -75.7700
 2768.8032     8.5210   -75.7400
 2768.9556    10.7020   -75.7090
 2769.1080    13.0860   -75.6790
 2769.2604    13.2740   -75.6480
 2769.4128    11.5160   -75.6180
 2769.5652     9.3380   -75.5870
 2769.7176     7.1720   -75.5570
 2769.8700     5.8720   -75.5260
 2770.0224     5.5950   -75.4980
 2770.1748     5.7340   -75.4750
 2770.3272     6.0340   -75.4450
 2770.4796     6.3510   -75.4220
 2770.6320     6.6780   -75.3940
 2770.7844     6.9470   -75.3630
 2770.9368     7.0860   -75.3360
 2771.0892     7.1030   -75.3120
 2771.2416     7.0840   -75.2820
 2771.3940     7.0640   -75.2510
 2771.5464     7.0700   -75.2310
 2771.6988     7.0700   -75.2000
 2771.8512     6.9660   -75.1750
 2772.0036     6.6700   -75.1490
 2772.1560     6.0230   -75.1190
 2772.3084     5.8460   -75.0890
 2772.4608     5.8760   -75.0680
 2772.6132     6.1960   -75.0370
 2772.7656     6.5380   -75.0070
 2772.9180     6.8330   -75.2950
 2773.0704     7.1340   -75.4790
 2773.2228     7.3070   -75.4230
 2773.3752     7.4000   -75.3700
 2773.5276     7.4960   -75.3190
 2773.6800     7.5510   -75.2580
 2773.8324     7.7160   -75.2070
 2773.9848     7.7900   -75.1550
 2774.1372     7.6880   -75.0990
 2774.2896     7.3100   -75.0440
 2774.4420     7.0250   -74.7650
 2774.5944     6.7010   -73.9120
 2774.7468     6.5350   -73.0580
 2774.8992     6.4130   -72.2050
 2775.0516     6.3420   -70.4760
 2775.2040     6.3840   -69.5490
 2775.3564     6.8880   -69.1780
 2775.5088     7.4990   -68.7860
 2775.6612     7.3760   -68.2280
 2775.8136     6.7230   -68.0290
 2775.9660     5.8220   -67.3730
 2776.1184     5.1390   -67.0600
 2776.2708     4.6520   -67.0390
 2776.4232     4.4740   -67.0200
 2776.5756     4.5180   -67.0200
 2776.7280     4.6630   -67.0120
 2776.8804     4.8460   -66.9820
 2777.0328     4.9990   -67.2680
 2777.1852     5.1950   -67.9400
 2777.3376     5.4670   -67.9250
 2777.4900     5.8520   -67.8280
 2777.6424     6.3090   -67.7900
 2777.7948     6.7910   -67.7900
 2777.9472     6.7300   -67.7710
 2778.0996     6.5800   -67.7500
 2778.2520     6.0530   -67.7500
 2778.4044     5.7200   -67.7500
 2778.5568     5.5600   -67.7160
 2778.7092     5.7220   -67.6230
 2778.8616     6.0100   -67.5250
 2779.0140     6.3130   -67.4660
 2779.1664     6.6310   -67.4340
 2779.3188     8.0340   -67.4250
 2779.4712     9.9950   -67.3930
 2779.6236    10.5260   -67.3900
 2779.7760    10.6160   -67.3670
 2779.9284    10.4140   -67.3390
 2780.0808     9.8990   -67.2780
 2780.2332     8.8300   -67.2700
 2780.3856     7.7360   -67.2700
 2780.5380     7.5950   -67.2430
 2780.6904     7.9580   -67.1190
 2780.8428     8.9370   -66.9930
 2780.9952    10.1670   -66.9510
 2781.1476    11.4300   -66.9120
 2781.3000    12.3430   -66.8100
 2781.4524    15.4170   -66.7150
 2781.6048    15.9760   -66.7110
 2781.7572    14.8610   -66.7420
 2781.9096    13.3230   -66.9370
 2782.0620    10.9250   -67.7400
 2782.2144     8.8360   -68.3930
 2782.3668     8.0960   -68.7370
 2782.5192     7.6170   -68.9000
 2782.6716     6.9040   -68.8710
 2782.8240     6.4850   -68.8200
 2782.9764     6.5130   -68.8200
 2783.1288     6.6500   -68.9550
 2783.2812     6.7280   -69.4080
 2783.4336     6.7560   -70.0480
 2783.5860     6.8800   -70.7380
 2783.7384     7.1290   -71.3690
 2783.8908     7.4330   -71.7240
 2784.0432     7.6250   -71.9380
 2784.1956     7.4750   -72.0380
 2784.3480     7.4890   -72.0610
 2784.5004     7.5410   -71.9800
 2784.6528     7.6550   -71.8330
 2784.8052     7.7580   -71.7390
 2784.9576     7.9240   -71.7030
 2785.1100     8.2780   -71.5920
 2785.2624     9.2280   -71.4450
 2785.4148     9.2500   -71.2940
 2785.5672     8.7740   -71.1260
 2785.7196     7.8310   -71.0100
 2785.8720     7.8750   -70.9340
 2786.0244    10.5600   -70.8630
 2786.1768    15.2470   -70.7260
 2786.3292     8.0270   -70.4690
 2786.4816     7.7760   -70.1810
 2786.6340     7.9460   -69.9630
 2786.7864     8.0970   -69.8610
 2786.9388     8.1700   -69.8350
 2787.0912     8.1700   -69.7460
 2787.2436     8.1490   -69.6330
 2787.3960     8.1110   -69.5620
 2787.5484     7.9360   -69.5250
 2787.7008     7.6730   -69.5000
 2787.8532     7.4140   -69.5000
 2788.0056     7.0560   -69.4580
 2788.1580     6.4460   -69.3800
 2788.3104     5.8440   -69.2520
 2788.4628     5.4140   -69.0730
 2788.6152     5.2030   -68.8240
 2788.7676     5.0560   -68.6060
 2788.9200     4.9050   -68.4600
 2789.0724     4.7490   -68.3910
 2789.2248     4.5040   -68.2630
 2789.3772     4.2440   -68.0800
 2789.5296     3.9610   -67.9010
 2789.6820     3.7520   -67.7320
 2789.8344     3.6510   -67.6450
 2789.9868     3.6090   -67.6810
 2790.1392     3.5780   -67.4850
 2790.2916     3.5610   -67.5580
 2790.4440     3.5580   -68.4590
 2790.5964     3.5530   -69.4220
 2790.7488     3.5680   -69.6500
 2790.9012     3.6310   -69.5590
 2791.0536     3.8370   -69.3480
 2791.2060     3.9720   -69.1350
 2791.3584     3.9830   -69.0370
 2791.5108     3.8430   -69.1180
 2791.6632     3.7000   -69.4460
 2791.8156     3.5820   -69.7600
 2791.9680     3.5540   -70.6500
 2792.1204     3.6440   -71.0500
 2792.2728     3.8630   -71.0280
 2792.4252     4.0310   -70.9700
 2792.5776     4.0960   -70.9700
 2792.7300     4.1000   -70.9820
 2792.8824     4.0890   -71.0100
 2793.0348     4.0770   -71.0100
 2793.1872     4.0790   -70.9750
 2793.3396     4.0940   -70.9700
 2793.4920     4.1870   -70.9980
 2793.6444     4.4020   -71.0440
 2793.7968     4.6950   -71.0500
 2793.9492     4.9500   -71.0150
 2794.1016     5.0990   -70.9700
 2794.2540     5.0970   -70.9300
 2794.4064     4.8850   -70.9330
 2794.5588     4.6440   -70.9700
 2794.7112     4.4250   -71.0100
 2794.8636     4.1410   -71.0100
 2795.0160     3.9090   -71.0100
 2795.1684     3.7800   -70.9830
 2795.3208     3.7390   -70.9700
 2795.4732     3.7650   -70.9700
 2795.6256     3.8340   -70.9020
 2795.7780     3.9420   -70.7810
 2795.9304     4.0440   -70.7070
 2796.0828     4.1220   -70.5560
 2796.2352     4.1430   -70.3940
 2796.3876     4.1690   -70.2400
 2796.5400     4.0870   -70.1700
 2796.6924     3.9470   -70.0750
 2796.8448     3.7410   -70.0020
 2796.9972     3.4710   -69.9320
 2797.1496     3.3090   -69.8900
 2797.3020     3.5370   -69.8890
 2797.4544     3.8470   -69.8500
 2797.6068     3.8140   -69.8480
 2797.7592     3.7070   -69.8140
 2797.9116     3.6170   -69.7520
 2798.0640     3.5990   -69.6900
