~VERSION INFORMATION
VERS.                                                 2.0:   CWLS Log ASCII Standard-VERSION 2.0
WRAP.                                                  NO:   One line per depth step
~Well Information Block
STRT.M                                          2769.1080:   Top Depth
STOP.M                                          2949.8544:   Bottom Depth
STEP.M                                             .15240:   Depth Increment
NULL.                                            -999.250:   Null Value
FLD .                                          EEMSKANAAL:   Field Name
WELL.                                       EEMSKANAAL- 2:   NAME
APD .M                                               5.62:   ABOVE PERM DATUM
CTRY.                                                  NE:   COUNTRY
EDF .m                                               5.62:   ELEV DRILL FLOOR
EPD .                                                   0:   ELEV PERM DATUM
EGL .m                                              -1.06:   GROUND LEVEL
LMF .                                                  DF:   LOGS MEAS FROM
COMP.                                                 NAM:   OPERATOR
PDAT.                                                 NAP:   PERM DATUM
SPUD.                                          1971/03/17:   SPUD DATE
STAT.                                           Unknown m:   STATE
UWBI.                                      11000074112601:   UWBI
WELL.                                       EEMSKANAAL- 2:   HOLE NAME
~PARAMETER INFORMATION (log)
LNAM.                                RUN 02 RAW OH 6 1/4":   NAME
LTYP.                                                 02R:   LOG TYPE
LVSN.                                                   1:   LOG VERSION
BS  .1/4"                                               6:   BIT SIZE
BLI .M                                             2942.0:   BOTTOM DEPTH LOGGED
BHIS.                                             RCCCCCC:   BRIEF HISTORY
FHIS.                   RAW-TIGA/COPY/COPY/COPY/COPY/COPY:   FULL HISTORY
MRT .DEGC                                              84:   MAX REC TEMP
DFD .G/CC                                            1.36:   MUD DENSITY
DFT .                                     SALT SAT UNICAL:   MUD TYPE
RMS .OHMM                                           0.031:   RM
MST .DEGC                                              12:   RM TEMP
RMCS.OHMM                                           0.136:   RMC
MCST. DEGC                                             12:   RMC TEMP
RMFS.OHMM                                           0.053:   RMF
MFST.DEGC                                              19:   RMF TEMP
TCS .                                                 N/A:   TIME SINCE CIRCLN
TLI .M                                             2772.0:   TOP DEPTH LOGGED
~Curve Information Block
#MNEM.UNIT                                        API CODE    No Description
#=========                                        ========    == ===========
DEPT.M                                       00 001 00 00:     1  DEPTH
CALF.IN                                                  :     2  CALIPER FROM FORMATION DENSITY LOG
FDC.G/C3                                                 :     3  Formation Density Log (Compensated Open
GR.API                                                   :     4  Gamma Ray
~ASCII
# ...
 2824.5816     6.3610     2.6610    67.9730
 2824.7340     6.3520     2.6830    76.2460
 2824.8864     6.3580     2.6620    71.2860
 2825.0388     6.4030     2.6180    57.9490
 2825.1912     6.4830     2.5520    42.4210
 2825.3436     6.5460     2.5090    36.3790
 2825.4960     6.5870     2.4810    37.7050
 2825.6484     6.5950     2.5680    60.2040
 2825.8008     6.5910     2.6260    64.6270
 2825.9532     6.5160     2.6680    79.5260
 2826.1056     6.4440     2.6900    87.4920
 2826.2580     6.4230     2.6620    70.6550
 2826.4104     6.4470     2.6480    55.4670
 2826.5628     6.4910     2.5970    46.1050
 2826.7152     6.5390     2.5470    41.5830
 2826.8676     6.5720     2.5110    38.0820
 2827.0200     6.5600     2.4640    34.2570
 2827.1724     6.5240     2.4520    30.6680
 2827.3248     6.4840     2.4280    28.2170
 2827.4772     6.4710     2.4280    26.7620
 2827.6296     6.4740     2.4430    26.4830
 2827.7820     6.4860     2.4860    26.5610
 2827.9344     6.4870     2.4830    26.6980
 2828.0868     6.4870     2.4660    27.3340
 2828.2392     6.4850     2.4610    29.8810
 2828.3916     6.4790     2.4540    33.4340
 2828.5440     6.4690     2.4690    32.7760
 2828.6964     6.4630     2.4800    35.8590
 2828.8488     6.4630     2.4650    45.4910
 2829.0012     6.4630     2.4880    54.3830
 2829.1536     6.4630     2.5190    62.5290
 2829.3060     6.4660     2.5550    71.5410
 2829.4584     6.4730     2.5510    69.4320
 2829.6108     6.4810     2.5250    64.7520
 2829.7632     6.4830     2.5200    62.4470
 2829.9156     6.4830     2.4960    50.0420
 2830.0680     6.4810     2.4750    38.3110
 2830.2204     6.4790     2.4550    34.9610
 2830.3728     6.4790     2.4560    37.0150
 2830.5252     6.4830     2.4530    41.1520
 2830.6776     6.4940     2.4870    43.5820
 2830.8300     6.4560     2.5060    46.1410
 2830.9824     6.4230     2.5080    52.7400
 2831.1348     6.4310     2.5530    61.1110
 2831.2872     6.4560     2.6180    67.2030
 2831.4396     6.4820     2.6390    71.4320
 2831.5920     6.5000     2.6380    73.9520
 2831.7444     6.5180     2.6380    69.1020
 2831.8968     6.5270     2.6170    61.9000
 2832.0492     6.5250     2.5610    49.9400
 2832.2016     6.5190     2.5270    38.5930
 2832.3540     6.4990     2.4530    33.4420
 2832.5064     6.4570     2.4370    31.8720
 2832.6588     6.4220     2.4180    31.3270
 2832.8112     6.4130     2.4070    29.6310
 2832.9636     6.3690     2.4300    28.9020
 2833.1160     6.3430     2.4630    29.8040
 2833.2684     6.3410     2.4910    31.8230
 2833.4208     6.3460     2.5120    32.9540
 2833.5732     6.3580     2.5320    32.5980
 2833.7256     6.3600     2.5370    31.9370
 2833.8780     6.3570     2.5300    31.5610
 2834.0304     6.3560     2.5360    31.4950
 2834.1828     6.3590     2.5500    31.9800
 2834.3352     6.3630     2.5720    30.7600
 2834.4876     6.3640     2.5760    29.2170
 2834.6400     6.3620     2.5690    30.4440
 2834.7924     6.3580     2.5580    34.1720
 2834.9448     6.3530     2.5370    37.8550
 2835.0972     6.3520     2.5230    40.5440
 2835.2496     6.3460     2.5240    40.1650
 2835.4020     6.3440     2.5060    36.2090
 2835.5544     6.3450     2.4540    31.9760
 2835.7068     6.3520     2.4150    29.4860
 2835.8592     6.3580     2.4330    28.6640
 2836.0116     6.3600     2.4560    28.6910
 2836.1640     6.3640     2.4860    29.5950
 2836.3164     6.3680     2.4890    30.7540
 2836.4688     6.3680     2.4940    30.7550
 2836.6212     6.3680     2.4920    30.2660
 2836.7736     6.3650     2.4740    30.0740
 2836.9260     6.3640     2.4630    32.0500
 2837.0784     6.3640     2.4610    33.9870
 2837.2308     6.3640     2.4690    35.8250
 2837.3832     6.3640     2.4950    38.3480
 2837.5356     6.3640     2.5080    39.6040
 2837.6880     6.3640     2.5490    39.1690
 2837.8404     6.3600     2.5790    36.9290
 2837.9928     6.3600     2.5550    34.4660
 2838.1452     6.3600     2.5150    31.7420
 2838.2976     6.3610     2.4680    28.6360
 2838.4500     6.3640     2.4520    26.7370
 2838.6024     6.3640     2.4310    27.6850
 2838.7548     6.3600     2.4130    27.5540
 2838.9072     6.3630     2.4210    26.9060
 2839.0596     6.3660     2.4350    27.5080
 2839.2120     6.3690     2.4610    26.5930
 2839.3644     6.3720     2.4690    26.0540
 2839.5168     6.3720     2.4370    27.7080
 2839.6692     6.3720     2.3900    30.4470
 2839.8216     6.3720     2.3660    31.5230
 2839.9740     6.3720     2.3780    30.5360
 2840.1264     6.3720     2.3970    29.2910
 2840.2788     6.3750     2.4120    28.5140
 2840.4312     6.3760     2.4060    26.8760
 2840.5836     6.3750     2.4090    26.0060
 2840.7360     6.3720     2.3940    26.1190
 2840.8884     6.3720     2.3960    25.2900
 2841.0408     6.3710     2.3700    23.9410
 2841.1932     6.3680     2.3620    23.4270
 2841.3456     6.3650     2.3680    23.5560
 2841.4980     6.3600     2.4010    25.9940
 2841.6504     6.3540     2.4180    31.1120
 2841.8028     6.3520     2.4130    34.0890
 2841.9552     6.3520     2.4390    37.4940
 2842.1076     6.3520     2.4840    41.9280
 2842.2600     6.3520     2.5470    47.4330
 2842.4124     6.3520     2.5970    51.6790
 2842.5648     6.3550     2.6010    51.5630
 2842.7172     6.3560     2.5660    45.8110
 2842.8696     6.3560     2.5390    42.4990
 2843.0220     6.3600     2.5300    40.3110
 2843.1744     6.3570     2.5100    38.7430
 2843.3268     6.3600     2.4790    38.0320
 2843.4792     6.3660     2.4680    37.7740
 2843.6316     6.3840     2.4790    37.6220
 2843.7840     6.4010     2.4990    35.3440
 2843.9364     6.3930     2.5140    32.6160
 2844.0888     6.3820     2.5320    32.1200
 2844.2412     6.3830     2.5290    34.4640
 2844.3936     6.3830     2.5190    35.4160
 2844.5460     6.3800     2.5140    34.4650
 2844.6984     6.3790     2.5130    35.5680
 2844.8508     6.3710     2.5310    35.7330
 2845.0032     6.3640     2.5190    37.2130
 2845.1556     6.3580     2.5070    37.1200
 2845.3080     6.3520     2.5120    36.3780
 2845.4604     6.3500     2.4980    35.2330
 2845.6128     6.3520     2.4860    34.9860
 2845.7652     6.3490     2.4710    34.5040
 2845.9176     6.3480     2.4540    32.8910
 2846.0700     6.3480     2.4690    31.9420
 2846.2224     6.3480     2.4850    31.2750
 2846.3748     6.3470     2.4720    31.0910
 2846.5272     6.3470     2.4780    31.5540
 2846.6796     6.3440     2.5010    33.1620
 2846.8320     6.3440     2.5060    34.6650
 2846.9844     6.3440     2.5130    35.5930
 2847.1368     6.3430     2.5040    35.6600
 2847.2892     6.3400     2.4980    35.2710
 2847.4416     6.3400     2.5160    34.6510
 2847.5940     6.3380     2.5340    34.0900
 2847.7464     6.3360     2.5400    33.6740
 2847.8988     6.3360     2.5450    33.4070
 2848.0512     6.3360     2.5190    32.2720
 2848.2036     6.3360     2.4840    31.9210
 2848.3560     6.3360     2.4850    33.3560
 2848.5084     6.3360     2.4840    34.5600
 2848.6608     6.3320     2.4780    34.3250
 2848.8132     6.3300     2.4810    31.9060
 2848.9656     6.3260     2.4820    30.5460
 2849.1180     6.3220     2.4780    29.8040
 2849.2704     6.3240     2.4570    29.9310
 2849.4228     6.3240     2.4660    31.1890
 2849.5752     6.3220     2.4980    33.1300
 2849.7276     6.3230     2.5180    34.7060
 2849.8800     6.3200     2.5260    34.6020
 2850.0324     6.3180     2.5140    34.1310
 2850.1848     6.3160     2.5050    32.7020
 2850.3372     6.3130     2.5010    31.0450
 2850.4896     6.3120     2.4950    31.0600
 2850.6420     6.3100     2.4930    31.7090
 2850.7944     6.3120     2.5000    32.6210
 2850.9468     6.3150     2.4980    33.6500
 2851.0992     6.3200     2.5170    34.1680
 2851.2516     6.3220     2.5050    34.0430
 2851.4040     6.3240     2.5030    34.1690
 2851.5564     6.3260     2.5270    33.9710
 2851.7088     6.3280     2.5140    32.7940
 2851.8612     6.3280     2.4750    30.2800
 2852.0136     6.3320     2.4520    28.5810
 2852.1660     6.3360     2.4530    28.1890
