~VERSION INFORMATION
VERS.                                                 2.0:   CWLS Log ASCII Standard-VERSION 2.0
WRAP.                                                  NO:   One line per depth step
~Well Information Block
STRT.M                                           836.5236:   Top Depth
STOP.M                                          2800.0452:   Bottom Depth
STEP.M                                             .15240:   Depth Increment
NULL.                                            -999.250:   Null Value
FLD .                                          EEMSKANAAL:   Field Name
WELL.                                       EEMSKANAAL- 2:   NAME
APD .M                                               5.62:   ABOVE PERM DATUM
CTRY.                                                  NE:   COUNTRY
EDF .m                                               5.62:   ELEV DRILL FLOOR
EPD .                                                   0:   ELEV PERM DATUM
EGL .m                                              -1.06:   GROUND LEVEL
LMF .                                                  DF:   LOGS MEAS FROM
COMP.                                                 NAM:   OPERATOR
PDAT.                                                 NAP:   PERM DATUM
SPUD.                                          1971/03/17:   SPUD DATE
STAT.                                           Unknown m:   STATE
UWBI.                                      11000074112601:   UWBI
WELL.                                       EEMSKANAAL- 2:   HOLE NAME
~PARAMETER INFORMATION (log)
LNAM.                              RUN 04 RAW CH OCT 2002:   NAME
LTYP.                                                 04R:   LOG TYPE
LVSN.                                                   1:   LOG VERSION
BHT .DEGC                                             101:   BH TEMP
BS  .IN                                             9.625:   BIT SIZE
BHS .                                                CASE:   BOREHOLE STATUS
BLI .M                                               2800:   BOTTOM DEPTH LOGGED
BHIS.                                                  RC:   BRIEF HISTORY
CS  .IN                                             7.625:   CASING SIZE
CSW .LB/F                                            52.3:   CASING WEIGHT
R1  .                                 Log correlated with:   COMMENT  1
R2  .       Compensated formation density log 1-April-197:   COMMENT  2
R4  .          Weight expendable tubing 18.6 lbs per foot:   COMMENT  4
R5  .              Weight 7 5/8" casing 33.7 lbs per foot:   COMMENT  5
R7  .                                      Set CSID 5.98":   COMMENT  7
R8  .                   Set CWEI 33.7 + 18.6  =  52.3 LBS:   COMMENT  8
R9  .                                    Set CSIZ 7.625 ":   COMMENT  9
DMF .                                                 ORT:   DRILL MEAS FROM
EDF .M                                               5.62:   ELEV DRILL FLOOR
ELZ .                                              5.62 M:   ELEVATION LOG ZERO
ENGI.                                         M. Riedeman:   ENGINEER
FHIS.                                            RAW-DLIS:   FULL HISTORY
HIDE.                                               RST-C:   HEADER ID
LCNM.                                        Schlumberger:   LOGGING CONTRACTOR
LMF .                                                 ORT:   LOGS MEAS FROM
MATR.                                                LIME:   MATRIX
MRT .DEGC                                             101:   MAX REC TEMP
DFT .                                                 gas:   MUD TYPE
CN  .                                                 NAM:   OPERATOR
RUN .                                                   1:   RUN
DATE.                                          2002/10/25:   RUN DATE
RW  .OHMM                                               1:   RW
STEM.DEGC                                              18:   SURFACE TEMPERATURE
TLAB.                                                1100:   TIME LOGGER ON BOT
TLI .M                                                840:   TOP DEPTH LOGGED
WITN.                           P van der Zee & S. Yntema:   WITNESS
~Curve Information Block
#MNEM.UNIT                                        API CODE    No Description
#=========                                        ========    == ===========
DEPT.M                                       00 001 00 00:     1  DEPTH
AIRB.                                                    :     2  RST Air Borehole Diagnostic
CIRF.                                                    :     3  RST Capture to Inelastic Ratio Far
CIRN.                                                    :     4  RST Capture to Inelastic Ratio Near
FBAC.CPS                                                 :     5  Far Background Count Rate
GR.API                                                   :     6  Gamma Ray
IRAT.                                                    :     7  RST Inelastic Ratio
NBAC.CPS                                                 :     8  Near Background Count Rate
SBNA.CU                                                  :     9  RST Sigma Borehole Near Apparent
SFNA.CU                                                  :    10  RST Sigma Formation Near Apparent
SIGM.CU                                                  :    11  Formation Sigma (Neutron Capture Cross S
TPHI.FRAC                                                :    12  Thermal Decay Porosity
~ASCII
# ...
 2138.0196     1.0000      .1831      .1149  3350.9209     9.8119     1.0858  1958.4153   125.8111    46.3845    62.0571      .0577
 2138.1720     1.0000      .1770      .1158  3340.7380    10.7713     1.0902  1942.9070   117.0581    53.0065    62.0460      .0767
 2138.3244     1.0000      .1827      .1046  3349.8284     9.3052     1.0917  1940.9016   116.8224    46.2899    61.7043      .0742
 2138.4768     1.0000      .1808      .1119  3338.4648     9.2207     1.0802  1943.1692   122.5331    47.4650    61.3037      .0691
 2138.6292     1.0000      .1814      .1096  3330.9780     9.4427     1.0907  1921.1106   119.4694    52.6603    62.4832      .0675
 2138.7816     1.0000      .1740      .1165  3356.3792     9.4155     1.0848  1911.0793   127.5056    47.9970    62.8908      .0713
 2138.9340     1.0000      .1737      .1141  3382.7397     8.8866     1.0827  1882.5984   127.0568    48.4742    63.9420      .0658
 2139.0864     1.0000      .1841      .1091  3427.9268    10.1802     1.0760  1917.2239   120.7792    50.0819    64.7295      .0643
 2139.2388     1.0000      .1776      .1037  3427.3921     9.5595     1.0516  1923.3735   124.5251    49.9567    66.6125      .0894
 2139.3912     1.0000      .1755      .1140  3430.0432     9.2305     1.0249  1916.5555   121.8886    49.9876    66.8523      .1117
 2139.5436     1.0000      .1853      .1150  3432.0486     8.9320      .9831  1942.6200   124.4960    46.7441    66.9304      .1607
 2139.6960     1.0000      .1975      .1221  3398.7671     8.6732      .9560  1930.7485   114.5056    50.5519    66.1771      .2013
 2139.8484     1.0000      .2190      .1319  3404.2712     8.7604      .9320  1945.7218   104.6534    51.0929    66.6324      .2362
 2140.0008     1.0000      .2142      .1161  3421.1162    10.2279      .9197  1951.0696   104.6881    53.6861    66.0432      .2312
 2140.1532     1.0000      .2367      .1276  3397.9875     9.8812      .9177  1935.6952   106.1129    52.0111    65.6591      .2049
 2140.3056     1.0000      .2623      .1504  3393.7095    10.5238      .9205  1930.0802   105.9468    45.0623    63.4302      .1993
 2140.4580     1.0000      .3262      .1667  3368.1836    11.2888      .9246  1960.5614    96.0923    44.2280    60.5121      .1799
 2140.6104     1.0000      .3682      .1983  3360.0288    10.8720      .9209  1987.5668    96.7394    45.5254    57.7800      .1609
 2140.7628     1.0000      .4047      .1929  3348.5313     9.8356      .9181  2000.4011    98.9678    42.2897    56.6568      .1265
 2140.9152     1.0000      .3900      .1850  3345.7319    10.4211      .9078  2007.0856    97.9006    42.7769    56.9431      .1315
 2141.0676     1.0000      .3771      .1802  3344.5515    10.5085      .8950  2031.1499    94.8651    44.8760    57.6270      .1457
 2141.2200     1.0000      .3090      .1606  3369.1506    11.2823      .8890  2017.7809    98.5308    47.3181    58.2305      .1745
 2141.3724     1.0000      .2639      .1344  3374.3484    11.4314      .8925  2027.9413   100.3837    49.4847    59.1613      .1875
 2141.5248     1.0000      .2418      .1358  3355.4983    11.1727      .9044  2047.4598   104.0130    48.2849    59.8795      .2089
 2141.6772     1.0000      .2551      .1328  3329.0276    12.0547      .9158  2038.6366    99.4687    52.2115    60.2228      .2091
 2141.8296     1.0000      .2780      .1503  3348.6577    12.1399      .9057  2049.1980    96.5996    50.8940    59.3472      .2000
 2141.9820     1.0000      .3173      .1556  3377.8203    12.5863      .9035  2039.4386   100.0181    45.6038    57.3936      .1748
 2142.1344     1.0000      .3599      .1771  3385.1416    12.9393      .8939  2031.9520    95.0819    44.2656    54.3718      .1348
 2142.2868     1.0000      .4016      .1950  3379.8025    13.9742      .9065  2034.8661    99.5765    43.5064    50.5124      .1140
 2142.4392     1.0000      .4525      .2156  3379.9360    13.5441      .9054  2009.7323    91.7993    41.5126    47.6769      .0815
 2142.5916     1.0000      .4645      .2105  3387.0134    12.3362      .9184  1987.0051    96.7395    40.3895    45.5484      .0698
 2142.7440     1.0000      .4902      .2261  3365.6235    10.8693      .9156  1964.5453    95.3681    40.0651    44.5973      .0555
 2142.8964     1.0000      .4852      .2250  3343.0376     9.7482      .9184  1968.5558    93.4947    38.8456    44.4424      .0560
 2143.0488     1.0000      .4699      .2150  3366.4336     9.3170      .9064  1956.7911    97.1063    39.5253    45.0833      .0756
 2143.2012     1.0000      .4590      .2148  3366.4102     9.8479      .8999  1943.1550    91.6771    39.9669    46.0895      .0843
 2143.3536     1.0000      .4116      .2049  3410.7732    11.6609      .8877  1955.9891    99.7395    40.7118    48.2670      .1195
 2143.5060     1.0000      .3689      .1806  3376.5791    13.2985      .8886  1965.4812    94.9560    43.8599    50.9344      .1311
 2143.6584     1.0000      .3265      .1667  3347.2822    14.1558      .8866  1980.5883   102.5342    44.5376    52.5856      .1503
 2143.8108     1.0000      .3438      .1718  3321.7783    14.3282      .8959  1968.6896    98.5684    43.5346    53.0295      .1537
 2143.9632     1.0000      .3695      .1831  3323.4626    13.9687      .9037  1964.1710    94.4251    44.4483    51.9476      .1422
 2144.1156     1.0000      .3714      .1992  3319.5857    14.3985      .9034  1974.5989   101.5988    40.6079    51.3763      .1512
 2144.2680     1.0000      .3779      .1851  3320.5217    13.4498      .8921  1987.7008    89.8841    44.3119    51.1869      .1421
 2144.4204     1.0000      .3636      .1722  3324.9329    14.4053      .8830  2008.9572    94.8366    43.3305    51.0069      .1460
 2144.5728     1.0000      .3828      .1875  3323.5884    14.4894      .8887  2016.9786    96.5728    43.3119    51.1102      .1398
 2144.7252     1.0000      .4031      .1974  3325.1924    14.3188      .8998  2012.5668    93.1663    41.8934    50.0925      .1347
 2144.8776     1.0000      .4115      .2060  3342.7290    14.2325      .9132  2000.2672    93.6081    41.6237    49.0615      .1282
 2145.0300     1.0000      .4189      .2067  3316.0132    13.8887      .9073  1994.9196    96.9519    40.5309    48.5289      .1154
 2145.1824     1.0000      .3995      .1930  3341.6736    13.0259      .9080  1979.5453    95.8836    42.3103    48.4769      .1115
 2145.3348     1.0000      .4004      .1900  3356.6560    13.7382      .9098  1986.4972    94.0503    42.5660    48.5690      .1051
 2145.4872     1.0000      .4049      .1993  3368.9475    13.2373      .9268  1990.3741    97.6742    39.8070    48.3725      .1076
 2145.6396     1.0000      .4162      .2070  3348.4204    12.8061      .9330  1998.3958    93.4386    41.5370    48.5956      .1035
 2145.7920     1.0000      .4034      .2008  3346.2813    12.7076      .9228  1994.9198    96.8272    40.8858    49.4618      .1135
 2145.9444     1.0000      .4005      .1892  3343.6165    12.0173      .9097  1982.4865    96.0718    43.3973    50.1050      .1092
 2146.0968     1.0000      .3812      .1881  3372.3154    10.9622      .9007  1975.5394    98.0135    42.8276    50.9559      .1365
 2146.2492     1.0000      .3842      .1853  3375.9250    12.3222      .9115  1950.1385    88.3223    44.1251    52.1772      .1511
 2146.4016     1.0000      .3657      .1943  3380.8494    12.3236      .9155  1955.6200    95.7762    44.0983    52.4747      .1860
 2146.5540     1.0000      .3737      .1899  3361.7319    12.8591      .9165  1962.1708    87.8290    43.0702    53.2053      .1877
 2146.7064     1.0000      .3592      .1944  3360.5288    13.7206      .9041  1961.6356    93.2548    43.6648    52.9808      .1990
 2146.8588     1.0000      .3587      .1776  3366.0100    14.2407      .8985  1969.4969    91.6653    43.9702    53.6289      .1863
 2147.0112     1.0000      .3573      .1796  3363.0603    13.4641      .8938  1960.9409    93.0347    44.4564    52.9598      .1631
 2147.1636     1.0000      .3769      .1854  3343.2820    13.7215      .9003  1959.7379   100.4196    42.7408    53.1691      .1526
