~VERSION INFORMATION
VERS.                                                 2.0:   CWLS Log ASCII Standard-VERSION 2.0
WRAP.                                                  NO:   One line per depth step
~Well Information Block
STRT.M                                           404.0124:   Top Depth
STOP.M                                          1403.9088:   Bottom Depth
STEP.M                                             .15240:   Depth Increment
NULL.                                            -999.250:   Null Value
FLD .                                          EEMSKANAAL:   Field Name
WELL.                                       EEMSKANAAL- 1:   NAME
EDF .m                                               5.58:   ELEV DRILL FLOOR
EPD .                                                   0:   ELEV PERM DATUM
EGL .m                                                -.9:   GROUND LEVEL
LMF .                                                  DF:   LOGS MEAS FROM
COMP.                                                 NAM:   OPERATOR
PDAT.                                                 NAP:   PERM DATUM
SPUD.                                          1970/11/08:   SPUD DATE
UWBI.                                      11000074112201:   UWBI
WELL.                                       EEMSKANAAL- 1:   HOLE NAME
~PARAMETER INFORMATION (log)
LNAM.                                RUN 01 RAW OH 14.75":   NAME
LTYP.                                                 01R:   LOG TYPE
LVSN.                                                   1:   LOG VERSION
BS  .3/4"                                              14:   BIT SIZE
BLI .M                                             1406.2:   BOTTOM DEPTH LOGGED
BHIS.                                            RCCCCCCC:   BRIEF HISTORY
FHIS.              RAW-TIGA/COPY/COPY/COPY/COPY/COPY/COPY:   FULL HISTORY
MRT .C                                                 50:   MAX REC TEMP
DFT .                                         CHALK WATER:   MUD TYPE
RMS .                                                1.44:   RM
MST .C                                                 11:   RM TEMP
RMCS.                                                1.93:   RMC
MCST.C                                                 19:   RMC TEMP
RMFS.                                               0.917:   RMF
MFST.C                                                 19:   RMF TEMP
TCS .                                                 N/A:   TIME SINCE CIRCLN
TLI .M                                              403.6:   TOP DEPTH LOGGED
~Curve Information Block
#MNEM.UNIT                                        API CODE    No Description
#=========                                        ========    == ===========
DEPT.M                                       00 001 00 00:     1  DEPTH
DILD.OHMM                                                :     2  DUAL INDUCTION LOG DEEP RESISTIVITY
SN.OHMM                                                  :     3  SHORT NORMAL
~ASCII
# ...
  478.0788     1.0600     1.1020
  478.2312     1.0600     1.0970
  478.3836     1.0600     1.0880
  478.5360     1.0540     1.0720
  478.6884     1.0430     1.0550
  478.8408     1.0280     1.0540
  478.9932     1.0180     1.0610
  479.1456     1.0090     1.0700
  479.2980      .9980     1.0780
  479.4504      .9980     1.0790
  479.6028      .9860     1.0770
  479.7552      .9650     1.0740
  479.9076      .9490     1.0640
  480.0600      .9290     1.0480
  480.2124      .9050     1.0260
  480.3648      .8900     1.0130
  480.5172      .8750     1.0120
  480.6696      .8580     1.0190
  480.8220      .8380     1.0320
  480.9744      .8200     1.0610
  481.1268      .8080     1.0890
  481.2792      .7970     1.1090
  481.4316      .7800     1.1180
  481.5840      .7590     1.1180
  481.7364      .7360     1.1140
  481.8888      .7240     1.1010
  482.0412      .7230     1.0730
  482.1936      .7280     1.0440
  482.3460      .7280     1.0350
  482.4984      .7360     1.0360
  482.6508      .7450     1.0370
  482.8032      .7690     1.0350
  482.9556      .7980     1.0230
  483.1080      .8250     1.0520
  483.2604      .8680     1.0540
  483.4128      .8950     1.0760
  483.5652      .9120     1.1120
  483.7176      .9340     1.1240
  483.8700      .9490     1.1210
  484.0224      .9580     1.1060
  484.1748      .9540     1.0810
  484.3272      .9500     1.0730
  484.4796      .9400     1.0810
  484.6320      .9160     1.1040
  484.7844      .8760     1.1330
  484.9368      .8300     1.1320
  485.0892      .7590     1.1180
  485.2416      .7080     1.0970
  485.3940      .6450     1.0700
  485.5464      .5890     1.0430
  485.6988      .5560     1.0170
  485.8512      .5340      .9920
  486.0036      .5220      .9650
  486.1560      .5100      .9320
  486.3084      .4980      .9020
  486.4608      .4980      .8790
  486.6132      .5070      .8610
  486.7656      .5190      .8600
  486.9180      .5330      .8770
  487.0704      .5490      .9100
  487.2228      .6050      .9460
  487.3752      .7760      .9780
  487.5276      .7830      .9880
  487.6800      .7860      .9820
  487.8324      .7860      .9680
  487.9848      .7860      .9160
  488.1372      .7780      .8980
  488.2896      .7780      .8940
  488.4420      .7780      .8950
  488.5944      .7780      .8940
  488.7468      .7740      .8930
  488.8992      .5640      .8850
  489.0516      .5610      .8700
  489.2040      .5540      .8570
  489.3564      .5460      .8480
  489.5088      .5360      .8440
  489.6612      .5130      .8430
  489.8136      .4970      .8440
  489.9660      .4900      .8440
  490.1184      .4900      .8420
  490.2708      .4900      .8410
  490.4232      .4920      .8360
  490.5756      .5060      .8320
  490.7280      .5290      .8270
  490.8804      .5720      .8290
  491.0328      .6400      .8430
  491.1852      .7210      .8700
  491.3376      .7850      .9120
  491.4900      .8330      .9590
  491.6424      .8380     1.0000
  491.7948      .8380     1.0260
  491.9472      .8340     1.0220
  492.0996      .8260      .9920
  492.2520      .8120      .9770
  492.4044      .7830      .9740
  492.5568      .7490      .9760
  492.7092      .7280      .9820
  492.8616      .7340      .9900
  493.0140      .7570      .9950
  493.1664      .8030      .9660
  493.3188      .8640      .9220
  493.4712      .9190      .9120
  493.6236      .9710      .9260
  493.7760     1.0240      .9620
  493.9284     1.0810      .9900
  494.0808     1.0570     1.0030
  494.2332      .9920     1.0030
  494.3856      .8930     1.0010
  494.5380      .8000      .9950
  494.6904      .7200      .9930
  494.8428      .6740      .9960
  494.9952      .6350     1.0060
  495.1476      .6120     1.0190
  495.3000      .5900     1.0180
  495.4524      .5740      .9950
  495.6048      .5640      .9680
  495.7572      .5470      .9430
  495.9096      .5380      .9250
  496.0620      .5380      .9120
  496.2144      .5380      .9120
  496.3668      .5420      .9230
  496.5192      .5460      .9390
  496.6716      .5520      .9600
  496.8240      .5690      .9930
  496.9764      .5910     1.0410
  497.1288      .6130     1.1200
  497.2812      .6390     1.1320
  497.4336      .6810     1.1280
  497.5860      .7180     1.1160
  497.7384      .7450     1.0960
  497.8908      .8060     1.0740
  498.0432      .8970     1.0770
  498.1956      .9830     1.0980
  498.3480     1.0710     1.1530
  498.5004     1.1340     1.2240
  498.6528     1.1640     1.3390
  498.8052     1.1360     1.4360
  498.9576     1.0690     1.4110
  499.1100      .9730     1.3440
  499.2624      .8820     1.2640
  499.4148      .8140     1.1820
  499.5672      .7460     1.1140
  499.7196      .7140     1.0760
  499.8720      .7030     1.0640
  500.0244      .6990     1.0220
  500.1768      .7020     1.0220
  500.3292      .7040     1.0240
  500.4816      .7040     1.0300
  500.6340      .7120     1.0330
  500.7864      .7120     1.0340
  500.9388      .7120     1.0330
  501.0912      .7140     1.0310
  501.2436      .7200     1.0250
  501.3960      .7200     1.0200
  501.5484      .7230     1.0160
  501.7008      .7280     1.0140
  501.8532      .7280     1.0140
  502.0056      .7280     1.0170
  502.1580      .7270     1.0570
  502.3104      .7200     1.0640
  502.4628      .7200     1.0760
  502.6152      .7200     1.0900
  502.7676      .7250     1.1080
  502.9200      .7310     1.1420
  503.0724      .7660     1.1900
  503.2248      .8650     1.2480
  503.3772      .9580     1.3250
  503.5296     1.0140     1.4530
  503.6820     1.0130     1.6620
  503.8344     1.0120     1.7750
  503.9868     1.0120     1.7880
  504.1392     1.0010     1.7250
  504.2916      .9610     1.5610
  504.4440      .8860     1.3230
  504.5964      .7980     1.1750
  504.7488      .7180     1.1210
  504.9012      .6960     1.1010
  505.0536      .6960     1.0990
  505.2060      .7050     1.1030
  505.3584      .7270     1.1140
  505.5108      .7490     1.1310
  505.6632      .7650     1.1530
  505.8156      .7780     1.1750
  505.9680      .7950     1.1660
  506.1204      .7970     1.1580
  506.2728      .7790     1.1480
  506.4252      .7420     1.1280
  506.5776      .7010     1.1080
  506.7300      .6880     1.0960
  506.8824      .6650     1.0840
  507.0348      .6450     1.0640
  507.1872      .6330     1.0540
  507.3396      .6240     1.0590
  507.4920      .6240     1.0780
  507.6444      .6680     1.1090
  507.7968      .7230     1.1600
  507.9492      .7650     1.2240
  508.1016      .7920     1.2500
  508.2540      .7950     1.2540
  508.4064      .7980     1.2500
  508.5588      .7980     1.2200
  508.7112      .7900     1.1720
  508.8636      .7710     1.1480
  509.0160      .6780     1.1410
  509.1684      .7070     1.1360
  509.3208      .7300     1.1200
  509.4732      .7540     1.1070
  509.6256      .7860     1.1070
  509.7780      .7980     1.1130
  509.9304      .7940     1.1330
  510.0828      .7780     1.1440
  510.2352      .7600     1.1280
  510.3876      .7300     1.1200
  510.5400      .6750     1.1160
  510.6924      .6170     1.0770
  510.8448      .5500     1.0200
  510.9972      .6760      .9740
  511.1496      .6340      .9500
  511.3020      .6100      .9380
  511.4544      .6100      .9400
  511.6068      .6100      .9470
  511.7592      .6100      .9710
  511.9116      .6100     1.0080
  512.0640      .6130     1.0450
  512.2164      .6180     1.0660
  512.3688      .6180     1.0740
  512.5212      .6290     1.0740
  512.6736      .6540     1.0740
  512.8260      .6890     1.0700
  512.9784      .7380     1.0640
  513.1308      .6200     1.0640
  513.2832      .6750     1.0730
  513.4356      .7020     1.1320
  513.5880      .7120     1.2690
  513.7404      .7120     1.3450
  513.8928      .7050     1.3570
  514.0452      .6900     1.3570
  514.1976      .6640     1.3320
  514.3500      .6160     1.2480
  514.5024      .5670     1.1550
  514.6548      .5300     1.0810
  514.8072      .5040     1.0380
  514.9596      .5870     1.0210
