~VERSION INFORMATION
VERS.                                                 2.0:   CWLS Log ASCII Standard-VERSION 2.0
WRAP.                                                  NO:   One line per depth step
~Well Information Block
STRT.M                                          1407.1092:   Top Depth
STOP.M                                          3062.9352:   Bottom Depth
STEP.M                                             .15240:   Depth Increment
NULL.                                            -999.250:   Null Value
FLD .                                          EEMSKANAAL:   Field Name
WELL.                                       EEMSKANAAL- 1:   NAME
EDF .m                                               5.58:   ELEV DRILL FLOOR
EPD .                                                   0:   ELEV PERM DATUM
EGL .m                                                -.9:   GROUND LEVEL
LMF .                                                  DF:   LOGS MEAS FROM
COMP.                                                 NAM:   OPERATOR
PDAT.                                                 NAP:   PERM DATUM
SPUD.                                          1970/11/08:   SPUD DATE
UWBI.                                      11000074112201:   UWBI
WELL.                                       EEMSKANAAL- 1:   HOLE NAME
~PARAMETER INFORMATION (log)
LNAM.                                RUN 03 RAW OH 9.625":   NAME
LTYP.                                                 03R:   LOG TYPE
LVSN.                                                   1:   LOG VERSION
BS  .5/8"                                               9:   BIT SIZE
BLI .M                                               3064:   BOTTOM DEPTH LOGGED
BHIS.                                            RCCCCCCC:   BRIEF HISTORY
FHIS.              RAW-TIGA/COPY/COPY/COPY/COPY/COPY/COPY:   FULL HISTORY
MRT .C                                                 98:   MAX REC TEMP
DFT .                                          SALT SPERS:   MUD TYPE
RMS .                                                    :   RM
MST .                                                    :   RM TEMP
RMCS.                                                    :   RMC
MCST.                                                    :   RMC TEMP
RMFS.                                                    :   RMF
MFST.                                                    :   RMF TEMP
TCS .                                               4 HRS:   TIME SINCE CIRCLN
TLI .M                                               1407:   TOP DEPTH LOGGED
~Curve Information Block
#MNEM.UNIT                                        API CODE    No Description
#=========                                        ========    == ===========
DEPT.M                                       00 001 00 00:     1  DEPTH
CALF.IN                                                  :     2  CALIPER FROM FORMATION DENSITY LOG
FDC.g/c3                                                 :     3  Formation Density Log (Compensated Open
GR.GAPI                                                  :     4  Gamma Ray
~ASCII
# ...
 1850.8980     9.7990     2.5550    83.3640
 1851.0504     9.8000     2.5340    84.6610
 1851.2028     9.8000     2.5170    82.6650
 1851.3552     9.8000     2.5100    78.3590
 1851.5076     9.8000     2.5120    80.0380
 1851.6600     9.8000     2.5110    81.9300
 1851.8124     9.8000     2.4980    81.3120
 1851.9648     9.8000     2.5110    82.8150
 1852.1172     9.8000     2.5150    87.5110
 1852.2696     9.8000     2.5020    89.6830
 1852.4220     9.8000     2.4830    88.8400
 1852.5744     9.8010     2.4790    86.9080
 1852.7268     9.8040     2.4810    87.6240
 1852.8792     9.8040     2.4930    87.2610
 1853.0316     9.8060     2.5120    86.4700
 1853.1840     9.8080     2.5250    88.3160
 1853.3364     9.8050     2.5260    89.1540
 1853.4888     9.8080     2.5170    87.2680
 1853.6412     9.8080     2.5390    83.3960
 1853.7936     9.8080     2.5800    84.0610
 1853.9460     9.8080     2.5690    84.1950
 1854.0984     9.8080     2.5250    88.8360
 1854.2508     9.8100     2.5170    89.0230
 1854.4032     9.8120     2.5040    90.2490
 1854.5556     9.8190     2.5040    93.7180
 1854.7080     9.8240     2.5220    94.1230
 1854.8604     9.8300     2.5320    91.6810
 1855.0128     9.8380     2.5500    89.9560
 1855.1652     9.8530     2.5610    88.5040
 1855.3176     9.8650     2.5620    89.2250
 1855.4700     9.8720     2.5280    86.1510
 1855.6224     9.8700     2.5310    82.2840
 1855.7748     9.8680     2.5380    81.4530
 1855.9272     9.8680     2.5540    83.7950
 1856.0796     9.8680     2.5670    86.8150
 1856.2320     9.8680     2.5770    86.9870
 1856.3844     9.8680     2.5850    86.0130
 1856.5368     9.8680     2.5790    86.2360
 1856.6892     9.8720     2.5710    86.5920
 1856.8416     9.8740     2.5650    85.6760
 1856.9940     9.8850     2.5510    83.9100
 1857.1464     9.8920     2.5340    83.8560
 1857.2988     9.9010     2.5400    87.5580
 1857.4512     9.9060     2.5280    88.2030
 1857.6036     9.9120     2.5140    87.9980
 1857.7560     9.9180     2.5070    86.6140
 1857.9084     9.9240     2.5020    86.3550
 1858.0608     9.9280     2.5040    85.2980
 1858.2132     9.9280     2.5300    86.2270
 1858.3656     9.9310     2.5470    86.1530
 1858.5180     9.9320     2.5670    83.0530
 1858.6704     9.9320     2.5460    79.0260
 1858.8228     9.9320     2.5280    78.8660
 1858.9752     9.9320     2.5270    80.8450
 1859.1276     9.9320     2.5350    82.8510
 1859.2800     9.9320     2.5410    83.5980
 1859.4324     9.9320     2.5450    80.9400
 1859.5848     9.9320     2.5410    81.2520
 1859.7372     9.9320     2.5300    82.8480
 1859.8896     9.9320     2.5280    83.5790
 1860.0420     9.9320     2.5130    82.1790
 1860.1944     9.9290     2.5150    79.0820
 1860.3468     9.9280     2.5140    76.5650
 1860.4992     9.9250     2.5100    75.3210
 1860.6516     9.9240     2.5310    74.4160
 1860.8040     9.9240     2.5230    77.8610
 1860.9564     9.9240     2.5230    77.5510
 1861.1088     9.9240     2.5360    76.1270
 1861.2612     9.9200     2.5250    79.7280
 1861.4136     9.9100     2.5390    82.5610
 1861.5660     9.9020     2.5460    84.6840
 1861.7184     9.8990     2.5510    82.6280
 1861.8708     9.8950     2.5560    83.3640
 1862.0232     9.8910     2.5550    88.4760
 1862.1756     9.8760     2.5740    88.9440
 1862.3280     9.8650     2.5700    85.6610
 1862.4804     9.8600     2.5500    82.4140
 1862.6328     9.8530     2.5340    82.4130
 1862.7852     9.8450     2.5200    82.8520
 1862.9376     9.8390     2.5280    81.1230
 1863.0900     9.8340     2.5470    74.6550
 1863.2424     9.8320     2.5550    72.1550
 1863.3948     9.8320     2.5770    74.9180
 1863.5472     9.8310     2.5850    76.7210
 1863.6996     9.8270     2.5880    77.6080
 1863.8520     9.8220     2.5910    77.6700
 1864.0044     9.8200     2.6030    75.5270
 1864.1568     9.8200     2.6060    73.6860
 1864.3092     9.8230     2.5930    73.8340
 1864.4616     9.8200     2.5700    76.0300
 1864.6140     9.8200     2.5520    77.0970
 1864.7664     9.8140     2.5390    73.3710
 1864.9188     9.8120     2.5280    73.5630
 1865.0712     9.8120     2.5190    75.9010
 1865.2236     9.8120     2.5120    77.7970
 1865.3760     9.8140     2.5090    76.7370
 1865.5284     9.8160     2.5060    76.7500
 1865.6808     9.8190     2.5030    76.0750
 1865.8332     9.8200     2.5180    74.1310
 1865.9856     9.8160     2.5220    73.1490
 1866.1380     9.8120     2.5050    73.7760
 1866.2904     9.8080     2.4960    75.2440
 1866.4428     9.8020     2.5100    75.7930
 1866.5952     9.7930     2.5120    75.7700
 1866.7476     9.7900     2.5200    77.0900
 1866.9000     9.7880     2.5360    79.4700
 1867.0524     9.7880     2.5380    81.5050
 1867.2048     9.7880     2.5330    82.3040
 1867.3572     9.7900     2.5000    82.6160
 1867.5096     9.7920     2.4910    82.4510
 1867.6620     9.7960     2.4920    88.0690
 1867.8144     9.8000     2.4800    91.7370
 1867.9668     9.8000     2.4690    91.1070
 1868.1192     9.8030     2.4760    93.0690
 1868.2716     9.8100     2.5010    92.5290
 1868.4240     9.8170     2.5210    91.0300
 1868.5764     9.8230     2.5190    89.5880
 1868.7288     9.8290     2.5200    85.2790
 1868.8812     9.8350     2.5300    80.4470
 1869.0336     9.8470     2.5330    78.5180
 1869.1860     9.8550     2.5340    78.3430
 1869.3384     9.8610     2.5320    81.2040
 1869.4908     9.8640     2.5380    83.5760
 1869.6432     9.8640     2.5410    84.4590
 1869.7956     9.8640     2.5410    84.5700
 1869.9480     9.8620     2.5520    84.5410
 1870.1004     9.8600     2.5620    84.3120
 1870.2528     9.8600     2.5620    83.4020
 1870.4052     9.8590     2.5550    83.9290
 1870.5576     9.8560     2.5480    82.0190
 1870.7100     9.8560     2.5550    82.1180
 1870.8624     9.8560     2.5700    87.5670
 1871.0148     9.8560     2.5550    90.5480
 1871.1672     9.8560     2.5280    91.0390
 1871.3196     9.8560     2.5230    89.3550
 1871.4720     9.8560     2.5270    87.2780
 1871.6244     9.8560     2.5290    83.8070
 1871.7768     9.8560     2.5340    82.4910
 1871.9292     9.8560     2.5370    85.2570
 1872.0816     9.8560     2.5290    88.4950
 1872.2340     9.8560     2.5170    87.4220
 1872.3864     9.8530     2.5090    88.3600
 1872.5388     9.8520     2.5080    87.5080
 1872.6912     9.8510     2.5020    86.1370
 1872.8436     9.8480     2.5050    89.3120
 1872.9960     9.8480     2.5010    92.7250
 1873.1484     9.8480     2.4970    93.9430
 1873.3008     9.8440     2.5210    92.3950
 1873.4532     9.8400     2.5320    88.6180
 1873.6056     9.8400     2.4940    87.0940
 1873.7580     9.8400     2.4870    86.1420
 1873.9104     9.8440     2.5000    86.2230
 1874.0628     9.8410     2.5000    85.5710
 1874.2152     9.8400     2.5280    83.5000
 1874.3676     9.8430     2.5500    80.8740
 1874.5200     9.8400     2.5620    84.5580
 1874.6724     9.8400     2.5590    85.9610
 1874.8248     9.8420     2.5530    83.8970
 1874.9772     9.8440     2.5560    88.0840
 1875.1296     9.8440     2.5430    91.0010
 1875.2820     9.8440     2.5010    89.9170
 1875.4344     9.8440     2.4920    86.4920
 1875.5868     9.8440     2.5070    88.2080
 1875.7392     9.8460     2.5130    91.5240
 1875.8916     9.8480     2.5000    93.8980
 1876.0440     9.8460     2.4830    91.7410
 1876.1964     9.8450     2.4840    87.1740
 1876.3488     9.8480     2.4890    88.7220
 1876.5012     9.8480     2.5410    86.5660
 1876.6536     9.8500     2.5850    84.7240
 1876.8060     9.8520     2.6050    82.0200
 1876.9584     9.8500     2.6150    75.3590
 1877.1108     9.8480     2.6380    71.4310
 1877.2632     9.8530     2.6230    69.5740
 1877.4156     9.8560     2.5730    69.8130
 1877.5680     9.8560     2.5720    69.0340
 1877.7204     9.8560     2.6010    67.8710
 1877.8728     9.8560     2.6150    67.4330
 1878.0252     9.8560     2.6230    68.6000
 1878.1776     9.8560     2.6160    68.7240
 1878.3300     9.8530     2.6360    66.5190
 1878.4824     9.8520     2.6700    63.9940
