~VERSION INFORMATION
VERS.                                                 2.0:   CWLS Log ASCII Standard-VERSION 2.0
WRAP.                                                  NO:   One line per depth step
~Well Information Block
STRT.M                                          1406.0424:   Top Depth
STOP.M                                          1903.9332:   Bottom Depth
STEP.M                                             .15240:   Depth Increment
NULL.                                            -999.250:   Null Value
FLD .                                          EEMSKANAAL:   Field Name
WELL.                                       EEMSKANAAL- 1:   NAME
EDF .m                                               5.58:   ELEV DRILL FLOOR
EPD .                                                   0:   ELEV PERM DATUM
EGL .m                                                -.9:   GROUND LEVEL
LMF .                                                  DF:   LOGS MEAS FROM
COMP.                                                 NAM:   OPERATOR
PDAT.                                                 NAP:   PERM DATUM
SPUD.                                          1970/11/08:   SPUD DATE
UWBI.                                      11000074112201:   UWBI
WELL.                                       EEMSKANAAL- 1:   HOLE NAME
~PARAMETER INFORMATION (log)
LNAM.                                RUN 07 RAW OH 9.625":   NAME
LTYP.                                                 07R:   LOG TYPE
LVSN.                                                   1:   LOG VERSION
BS  .5/8"                                               9:   BIT SIZE
BLI .M                                               2950:   BOTTOM DEPTH LOGGED
BHIS.                                            RCCCCCCC:   BRIEF HISTORY
FHIS.              RAW-TIGA/COPY/COPY/COPY/COPY/COPY/COPY:   FULL HISTORY
MRT .                                                    :   MAX REC TEMP
DFT .                                          SALT SPERS:   MUD TYPE
RMS .                                               0.074:   RM
MST .C                                                 26:   RM TEMP
RMCS.                                               0.144:   RMC
MCST.C                                                 17:   RMC TEMP
RMFS.                                               0.059:   RMF
MFST.C                                                 26:   RMF TEMP
TCS .                                                 N/A:   TIME SINCE CIRCLN
TLI .M                                             1406.5:   TOP DEPTH LOGGED
~Curve Information Block
#MNEM.UNIT                                        API CODE    No Description
#=========                                        ========    == ===========
DEPT.M                                       00 001 00 00:     1  DEPTH
LL9D.OHMM                                                :     2  Dual Laterolog 9 deep
LL9S.OHMM                                                :     3  Dual Laterolog 9 shallow
MSFL.OHMM                                                :     4  MICRO SPHERICALLY FOCUSSED LOG
~ASCII
# ...
 1794.3576     1.6450     1.5450     2.7710
 1794.5100     1.6990     1.6270     1.7950
 1794.6624     1.6970     1.6410     1.7500
 1794.8148     1.6390     1.5960     2.0330
 1794.9672     1.5210     1.5460     2.6130
 1795.1196     1.4840     1.5500     2.0270
 1795.2720     1.5530     1.6540     2.0290
 1795.4244     1.7420     1.8170     2.2150
 1795.5768     1.9430     1.9400     2.5560
 1795.7292     2.0250     1.9700     3.5140
 1795.8816     1.9880     1.9360     3.1190
 1796.0340     1.8620     1.8500     2.5730
 1796.1864     1.7120     1.7070     1.9790
 1796.3388     1.5800     1.5950     2.5180
 1796.4912     1.4880     1.5310     2.1540
 1796.6436     1.4840     1.5090     2.5430
 1796.7960     1.4870     1.5090     1.8540
 1796.9484     1.4910     1.5140     1.7180
 1797.1008     1.4960     1.5210     1.7580
 1797.2532     1.5280     1.5260     2.2090
 1797.4056     1.6010     1.5450     1.9270
 1797.5580     1.7410     1.6230     1.9800
 1797.7104     1.8780     1.8370     1.9310
 1797.8628     1.9570     2.0290     1.9770
 1798.0152     1.8920     1.9770     2.3670
 1798.1676     1.7540     1.7910     2.8250
 1798.3200     1.7040     1.7180     2.4960
 1798.4724     1.6800     1.7340     2.5730
 1798.6248     1.6920     1.8480     1.9360
 1798.7772     1.7860     2.0590     1.9860
 1798.9296     2.0310     2.2840     2.7590
 1799.0820     2.1540     2.1970     3.6340
 1799.2344     1.8050     1.8940     3.5030
 1799.3868     1.7620     1.8330     3.1750
 1799.5392     1.9080     1.9460     2.2660
 1799.6916     2.2630     2.2590     2.4350
 1799.8440     2.4170     2.5400     2.6570
 1799.9964     2.3480     2.6630     7.5060
 1800.1488     2.1090     2.5010     4.7880
 1800.3012     1.8900     2.3560     2.6360
 1800.4536     1.8070     2.2710     2.6620
 1800.6060     1.8070     2.2300     2.7130
 1800.7584     1.8840     2.2460     2.2810
 1800.9108     2.0410     2.3030     2.1580
 1801.0632     2.1770     2.3780     2.4010
 1801.2156     2.1750     2.3740     4.4190
 1801.3680     2.0830     2.2800     3.1230
 1801.5204     2.0480     2.2810     2.2280
 1801.6728     2.0980     2.3220     2.6560
 1801.8252     2.1130     2.2880     2.7520
 1801.9776     2.0160     2.2250     2.5210
 1802.1300     1.9660     2.1790     2.8910
 1802.2824     1.9350     2.1370     2.6160
 1802.4348     1.9290     2.1250     2.4300
 1802.5872     1.9300     2.1320     2.6880
 1802.7396     1.9720     2.1550     2.9400
 1802.8920     2.0440     2.1910     2.6430
 1803.0444     2.1100     2.2550     2.3470
 1803.1968     2.1580     2.2940     2.4260
 1803.3492     2.1270     2.2730     3.0720
 1803.5016     2.0570     2.1980     2.8670
 1803.6540     1.9600     2.0980     4.0730
 1803.8064     1.9050     2.0420     3.4490
 1803.9588     1.8800     2.0300     2.7010
 1804.1112     1.8800     2.0300     2.4180
 1804.2636     1.9770     2.0710     2.8860
 1804.4160     2.0810     2.1670     2.9320
 1804.5684     2.1040     2.2570     2.8720
 1804.7208     2.1020     2.2810     3.7380
 1804.8732     2.0880     2.2680     2.8300
 1805.0256     2.0860     2.2350     3.8020
 1805.1780     2.0910     2.2240     3.9220
 1805.3304     2.0910     2.2300     2.5790
 1805.4828     2.0520     2.2140     2.5700
 1805.6352     1.8770     2.1010     3.0000
 1805.7876     1.6890     1.9260     2.9800
 1805.9400     1.6010     1.7830     2.1640
 1806.0924     1.6360     1.7820     1.7460
 1806.2448     1.7830     1.9090     2.0380
 1806.3972     1.9380     2.0750     2.2120
 1806.5496     1.9650     2.0820     3.5450
 1806.7020     1.8980     2.0300     2.7140
 1806.8544     1.7900     1.9400     2.2830
 1807.0068     1.6990     1.8500     2.7570
 1807.1592     1.6460     1.8030     2.2790
 1807.3116     1.6320     1.7950     1.9010
 1807.4640     1.6370     1.8040     1.6700
 1807.6164     1.6540     1.8180     2.0670
 1807.7688     1.6530     1.8320     2.1950
 1807.9212     1.6320     1.8770     1.7610
 1808.0736     1.6590     1.9670     1.6870
 1808.2260     1.8130     2.0510     1.8430
 1808.3784     1.9110     2.1310     2.7240
 1808.5308     1.9650     2.1990     3.4140
 1808.6832     2.0160     2.2520     3.1340
 1808.8356     2.0700     2.2930     2.3790
 1808.9880     2.1300     2.3130     2.1520
 1809.1404     2.1930     2.3200     3.9150
 1809.2928     2.2690     2.3500     3.4900
 1809.4452     2.3700     2.4510     2.4520
 1809.5976     2.5040     2.6140     2.2090
 1809.7500     2.4900     2.6410     2.5770
 1809.9024     2.3380     2.3640     5.6870
 1810.0548     2.0190     2.0360     4.5410
 1810.2072     1.7490     1.8390     1.7870
 1810.3596     1.6210     1.7350     1.6910
 1810.5120     1.5520     1.6660     1.9990
 1810.6644     1.5170     1.6070     2.2960
 1810.8168     1.5030     1.5530     1.8810
 1810.9692     1.5040     1.5440     1.9490
 1811.1216     1.5350     1.5920     1.8900
 1811.2740     1.6690     1.6980     2.0090
 1811.4264     1.9060     1.9250     2.4690
 1811.5788     2.1340     2.1520     2.5080
 1811.7312     1.8930     2.0490     2.8420
 1811.8836     1.7720     1.8670     3.6920
 1812.0360     1.6580     1.6570     2.7730
 1812.1884     1.5290     1.4940     2.6610
 1812.3408     1.4750     1.4460     2.3630
 1812.4932     1.4650     1.4480     1.6510
 1812.6456     1.5340     1.5610     1.6490
 1812.7980     1.8110     1.8890     1.9300
 1812.9504     1.9900     1.8850     2.4880
 1813.1028     1.8810     1.7420     4.1150
 1813.2552     1.7330     1.6410     3.9130
 1813.4076     1.6170     1.4950     2.9970
 1813.5600     1.5380     1.4360     1.7750
 1813.7124     1.5440     1.4280     2.1300
 1813.8648     1.5760     1.4760     1.6530
 1814.0172     1.5560     1.4770     1.7040
 1814.1696     1.5120     1.4320     2.1360
 1814.3220     1.4440     1.3760     2.3210
 1814.4744     1.4040     1.3300     1.9800
 1814.6268     1.4030     1.3170     1.6620
 1814.7792     1.4070     1.3180     1.6800
 1814.9316     1.4030     1.3300     1.8200
 1815.0840     1.4020     1.3450     1.8260
 1815.2364     1.4020     1.3560     1.7590
 1815.3888     1.4020     1.3560     1.6160
 1815.5412     1.4070     1.3560     1.6930
 1815.6936     1.4000     1.3580     1.7650
 1815.8460     1.3960     1.3790     1.6620
 1815.9984     1.4050     1.4280     1.5880
 1816.1508     1.4950     1.5020     1.5970
 1816.3032     1.6110     1.5920     1.6680
 1816.4556     1.6500     1.6400     2.4390
 1816.6080     1.6150     1.6100     1.9250
 1816.7604     1.6010     1.5560     1.9500
 1816.9128     1.6230     1.5710     2.0250
 1817.0652     1.6880     1.6320     2.4250
 1817.2176     1.7610     1.7230     2.7600
 1817.3700     1.7960     1.7940     2.3060
 1817.5224     1.8080     1.8790     2.1560
 1817.6748     1.8120     1.9490     1.7370
 1817.8272     1.8000     1.9310     2.0160
 1817.9796     1.7250     1.8640     2.1790
 1818.1320     1.5440     1.7390     2.2400
 1818.2844     1.4440     1.5200     1.4850
 1818.4368     1.4260     1.4710     1.4520
 1818.5892     1.4380     1.5130     1.7870
 1818.7416     1.5050     1.6170     1.5920
 1818.8940     1.6540     1.9120     1.6800
 1819.0464     2.1460     2.1420     1.7180
 1819.1988     2.1930     2.2230     1.8310
 1819.3512     1.9440     2.1850     2.7640
 1819.5036     1.7680     1.9860     4.0450
 1819.6560     1.7260     1.8080     2.5490
 1819.8084     1.7490     1.8080     1.6170
 1819.9608     1.9280     2.0240     1.7530
 1820.1132     2.1480     2.2320     2.1840
 1820.2656     2.1800     2.2120     2.2520
 1820.4180     2.0990     2.0630     2.1770
 1820.5704     1.9370     1.9670     2.3590
 1820.7228     1.9130     1.9730     2.2720
 1820.8752     1.9720     2.2370     2.1040
 1821.0276     2.2650     2.3950     1.7820
 1821.1800     2.2580     2.3350     2.0520
 1821.3324     2.1070     2.2260     3.3260
 1821.4848     1.9520     2.1100     3.1190
 1821.6372     1.8110     1.9640     2.8670
 1821.7896     1.6000     1.8730     1.9710
 1821.9420     1.5460     1.8670     1.7300
