~VERSION INFORMATION
VERS.                                                 2.0:   CWLS Log ASCII Standard-VERSION 2.0
WRAP.                                                  NO:   One line per depth step
~Well Information Block
STRT.M                                           404.0124:   Top Depth
STOP.M                                          1403.9088:   Bottom Depth
STEP.M                                             .15240:   Depth Increment
NULL.                                            -999.250:   Null Value
FLD .                                          EEMSKANAAL:   Field Name
WELL.                                       EEMSKANAAL- 1:   NAME
EDF .m                                               5.58:   ELEV DRILL FLOOR
EPD .                                                   0:   ELEV PERM DATUM
EGL .m                                                -.9:   GROUND LEVEL
LMF .                                                  DF:   LOGS MEAS FROM
COMP.                                                 NAM:   OPERATOR
PDAT.                                                 NAP:   PERM DATUM
SPUD.                                          1970/11/08:   SPUD DATE
UWBI.                                      11000074112201:   UWBI
WELL.                                       EEMSKANAAL- 1:   HOLE NAME
~PARAMETER INFORMATION (log)
LNAM.                                RUN 01 RAW OH 14.75":   NAME
LTYP.                                                 01R:   LOG TYPE
LVSN.                                                   1:   LOG VERSION
BS  .3/4"                                              14:   BIT SIZE
BLI .M                                             1406.2:   BOTTOM DEPTH LOGGED
BHIS.                                            RCCCCCCC:   BRIEF HISTORY
FHIS.              RAW-TIGA/COPY/COPY/COPY/COPY/COPY/COPY:   FULL HISTORY
MRT .C                                                 50:   MAX REC TEMP
DFT .                                         CHALK WATER:   MUD TYPE
RMS .                                                1.44:   RM
MST .C                                                 11:   RM TEMP
RMCS.                                                1.93:   RMC
MCST.C                                                 19:   RMC TEMP
RMFS.                                               0.917:   RMF
MFST.C                                                 19:   RMF TEMP
TCS .                                                 N/A:   TIME SINCE CIRCLN
TLI .M                                              403.6:   TOP DEPTH LOGGED
~Curve Information Block
#MNEM.UNIT                                        API CODE    No Description
#=========                                        ========    == ===========
DEPT.M                                       00 001 00 00:     1  DEPTH
DILD.OHMM                                                :     2  DUAL INDUCTION LOG DEEP RESISTIVITY
SN.OHMM                                                  :     3  SHORT NORMAL
~ASCII
# ...
 1366.8756     3.0010     3.0320
 1367.0280     3.0040     3.0320
 1367.1804     3.0100     3.0350
 1367.3328     3.0130     3.0440
 1367.4852     3.0230     3.0460
 1367.6376     3.0320     3.0410
 1367.7900     3.0340     3.0320
 1367.9424     3.0410     3.0210
 1368.0948     3.0500     3.0120
 1368.2472     3.0560     3.0270
 1368.3996     3.0580     3.0580
 1368.5520     3.0640     3.0620
 1368.7044     3.0660     3.0610
 1368.8568     3.0660     3.0510
 1369.0092     3.0650     3.0150
 1369.1616     3.0520     2.9880
 1369.3140     3.0410     2.9680
 1369.4664     3.0250     2.9550
 1369.6188     3.0090     2.9480
 1369.7712     2.9820     2.9480
 1369.9236     2.9390     2.9490
 1370.0760     2.8810     2.9500
 1370.2284     2.8300     2.9470
 1370.3808     2.7790     2.9250
 1370.5332     2.7470     2.8930
 1370.6856     2.7370     2.8670
 1370.8380     2.7440     2.8480
 1370.9904     2.7500     2.8530
 1371.1428     2.7590     2.8710
 1371.2952     2.7740     2.8730
 1371.4476     2.7940     2.8450
 1371.6000     2.8220     2.8270
 1371.7524     2.8340     2.8270
 1371.9048     2.8460     2.8360
 1372.0572     2.8490     2.8440
 1372.2096     2.8440     2.8410
 1372.3620     2.8380     2.8290
 1372.5144     2.8250     2.8040
 1372.6668     2.8040     2.7610
 1372.8192     2.7750     2.7180
 1372.9716     2.7400     2.6870
 1373.1240     2.6980     2.6670
 1373.2764     2.6530     2.6520
 1373.4288     2.6150     2.6330
 1373.5812     2.5750     2.6070
 1373.7336     2.5270     2.5780
 1373.8860     2.4590     2.5440
 1374.0384     2.3840     2.4660
 1374.1908     2.3340     2.4110
 1374.3432     2.3130     2.3780
 1374.4956     2.3060     2.3730
 1374.6480     2.3060     2.3730
 1374.8004     2.3060     2.3670
 1374.9528     2.3140     2.3540
 1375.1052     2.3430     2.3540
 1375.2576     2.3720     2.3790
 1375.4100     2.4040     2.3830
 1375.5624     2.4400     2.3780
 1375.7148     2.4540     2.3870
 1375.8672     2.4600     2.4110
 1376.0196     2.4670     2.4310
 1376.1720     2.4780     2.4460
 1376.3244     2.4890     2.4770
 1376.4768     2.4970     2.5030
 1376.6292     2.5060     2.5140
 1376.7816     2.5190     2.5170
 1376.9340     2.5210     2.5210
 1377.0864     2.5240     2.5280
 1377.2388     2.5300     2.5310
 1377.3912     2.5360     2.5340
 1377.5436     2.5330     2.5360
 1377.6960     2.5280     2.5430
 1377.8484     2.5280     2.5530
 1378.0008     2.5220     2.5560
 1378.1532     2.5130     2.5560
 1378.3056     2.5060     2.5450
 1378.4580     2.4940     2.5310
 1378.6104     2.4810     2.5220
 1378.7628     2.4640     2.5160
 1378.9152     2.4440     2.5140
 1379.0676     2.4240     2.5240
 1379.2200     2.4100     2.5500
 1379.3724     2.4200     2.5560
 1379.5248     2.4650     2.5570
 1379.6772     2.5230     2.5960
 1379.8296     2.5570     2.6430
 1379.9820     2.5530     2.6460
 1380.1344     2.5280     2.6160
 1380.2868     2.4960     2.5830
 1380.4392     2.4720     2.5520
 1380.5916     2.4530     2.5250
 1380.7440     2.4210     2.5080
 1380.8964     2.3810     2.5020
 1381.0488     2.3520     2.4990
 1381.2012     2.3380     2.4850
 1381.3536     2.3960     2.4740
 1381.5060     2.4630     2.4730
 1381.6584     2.4920     2.4960
 1381.8108     2.5030     2.5480
 1381.9632     2.4960     2.6080
 1382.1156     2.4910     2.6240
 1382.2680     2.4880     2.6220
 1382.4204     2.4850     2.6140
 1382.5728     2.4740     2.5990
 1382.7252     2.4620     2.5890
 1382.8776     2.4560     2.5820
 1383.0300     2.4560     2.5820
 1383.1824     2.4560     2.5980
 1383.3348     2.4560     2.6240
 1383.4872     2.4560     2.6360
 1383.6396     2.4620     2.6340
 1383.7920     2.4750     2.6280
 1383.9444     2.4920     2.6210
 1384.0968     2.5140     2.6120
 1384.2492     2.5300     2.6100
 1384.4016     2.5380     2.6130
 1384.5540     2.5440     2.6350
 1384.7064     2.5570     2.6620
 1384.8588     2.5980     2.6840
 1385.0112     2.6450     2.7180
 1385.1636     2.6880     2.7430
 1385.3160     2.7240     2.7390
 1385.4684     2.7580     2.7440
 1385.6208     2.7920     2.7710
 1385.7732     2.8090     2.8080
 1385.9256     2.8100     2.8360
 1386.0780     2.7980     2.8510
 1386.2304     2.7650     2.8470
 1386.3828     2.7320     2.8030
 1386.5352     2.6870     2.7400
 1386.6876     2.6470     2.6710
 1386.8400     2.6060     2.6210
 1386.9924     2.5660     2.6080
 1387.1448     2.5180     2.6110
 1387.2972     2.5040     2.6160
 1387.4496     2.5080     2.6210
 1387.6020     2.5290     2.6260
 1387.7544     2.5700     2.6380
 1387.9068     2.6180     2.6450
 1388.0592     2.6480     2.6550
 1388.2116     2.6530     2.6680
 1388.3640     2.6420     2.6760
 1388.5164     2.6270     2.6720
 1388.6688     2.6080     2.6540
 1388.8212     2.5990     2.6220
 1388.9736     2.5930     2.5990
 1389.1260     2.5900     2.5930
 1389.2784     2.5840     2.5970
 1389.4308     2.5840     2.6100
 1389.5832     2.5840     2.6260
 1389.7356     2.5860     2.6440
 1389.8880     2.6010     2.6620
 1390.0404     2.6220     2.6720
 1390.1928     2.6300     2.6750
 1390.3452     2.6410     2.6740
 1390.4976     2.6540     2.6730
 1390.6500     2.6620     2.6750
 1390.8024     2.6620     2.6890
 1390.9548     2.6650     2.7190
 1391.1072     2.6700     2.7430
 1391.2596     2.6760     2.7520
 1391.4120     2.6980     2.7630
 1391.5644     2.7250     2.7790
 1391.7168     2.7530     2.8050
 1391.8692     2.7780     2.8360
 1392.0216     2.7990     2.8560
 1392.1740     2.8100     2.8530
 1392.3264     2.8200     2.8370
 1392.4788     2.8200     2.8190
 1392.6312     2.8200     2.7990
 1392.7836     2.8150     2.7740
 1392.9360     2.7890     2.7520
 1393.0884     2.7420     2.7340
 1393.2408     2.6770     2.7160
 1393.3932     2.6070     2.6950
 1393.5456     2.5610     2.6610
 1393.6980     2.5150     2.6110
 1393.8504     2.4820     2.5600
 1394.0028     2.4560     2.5260
 1394.1552     2.4400     2.5000
 1394.3076     2.4320     2.4700
 1394.4600     2.4320     2.4510
 1394.6124     2.4430     2.4540
 1394.7648     2.4870     2.4810
 1394.9172     2.5550     2.5120
 1395.0696     2.6160     2.5320
 1395.2220     2.6600     2.5610
 1395.3744     2.6800     2.6160
 1395.5268     2.6840     2.6700
 1395.6792     2.6780     2.6860
 1395.8316     2.6690     2.6800
 1395.9840     2.6540     2.6660
 1396.1364     2.6380     2.6430
 1396.2888     2.6160     2.6150
 1396.4412     2.5790     2.5920
 1396.5936     2.5230     2.5650
 1396.7460     2.4400     2.5280
 1396.8984     2.3610     2.4860
 1397.0508     2.2930     2.4420
 1397.2032     2.2490     2.4000
 1397.3556     2.2200     2.3500
 1397.5080     2.1950     2.2730
 1397.6604     2.1730     2.2230
 1397.8128     2.1640     2.2110
 1397.9652     2.1670     2.2240
 1398.1176     2.1810     2.2520
 1398.2700     2.2160     2.2760
 1398.4224     2.2860     2.3150
 1398.5748     2.3770     2.3900
 1398.7272     2.4600     2.4900
 1398.8796     2.5190     2.5490
 1399.0320     2.5570     2.5620
 1399.1844     2.5960     2.5700
 1399.3368     2.6220     2.5900
 1399.4892     2.6300     2.6090
 1399.6416     2.6250     2.6240
 1399.7940     2.6070     2.6280
 1399.9464     2.5920     2.6260
 1400.0988     2.5580     2.6130
 1400.2512     2.5140     2.5870
 1400.4036     2.4710     2.5560
 1400.5560     2.4310     2.5190
 1400.7084     2.3890     2.4690
 1400.8608     2.3680     2.3950
 1401.0132     2.3630     2.3620
 1401.1656     2.3770     2.3580
 1401.3180     2.4050     2.3790
 1401.4704     2.4490     2.4430
 1401.6228     2.4910     2.5000
 1401.7752     2.5210     2.5420
 1401.9276     2.5480     2.5700
 1402.0800     2.5520     2.5890
 1402.2324     2.5520     2.5830
 1402.3848     2.5540     2.5650
 1402.5372     2.5600     2.5650
 1402.6896     2.5600     2.5880
 1402.8420     2.5600     2.6180
 1402.9944     2.5600     2.6370
 1403.1468     2.5600     2.6360
 1403.2992     2.5600     2.5970
 1403.4516     2.5600     2.5660
 1403.6040     2.5560     2.5570
 1403.7564     2.5590     2.5580
