~VERSION INFORMATION
VERS.                                                 2.0:   CWLS Log ASCII Standard-VERSION 2.0
WRAP.                                                  NO:   One line per depth step
~Well Information Block
STRT.M                                          1406.0424:   Top Depth
STOP.M                                          1903.9332:   Bottom Depth
STEP.M                                             .15240:   Depth Increment
NULL.                                            -999.250:   Null Value
FLD .                                          EEMSKANAAL:   Field Name
WELL.                                       EEMSKANAAL- 1:   NAME
EDF .m                                               5.58:   ELEV DRILL FLOOR
EPD .                                                   0:   ELEV PERM DATUM
EGL .m                                                -.9:   GROUND LEVEL
LMF .                                                  DF:   LOGS MEAS FROM
COMP.                                                 NAM:   OPERATOR
PDAT.                                                 NAP:   PERM DATUM
SPUD.                                          1970/11/08:   SPUD DATE
UWBI.                                      11000074112201:   UWBI
WELL.                                       EEMSKANAAL- 1:   HOLE NAME
~PARAMETER INFORMATION (log)
LNAM.                                RUN 07 RAW OH 9.625":   NAME
LTYP.                                                 07R:   LOG TYPE
LVSN.                                                   1:   LOG VERSION
BS  .5/8"                                               9:   BIT SIZE
BLI .M                                               2950:   BOTTOM DEPTH LOGGED
BHIS.                                            RCCCCCCC:   BRIEF HISTORY
FHIS.              RAW-TIGA/COPY/COPY/COPY/COPY/COPY/COPY:   FULL HISTORY
MRT .                                                    :   MAX REC TEMP
DFT .                                          SALT SPERS:   MUD TYPE
RMS .                                               0.074:   RM
MST .C                                                 26:   RM TEMP
RMCS.                                               0.144:   RMC
MCST.C                                                 17:   RMC TEMP
RMFS.                                               0.059:   RMF
MFST.C                                                 26:   RMF TEMP
TCS .                                                 N/A:   TIME SINCE CIRCLN
TLI .M                                             1406.5:   TOP DEPTH LOGGED
~Curve Information Block
#MNEM.UNIT                                        API CODE    No Description
#=========                                        ========    == ===========
DEPT.M                                       00 001 00 00:     1  DEPTH
LL9D.OHMM                                                :     2  Dual Laterolog 9 deep
LL9S.OHMM                                                :     3  Dual Laterolog 9 shallow
MSFL.OHMM                                                :     4  MICRO SPHERICALLY FOCUSSED LOG
~ASCII
# ...
 1877.5680     2.4700     2.2810     3.0720
 1877.7204     2.8660     2.4190     3.0300
 1877.8728     3.0170     2.8680     3.0980
 1878.0252     2.9150     2.8920     4.0640
 1878.1776     2.5440     2.6670     6.7120
 1878.3300     1.9970     2.2060     5.1660
 1878.4824     1.7140     1.7290     3.1020
 1878.6348     1.6210     1.6210     2.6400
 1878.7872     1.6310     1.6050     2.3740
 1878.9396     1.6870     1.6290     2.3180
 1879.0920     1.7340     1.6620     2.4170
 1879.2444     1.7090     1.6450     2.6630
 1879.3968     1.6260     1.5440     2.4260
 1879.5492     1.5890     1.4590     2.0230
 1879.7016     1.5900     1.4110     1.8080
 1879.8540     1.6050     1.4020     1.8660
 1880.0064     1.6350     1.4130     1.9740
 1880.1588     1.6870     1.4600     2.1960
 1880.3112     1.8270     1.6220     2.9560
 1880.4636     2.0040     1.7580     3.2690
 1880.6160     2.0640     1.8230     3.2840
 1880.7684     2.0370     1.8400     3.3740
 1880.9208     1.9370     1.7820     3.1670
 1881.0732     1.7040     1.5720     2.5840
 1881.2256     1.5000     1.4010     2.5330
 1881.3780     1.4710     1.3160     1.9190
 1881.5304     1.4810     1.3210     1.7680
 1881.6828     1.5320     1.3680     1.8640
 1881.8352     1.6250     1.4460     2.1460
 1881.9876     1.7580     1.5290     2.2240
 1882.1400     1.9050     1.6490     2.3750
 1882.2924     2.0260     1.7560     2.2130
 1882.4448     2.1500     1.8500     2.4410
 1882.5972     2.2190     1.9180     2.9320
 1882.7496     2.2130     1.9330     2.9680
 1882.9020     2.1310     1.9250     3.1250
 1883.0544     1.9860     1.8540     2.6050
 1883.2068     1.7920     1.7110     2.2100
 1883.3592     1.6450     1.5660     2.1940
 1883.5116     1.5360     1.4520     1.5070
 1883.6640     1.4740     1.4050     1.4920
 1883.8164     1.4240     1.3940     1.7580
 1883.9688     1.4100     1.4000     1.6090
 1884.1212     1.4260     1.4220      .4090
 1884.2736     1.4820     1.4650      .4750
 1884.4260     1.5190     1.5420      .9330
 1884.5784     1.5120     1.6190      .8170
 1884.7308     1.4490     1.6550      .8190
 1884.8832     1.3760     1.6450     1.0990
 1885.0356     1.3370     1.5430     1.0500
 1885.1880     1.4540     1.5190      .9760
 1885.3404     1.7300     1.7830      .9880
 1885.4928     2.2340     2.2720      .8810
 1885.6452     3.1440     3.8830     1.7020
 1885.7976     5.1910     8.3760    30.6360
 1885.9500    27.2210    30.8530    67.7710
 1886.1024    42.3010    42.1460   224.5430
 1886.2548    19.9420    31.9280   170.5360
 1886.4072     6.1320    21.0450     9.2680
 1886.5596     5.3670     5.4700      .6210
 1886.7120     5.1810     5.2690      .3250
 1886.8644     5.3140     5.5220      .2770
 1887.0168     7.2400     8.3960      .3800
 1887.1692     8.8000    11.4120      .2870
 1887.3216     9.4900    11.9740      .4000
 1887.4740     9.2190    10.4000      .3470
 1887.6264     8.7820     9.5880      .2580
 1887.7788     8.8040     9.4450      .3420
 1887.9312     9.2200     9.5570      .8560
 1888.0836     9.9430    10.1730     1.8590
 1888.2360    10.9580    11.3720     5.8980
 1888.3884    12.6350    13.1370     7.4640
 1888.5408    16.3670    16.2370     4.6210
 1888.6932    19.8840    20.3110     5.8000
 1888.8456    19.6920    18.9020     7.4360
 1888.9980    17.0350    16.0760     8.2520
 1889.1504    16.2940    16.3560     5.9530
 1889.3028    17.3510    21.7930     2.3640
 1889.4552    39.4110    32.2100     2.6010
 1889.6076    62.5740    53.0890     6.3690
 1889.7600    66.1970    57.1850     6.6050
 1889.9124    69.7720    53.8750     4.3600
 1890.0648    76.4790    54.4230    10.3840
 1890.2172   129.4290    58.5670     8.6800
 1890.3696  1620.5470    99.5590    17.4640
 1890.5220  2235.3269   455.5450    13.9660
 1890.6744  2235.2529   620.5790     2.1340
 1890.8268  2235.7810   686.6660     4.1990
 1890.9792  2235.7810   813.0000   176.0520
 1891.1316  2235.7810  1140.9270   987.5700
 1891.2840  2235.7810  1093.2300   348.7820
 1891.4364  2234.2820   903.9790     2.8690
 1891.5888  2231.6641   923.8650    10.9080
 1891.7412  2232.5100  1087.0640  1931.4000
 1891.8936  2235.6489  1168.8361   161.9050
 1892.0460  2235.7810   963.7030    30.4210
 1892.1984  2235.7810   998.6490    48.0960
 1892.3508  2237.8770  1619.0090    57.3900
 1892.5032  2240.0381  2187.4509   124.3500
 1892.6556  2244.0310  2275.2771  2113.4829
 1892.8080  2244.0310  2289.9690   326.7710
 1892.9604  2244.0310  2292.5171    39.5270
 1893.1128  2244.0310  2293.6479   301.7060
 1893.2652  2241.3420  2294.0991  2074.2251
 1893.4176  2242.3320  2312.0371    22.9600
 1893.5700  1972.5510  2021.3280     4.4990
 1893.7224  1867.0640  1905.5090     5.2410
 1893.8748  2172.6389  2183.4971  1514.2810
 1894.0272  2264.0339  2272.0149  1524.7590
 1894.1796  2293.2671  2305.9729     9.4940
 1894.3320  2332.3770  2316.9570   183.4930
 1894.4844  2341.1479  2277.3140   854.1410
 1894.6368  2098.6980  2108.0811    10.3810
 1894.7892  2052.9099  2068.2461     5.7050
 1894.9416  2251.1311  2307.0090     5.2490
 1895.0940  2276.7151  2332.7981     7.9200
 1895.2464  2285.7500  2320.9880    43.0640
 1895.3988  2281.5969  2311.2319    97.5250
 1895.5512  2275.2000  2306.8550    24.0740
 1895.7036   802.7130   832.9690    25.7440
 1895.8560   753.4540   745.2500    13.4030
 1896.0084   912.6280   978.6100    14.7210
 1896.1608  2295.9351  2323.0439     6.0940
 1896.3132  1930.6520  1321.7240    12.2200
 1896.4656   626.8960   577.5410    13.4680
 1896.6180   187.2140   191.7060  2163.1990
 1896.7704    35.8800    67.9780   657.0660
 1896.9228    25.9470    28.7680    17.3530
 1897.0752    22.0430    19.8780    22.1970
 1897.2276    21.0360    18.4780     3.2460
 1897.3800    21.5660    20.8230     3.9500
 1897.5324    24.9900    22.6210    12.8440
 1897.6848    24.9970    22.2850     5.8540
 1897.8372    24.4470    22.6140     3.5680
 1897.9896    25.1440    24.2810     1.1840
 1898.1420    27.7560    25.2440     1.4280
 1898.2944    28.3810    20.9860     4.9590
 1898.4468    24.3230    20.1330     4.5850
 1898.5992    23.8250    20.0370    10.8010
 1898.7516    25.5470    21.7580     5.8550
 1898.9040    30.9400    28.3390     1.3380
 1899.0564    60.8850    48.9890    14.3040
 1899.2088    70.2710    52.8250    47.8750
 1899.3612    50.3680    35.8410    50.7270
 1899.5136    32.3300    25.6080    14.0640
 1899.6660    32.6230    26.2250    10.1210
 1899.8184    35.3100    35.0850     6.8910
 1899.9708    54.8360    62.0810    63.5300
 1900.1232    75.9130    57.7810    81.3500
 1900.2756    79.2930    28.8430    42.5170
 1900.4280    44.3370    29.1390    25.3460
 1900.5804    43.5700    35.8420    29.1810
 1900.7328    44.6410    38.0730    16.9780
 1900.8852    55.2550    46.1050     3.0870
 1901.0376    74.1350    64.2970     9.1460
 1901.1900    90.1300    79.5350    31.1280
 1901.3424   113.5420   103.4070    58.5120
 1901.4948   158.4560   126.0950    27.3330
 1901.6472   221.8630   204.1210    40.7040
 1901.7996   324.9680   308.9760    35.9410
 1901.9520   597.3420   413.2490    14.9560
 1902.1044   601.9430   433.6090   311.7870
 1902.2568   464.9510   348.1040  1484.0730
 1902.4092   232.3940   246.7630    60.5520
 1902.5616   176.7240   174.8670   121.3010
 1902.7140   163.0190   160.1830  2109.1599
 1902.8664   163.6150   175.5030  2071.6760
 1903.0188   199.0820   232.5450     8.1870
 1903.1712   222.9690   246.4160     9.9650
 1903.3236   212.4640   198.4340    27.2070
 1903.4760   130.1340   117.9210   193.2210
 1903.6284    81.2180    76.5530  1494.7960
 1903.7808    57.2980    53.3210    20.1920
 1903.9332    45.2260    45.6830    23.5600
