~VERSION INFORMATION
VERS.                                                 2.0:   CWLS Log ASCII Standard-VERSION 2.0
WRAP.                                                  NO:   One line per depth step
~Well Information Block
STRT.M                                          1407.1092:   Top Depth
STOP.M                                          3062.9352:   Bottom Depth
STEP.M                                             .15240:   Depth Increment
NULL.                                            -999.250:   Null Value
FLD .                                          EEMSKANAAL:   Field Name
WELL.                                       EEMSKANAAL- 1:   NAME
EDF .m                                               5.58:   ELEV DRILL FLOOR
EPD .                                                   0:   ELEV PERM DATUM
EGL .m                                                -.9:   GROUND LEVEL
LMF .                                                  DF:   LOGS MEAS FROM
COMP.                                                 NAM:   OPERATOR
PDAT.                                                 NAP:   PERM DATUM
SPUD.                                          1970/11/08:   SPUD DATE
UWBI.                                      11000074112201:   UWBI
WELL.                                       EEMSKANAAL- 1:   HOLE NAME
~PARAMETER INFORMATION (log)
LNAM.                                RUN 03 RAW OH 9.625":   NAME
LTYP.                                                 03R:   LOG TYPE
LVSN.                                                   1:   LOG VERSION
BS  .5/8"                                               9:   BIT SIZE
BLI .M                                               3064:   BOTTOM DEPTH LOGGED
BHIS.                                            RCCCCCCC:   BRIEF HISTORY
FHIS.              RAW-TIGA/COPY/COPY/COPY/COPY/COPY/COPY:   FULL HISTORY
MRT .C                                                 98:   MAX REC TEMP
DFT .                                          SALT SPERS:   MUD TYPE
RMS .                                                    :   RM
MST .                                                    :   RM TEMP
RMCS.                                                    :   RMC
MCST.                                                    :   RMC TEMP
RMFS.                                                    :   RMF
MFST.                                                    :   RMF TEMP
TCS .                                               4 HRS:   TIME SINCE CIRCLN
TLI .M                                               1407:   TOP DEPTH LOGGED
~Curve Information Block
#MNEM.UNIT                                        API CODE    No Description
#=========                                        ========    == ===========
DEPT.M                                       00 001 00 00:     1  DEPTH
CALF.IN                                                  :     2  CALIPER FROM FORMATION DENSITY LOG
FDC.g/c3                                                 :     3  Formation Density Log (Compensated Open
GR.GAPI                                                  :     4  Gamma Ray
~ASCII
# ...
 2710.7388    10.1450     2.9090     6.8190
 2710.8912    10.1450     2.9070     6.5240
 2711.0436    10.1450     2.9180     6.1230
 2711.1960    10.1450     2.9380     5.2760
 2711.3484    10.1450     2.9570     4.6900
 2711.5008    10.1450     2.9810     4.3630
 2711.6532    10.1430     2.9590     4.0090
 2711.8056    10.1410     2.9340     4.1620
 2711.9580    10.1450     2.9360     5.0520
 2712.1104    10.1490     2.9360     5.7660
 2712.2628    10.1530     2.9540     5.9900
 2712.4152    10.1530     2.9400     6.2160
 2712.5676    10.1500     2.9170     6.6130
 2712.7200    10.1480     2.9240     7.2840
 2712.8724    10.1450     2.9170     8.1370
 2713.0248    10.1450     2.9160     7.1640
 2713.1772    10.1480     2.9480     6.2190
 2713.3296    10.1500     2.9570     6.0470
 2713.4820    10.1560     2.9640     6.7430
 2713.6344    10.1690     2.9700     7.0610
 2713.7868    10.1830     2.9790     7.2700
 2713.9392    10.1930     2.9640     8.1180
 2714.0916    10.1970     2.9600     8.3490
 2714.2440    10.1970     2.9720     7.8810
 2714.3964    10.1970     2.9760     8.8980
 2714.5488    10.1960     2.9580     9.6700
 2714.7012    10.1920     2.9320    10.5060
 2714.8536    10.1890     2.9110    11.2970
 2715.0060    10.1880     2.9300    11.5030
 2715.1584    10.1870     2.9320    10.5130
 2715.3108    10.1930     2.9260     9.4150
 2715.4632    10.1930     2.9080     9.6210
 2715.6156    10.1880     2.9130     9.0400
 2715.7680    10.1790     2.9520     8.3230
 2715.9204    10.1740     2.9450     8.3700
 2716.0728    10.1490     2.9450     8.9110
 2716.2252    10.1390     2.9570     8.4910
 2716.3776    10.1410     2.9560     9.4950
 2716.5300    10.1420     2.9630    10.1400
 2716.6824    10.1450     2.9520    10.1280
 2716.8348    10.1470     2.9370    11.0900
 2716.9872    10.1450     2.9380    10.7610
 2717.1396    10.1490     2.9170     9.1690
 2717.2920    10.1490     2.9280     8.1660
 2717.4444    10.1490     2.9270     8.0400
 2717.5968    10.1450     2.9410     8.1560
 2717.7492    10.1430     2.9310     9.1300
 2717.9016    10.1450     2.9350    10.1440
 2718.0540    10.1450     2.9330    10.3800
 2718.2064    10.1450     2.9400    10.4730
 2718.3588    10.1450     2.9490    11.4320
 2718.5112    10.1450     2.9680    12.8530
 2718.6636    10.1380     2.9680    12.3210
 2718.8160    10.1210     2.9330    10.7630
 2718.9684    10.1210     2.9250     9.3870
 2719.1208    10.1220     2.9390     8.0800
 2719.2732    10.1280     2.9400     6.8970
 2719.4256    10.1280     2.9510     7.6700
 2719.5780    10.1160     2.9410     8.9970
 2719.7304    10.0700     2.9350     9.7970
 2719.8828     9.8880     2.9640    10.4450
 2720.0352     9.7900     2.9780    10.9900
 2720.1876     9.8180     2.9650    12.3590
 2720.3400     9.7460     2.9750    10.5630
 2720.4924     9.7370     2.9890     9.0070
 2720.6448     9.7370     3.0070     8.3810
 2720.7972     9.7340     3.0140     9.2300
 2720.9496     9.7320     2.9930     9.2350
 2721.1020     9.7210     2.9510     9.9170
 2721.2544     9.7130     2.9440    10.5840
 2721.4068     9.7010     2.9520     9.5670
 2721.5592     9.6840     2.9640     8.5580
 2721.7116     9.6730     2.9860     8.6570
 2721.8640     9.6770     3.0140     9.2360
 2722.0164     9.6820     3.0130     9.6390
 2722.1688     9.6830     2.9740    10.1390
 2722.3212     9.6820     2.9810    10.9850
 2722.4736     9.6900     2.9710    11.2800
 2722.6260     9.6930     2.9490    10.9990
 2722.7784     9.6830     2.9360    10.6410
 2722.9308     9.6800     2.9430    10.9380
 2723.0832     9.6670     2.9230    10.9300
 2723.2356     9.6400     2.9110    10.8990
 2723.3880     9.6250     2.9120    10.8070
 2723.5404     9.6200     2.9200    11.1830
 2723.6928     9.5900     2.9360    10.8790
 2723.8452     9.5790     2.9480     9.5900
 2723.9976     9.5770     2.9700     8.7580
 2724.1500     9.5830     2.9560     8.5650
 2724.3024     9.5890     2.9540     9.4150
 2724.4548     9.5910     2.9540    10.9350
 2724.6072     9.5980     2.9470    11.5000
 2724.7596     9.6050     2.9240    10.3340
 2724.9120     9.6030     2.9260     9.5840
 2725.0644     9.5980     2.9230     9.1670
 2725.2168     9.5970     2.9170     8.3920
 2725.3692     9.5970     2.9020     8.0680
 2725.5216     9.6010     2.9020     8.5940
 2725.6740     9.6010     2.8980     9.7270
 2725.8264     9.6020     2.9200     9.2480
 2725.9788     9.6080     2.9300     8.6820
 2726.1312     9.6160     2.9630     8.5850
 2726.2836     9.6410     2.9800     8.9060
 2726.4360     9.6750     2.9900     9.9650
 2726.5884     9.7040     2.9690    10.6130
 2726.7408     9.7130     2.9430    11.2800
 2726.8932     9.6660     2.9120    12.9610
 2727.0456     9.6450     2.9470    14.8570
 2727.1980     9.6370     2.9580    15.9000
 2727.3504     9.6360     2.9700    14.5820
 2727.5028     9.6370     2.9540    12.6740
 2727.6552     9.6370     2.9510    11.1960
 2727.8076     9.6420     2.9510    10.4930
 2727.9600     9.6490     2.9230    10.4640
 2728.1124     9.6490     2.9070     9.8050
 2728.2648     9.6490     2.9150     8.5560
 2728.4172     9.6490     2.9300     9.3790
 2728.5696     9.6490     2.9410     9.6270
 2728.7220     9.6490     2.9350     8.6220
 2728.8744     9.6490     2.9160     8.7440
 2729.0268     9.6410     2.9230     9.0920
 2729.1792     9.6040     2.9290     8.9420
 2729.3316     9.5860     2.9540     9.0940
 2729.4840     9.5810     2.9540     9.4060
 2729.6364     9.5810     2.9540     8.8960
 2729.7888     9.5810     2.9690     9.2060
 2729.9412     9.5810     2.9820     8.6000
 2730.0936     9.5810     2.9530     8.4710
 2730.2460     9.5810     2.9520     8.7370
 2730.3984     9.5810     2.9390     9.0570
 2730.5508     9.5770     2.9280     8.7870
 2730.7032     9.5770     2.9350     8.1630
 2730.8556     9.5770     2.9500     8.3330
 2731.0080     9.5770     2.9700     7.9760
 2731.1604     9.5790     2.9460     7.0480
 2731.3128     9.5770     2.9240     6.3910
 2731.4652     9.5770     2.9280     5.9820
 2731.6176     9.5820     2.9320     6.3640
 2731.7700     9.5910     2.9500     7.7010
 2731.9224     9.6290     2.9360     8.9680
 2732.0748     9.6240     2.9430     9.9660
 2732.2272     9.6130     2.9610    10.7440
 2732.3796     9.5920     2.9900    11.5560
 2732.5320     9.5570     2.9500    12.8270
 2732.6844     9.5310     2.9000    14.4130
 2732.8368     9.5190     2.9110    13.3240
 2732.9892     9.4980     2.9130    13.2370
 2733.1416     9.4750     2.9220    12.2220
 2733.2940     9.4570     2.9260    12.1680
 2733.4464     9.4630     2.9440    13.5740
 2733.5988     9.4730     2.9190    15.4770
 2733.7512     9.4770     2.9200    16.6070
 2733.9036     9.4840     2.8990    16.6220
 2734.0560     9.4890     2.8670    18.6590
 2734.2084     9.4890     2.8430    20.7740
 2734.3608     9.4890     2.8320    22.8180
 2734.5132     9.4940     2.8060    21.3410
 2734.6656     9.5000     2.7550    18.8840
 2734.8180     9.5010     2.7140    16.8800
 2734.9704     9.5010     2.7340    16.1560
 2735.1228     9.5010     2.7800    18.0780
 2735.2752     9.5010     2.8220    20.3730
 2735.4276     9.5020     2.8220    22.6210
 2735.5800     9.5050     2.7770    22.0710
 2735.7324     9.5090     2.7600    20.5740
 2735.8848     9.5200     2.7790    18.6760
 2736.0372     9.5390     2.8250    16.7040
 2736.1896     9.5480     2.8380    16.1620
 2736.3420     9.5610     2.8420    16.8480
 2736.4944     9.5740     2.8610    14.5790
 2736.6468     9.5890     2.8480    12.1980
 2736.7992     9.6000     2.8540    11.8930
 2736.9516     9.6060     2.8870    12.8040
 2737.1040     9.6130     2.9110    13.3210
 2737.2564     9.6250     2.9200    12.4590
 2737.4088     9.6350     2.9190    10.9720
 2737.5612     9.6460     2.9270     9.5690
 2737.7136     9.6610     2.9920     8.6660
 2737.8660     9.6720     3.0150     9.6070
 2738.0184     9.6560     2.9960    11.7980
 2738.1708     9.6190     2.9730    13.8980
 2738.3232     9.6250     2.9700    14.8090
