~VERSION INFORMATION
VERS.                                                 2.0:   CWLS Log ASCII Standard-VERSION 2.0
WRAP.                                                  NO:   One line per depth step
~Well Information Block
STRT.M                                          1789.0236:   Top Depth
STOP.M                                          2779.9284:   Bottom Depth
STEP.M                                             .15240:   Depth Increment
NULL.                                            -999.250:   Null Value
FLD .                                          EEMSKANAAL:   Field Name
WELL.                                       EEMSKANAAL- 2:   NAME
APD .M                                               5.62:   ABOVE PERM DATUM
CTRY.                                                  NE:   COUNTRY
EDF .m                                               5.62:   ELEV DRILL FLOOR
EPD .                                                   0:   ELEV PERM DATUM
EGL .m                                              -1.06:   GROUND LEVEL
LMF .                                                  DF:   LOGS MEAS FROM
COMP.                                                 NAM:   OPERATOR
PDAT.                                                 NAP:   PERM DATUM
SPUD.                                          1971/03/17:   SPUD DATE
STAT.                                           Unknown m:   STATE
UWBI.                                      11000074112601:   UWBI
WELL.                                       EEMSKANAAL- 2:   HOLE NAME
~PARAMETER INFORMATION (log)
LNAM.                                RUN 01 RAW OH 9 5/8":   NAME
LTYP.                                                 01R:   LOG TYPE
LVSN.                                                   1:   LOG VERSION
BS  .5/8"                                               9:   BIT SIZE
BLI .M                                             2778.0:   BOTTOM DEPTH LOGGED
BHIS.                                                MCCC:   BRIEF HISTORY
FHIS.                                     MERGE/COPY/COPY:   FULL HISTORY
MRT .DEGC                                              84:   MAX REC TEMP
DFD .G/CC                                            1.54:   MUD DENSITY
DFT .                                   SALT SAT SPERSENE:   MUD TYPE
RMS .                                                    :   RM
MST .                                                    :   RM TEMP
RMCS.                                                    :   RMC
MCST.                                                    :   RMC TEMP
RMFS.                                                    :   RMF
MFST.                                                    :   RMF TEMP
TCS .                                                 N/A:   TIME SINCE CIRCLN
TLI .M                                             1800.0:   TOP DEPTH LOGGED
~Curve Information Block
#MNEM.UNIT                                        API CODE    No Description
#=========                                        ========    == ===========
DEPT.M                                       00 001 00 00:     1  DEPTH
CALF.IN                                                  :     2  CALIPER FROM FORMATION DENSITY LOG
FDC.G/C3                                                 :     3  Formation Density Log (Compensated Open
GR.API                                                   :     4  Gamma Ray
~ASCII
# ...
 2205.0756     9.7040     2.0700     4.6340
 2205.2280     9.7030     2.0640     4.6500
 2205.3804     9.7020     2.0580     4.5780
 2205.5328     9.7000     2.0550     4.5200
 2205.6852     9.6980     2.0560     4.4360
 2205.8376     9.6980     2.0610     4.2370
 2205.9900     9.6980     2.0580     3.9500
 2206.1424     9.7010     2.0700     3.7050
 2206.2948     9.7040     2.0700     3.5740
 2206.4472     9.7050     2.0660     3.5040
 2206.5996     9.7030     2.0590     3.4650
 2206.7520     9.7060     2.0600     3.4650
 2206.9044     9.7060     2.0630     3.5650
 2207.0568     9.7060     2.0640     3.8910
 2207.2092     9.7060     2.0640     4.6400
 2207.3616     9.7060     2.0750     4.8590
 2207.5140     9.7060     2.0820     5.1980
 2207.6664     9.7070     2.0860     5.2500
 2207.8188     9.7100     2.0880     5.4390
 2207.9712     9.7130     2.0740     5.4390
 2208.1236     9.7150     2.0680     4.9730
 2208.2760     9.7170     2.0590     4.6070
 2208.4284     9.7190     2.0520     4.3800
 2208.5808     9.7220     2.0530     4.4260
 2208.7332     9.7220     2.0600     3.8660
 2208.8856     9.7220     2.0610     4.3210
 2209.0380     9.7220     2.0580     4.7790
 2209.1904     9.7220     2.0500     4.6070
 2209.3428     9.7220     2.0610     4.3740
 2209.4952     9.7220     2.0580     4.2910
 2209.6476     9.7240     2.0550     4.2450
 2209.8000     9.7260     2.0580     4.2450
 2209.9524     9.7270     2.0640     4.2140
 2210.1048     9.7290     2.0690     4.0140
 2210.2572     9.7320     2.0770     3.9190
 2210.4096     9.7340     2.0920     4.1810
 2210.5620     9.7370     2.0750     4.4620
 2210.7144     9.7380     2.0710     4.3880
 2210.8668     9.7380     2.0730     4.1200
 2211.0192     9.7380     2.0750     3.8370
 2211.1716     9.7380     2.0680     4.0180
 2211.3240     9.7360     2.0630     4.4230
 2211.4764     9.7340     2.0650     3.8740
 2211.6288     9.7340     2.0730     3.6460
 2211.7812     9.7340     2.0720     4.1520
 2211.9336     9.7340     2.0820     3.4160
 2212.0860     9.7360     2.0830     4.4530
 2212.2384     9.7380     2.0810     4.9640
 2212.3908     9.7380     2.0710     4.6990
 2212.5432     9.7380     2.0650     4.5820
 2212.6956     9.7380     2.0630     4.7070
 2212.8480     9.7380     2.0530     4.4870
 2213.0004     9.7380     2.0550     4.5930
 2213.1528     9.7380     2.0580     5.5520
 2213.3052     9.7380     2.0550     5.4010
 2213.4576     9.7370     2.0580     4.3540
 2213.6100     9.7350     2.0650     4.0830
 2213.7624     9.7380     2.0560     4.5820
 2213.9148     9.7380     2.0550     4.7150
 2214.0672     9.7380     2.0670     4.4450
 2214.2196     9.7380     2.0650     4.4250
 2214.3720     9.7380     2.0560     4.4680
 2214.5244     9.7380     2.0630     4.5960
 2214.6768     9.7380     2.0690     4.9840
 2214.8292     9.7380     2.0750     5.4630
 2214.9816     9.7380     2.0790     6.3610
 2215.1340     9.7360     2.0810     7.4170
 2215.2864     9.7300     2.0830     9.8760
 2215.4388     9.7290     2.0770    14.3510
 2215.5912     9.7280     2.0680    16.8620
 2215.7436     9.7320     2.0580     7.8080
 2215.8960     9.7380     2.0650     4.5060
 2216.0484     9.7420     2.0690     3.7610
 2216.2008     9.7450     2.0760     4.3550
 2216.3532     9.7460     2.0670     5.0000
 2216.5056     9.7450     2.0660     4.7080
 2216.6580     9.7400     2.0740     4.3900
 2216.8104     9.7360     2.0660     4.5300
 2216.9628     9.7340     2.0650     4.6340
 2217.1152     9.7340     2.0840     5.1050
 2217.2676     9.7340     2.0910     5.5570
 2217.4200     9.7340     2.0830     5.8140
 2217.5724     9.7350     2.0820     5.9100
 2217.7248     9.7380     2.0820     5.8090
 2217.8772     9.7380     2.0840     5.5680
 2218.0296     9.7340     2.0860     5.0600
 2218.1820     9.7300     2.0830     4.5880
 2218.3344     9.7270     2.0830     4.5000
 2218.4868     9.7320     2.0800     4.6600
 2218.6392     9.7370     2.0840     4.9160
 2218.7916     9.7380     2.0820     5.3000
 2218.9440     9.7380     2.0810     5.4560
 2219.0964     9.7380     2.0850     5.5330
 2219.2488     9.7380     2.0830     5.5060
 2219.4012     9.7380     2.0820     4.8480
 2219.5536     9.7310     2.0810     3.6420
 2219.7060     9.7250     2.0850     3.3410
 2219.8584     9.7190     2.0870     3.4870
 2220.0108     9.7140     2.0730     4.4360
 2220.1632     9.7100     2.0520     4.5020
 2220.3156     9.7120     2.0460     4.3140
 2220.4680     9.7300     2.0510     2.5900
 2220.6204     9.7430  -999.2500  -999.2500
 2220.7728     9.7390  -999.2500  -999.2500
 2220.9252     9.7320  -999.2500  -999.2500
 2221.0776  -999.2500  -999.2500  -999.2500
 2221.2300  -999.2500  -999.2500  -999.2500
 2221.3824  -999.2500  -999.2500  -999.2500
 2221.5348  -999.2500  -999.2500  -999.2500
 2221.6872  -999.2500  -999.2500  -999.2500
 2221.8396  -999.2500  -999.2500  -999.2500
 2221.9920  -999.2500  -999.2500  -999.2500
 2222.1444  -999.2500  -999.2500  -999.2500
 2222.2968  -999.2500  -999.2500  -999.2500
 2222.4492  -999.2500  -999.2500  -999.2500
 2222.6016  -999.2500  -999.2500  -999.2500
 2222.7540  -999.2500  -999.2500  -999.2500
 2222.9064  -999.2500  -999.2500  -999.2500
 2223.0588  -999.2500  -999.2500  -999.2500
 2223.2112  -999.2500  -999.2500  -999.2500
 2223.3636  -999.2500  -999.2500  -999.2500
 2223.5160  -999.2500  -999.2500  -999.2500
 2223.6684  -999.2500  -999.2500  -999.2500
 2223.8208  -999.2500  -999.2500  -999.2500
 2223.9732  -999.2500  -999.2500  -999.2500
 2224.1256  -999.2500  -999.2500  -999.2500
 2224.2780  -999.2500  -999.2500  -999.2500
 2224.4304  -999.2500  -999.2500  -999.2500
 2224.5828  -999.2500  -999.2500  -999.2500
 2224.7352  -999.2500  -999.2500  -999.2500
 2224.8876  -999.2500  -999.2500  -999.2500
 2225.0400  -999.2500  -999.2500  -999.2500
 2225.1924  -999.2500  -999.2500  -999.2500
 2225.3448  -999.2500  -999.2500  -999.2500
 2225.4972  -999.2500  -999.2500  -999.2500
 2225.6496  -999.2500  -999.2500  -999.2500
 2225.8020  -999.2500  -999.2500  -999.2500
 2225.9544  -999.2500  -999.2500  -999.2500
 2226.1068  -999.2500  -999.2500  -999.2500
 2226.2592  -999.2500  -999.2500  -999.2500
 2226.4116  -999.2500  -999.2500  -999.2500
 2226.5640  -999.2500  -999.2500  -999.2500
 2226.7164  -999.2500  -999.2500  -999.2500
 2226.8688  -999.2500  -999.2500  -999.2500
 2227.0212  -999.2500  -999.2500  -999.2500
 2227.1736  -999.2500  -999.2500  -999.2500
 2227.3260  -999.2500  -999.2500  -999.2500
 2227.4784  -999.2500  -999.2500  -999.2500
 2227.6308  -999.2500  -999.2500  -999.2500
 2227.7832  -999.2500  -999.2500  -999.2500
 2227.9356  -999.2500  -999.2500  -999.2500
 2228.0880  -999.2500  -999.2500  -999.2500
 2228.2404  -999.2500  -999.2500  -999.2500
 2228.3928  -999.2500  -999.2500  -999.2500
 2228.5452  -999.2500  -999.2500  -999.2500
 2228.6976  -999.2500  -999.2500  -999.2500
 2228.8500  -999.2500  -999.2500  -999.2500
 2229.0024  -999.2500  -999.2500  -999.2500
 2229.1548  -999.2500  -999.2500  -999.2500
 2229.3072  -999.2500  -999.2500  -999.2500
 2229.4596  -999.2500  -999.2500  -999.2500
 2229.6120  -999.2500  -999.2500  -999.2500
 2229.7644  -999.2500  -999.2500  -999.2500
 2229.9168  -999.2500  -999.2500  -999.2500
 2230.0692  -999.2500  -999.2500  -999.2500
 2230.2216  -999.2500  -999.2500  -999.2500
 2230.3740  -999.2500  -999.2500  -999.2500
 2230.5264  -999.2500  -999.2500  -999.2500
 2230.6788  -999.2500  -999.2500  -999.2500
 2230.8312  -999.2500  -999.2500  -999.2500
 2230.9836  -999.2500  -999.2500  -999.2500
 2231.1360  -999.2500  -999.2500  -999.2500
 2231.2884  -999.2500  -999.2500  -999.2500
 2231.4408  -999.2500  -999.2500  -999.2500
 2231.5932  -999.2500  -999.2500  -999.2500
 2231.7456  -999.2500  -999.2500  -999.2500
 2231.8980  -999.2500  -999.2500  -999.2500
 2232.0504  -999.2500  -999.2500  -999.2500
 2232.2028  -999.2500  -999.2500  -999.2500
 2232.3552  -999.2500  -999.2500  -999.2500
 2232.5076  -999.2500  -999.2500  -999.2500
 2232.6600  -999.2500  -999.2500  -999.2500
