~VERSION INFORMATION
VERS.                                                 2.0:   CWLS Log ASCII Standard-VERSION 2.0
WRAP.                                                  NO:   One line per depth step
~Well Information Block
STRT.M                                            10.0584:   Top Depth
STOP.M                                          1400.8608:   Bottom Depth
STEP.M                                             .15240:   Depth Increment
NULL.                                            -999.250:   Null Value
FLD .                                          EEMSKANAAL:   Field Name
WELL.                                       EEMSKANAAL- 1:   NAME
EDF .m                                               5.58:   ELEV DRILL FLOOR
EPD .                                                   0:   ELEV PERM DATUM
EGL .m                                                -.9:   GROUND LEVEL
LMF .                                                  DF:   LOGS MEAS FROM
COMP.                                                 NAM:   OPERATOR
PDAT.                                                 NAP:   PERM DATUM
SPUD.                                          1970/11/08:   SPUD DATE
UWBI.                                      11000074112201:   UWBI
WELL.                                       EEMSKANAAL- 1:   HOLE NAME
~PARAMETER INFORMATION (log)
LNAM.                                RUN 02 RAW OH 14.75":   NAME
LTYP.                                                 02R:   LOG TYPE
LVSN.                                                   1:   LOG VERSION
BS  .3/4"                                              14:   BIT SIZE
BLI .M                                             1402.5:   BOTTOM DEPTH LOGGED
BHIS.                                            RCCCCCCC:   BRIEF HISTORY
FHIS.              RAW-TIGA/COPY/COPY/COPY/COPY/COPY/COPY:   FULL HISTORY
MRT .C                                                 50:   MAX REC TEMP
DFT .                                         CHALK WATER:   MUD TYPE
RMS .                                                1.44:   RM
MST .C                                                 11:   RM TEMP
RMCS.                                                1.93:   RMC
MCST.C                                                 19:   RMC TEMP
RMFS.                                               0.917:   RMF
MFST.C                                                 19:   RMF TEMP
TCS .                                                 N/A:   TIME SINCE CIRCLN
TLI .M                                                 10:   TOP DEPTH LOGGED
~Curve Information Block
#MNEM.UNIT                                        API CODE    No Description
#=========                                        ========    == ===========
DEPT.M                                       00 001 00 00:     1  DEPTH
BCSL.US/F                                                :     2  Interval Transit Time From Borehole Comp
GRIC.GAPI                                                :     3  GAMMA RAY LOG IN CASING
GRS.GAPI                                                 :     4  GAMMA RAY FROM SONIC LOG
~ASCII
# ...
  786.6888   161.2310  -999.2500    59.1260
  786.8412   162.2430  -999.2500    57.8550
  786.9936   162.5760  -999.2500    56.9420
  787.1460   162.1350  -999.2500    56.1640
  787.2984   160.6280  -999.2500    55.8900
  787.4508   159.5510  -999.2500    55.8900
  787.6032   158.8060  -999.2500    55.9080
  787.7556   157.4240  -999.2500    56.8700
  787.9080   157.5360  -999.2500    57.1760
  788.0604   159.0630  -999.2500    56.9530
  788.2128   159.6840  -999.2500    57.9880
  788.3652   159.0310  -999.2500    58.9810
  788.5176   158.9350  -999.2500    59.6050
  788.6700   159.1150  -999.2500    59.9470
  788.8224   157.8960  -999.2500    60.0770
  788.9748   157.1930  -999.2500    59.8060
  789.1272   156.6500  -999.2500    59.3070
  789.2796   155.6130  -999.2500    59.8060
  789.4320   156.0590  -999.2500    59.5700
  789.5844   157.7860  -999.2500    57.7980
  789.7368   158.6850  -999.2500    58.0050
  789.8892   159.7910  -999.2500    59.4410
  790.0416   159.9990  -999.2500    60.8460
  790.1940   159.6760  -999.2500    60.0060
  790.3464   158.4710  -999.2500    58.3330
  790.4988   156.4670  -999.2500    57.5150
  790.6512   155.6960  -999.2500    57.7010
  790.8036   155.4180  -999.2500    58.1200
  790.9560   155.5740  -999.2500    58.5380
  791.1084   158.6560  -999.2500    58.6860
  791.2608   160.6430  -999.2500    57.9050
  791.4132   161.9270  -999.2500    56.7650
  791.5656   163.1410  -999.2500    54.9620
  791.7180   161.2410  -999.2500    53.9190
  791.8704   159.5250  -999.2500    53.2960
  792.0228   158.8370  -999.2500    53.1180
  792.1752   158.0010  -999.2500    53.6070
  792.3276   157.5920  -999.2500    54.6320
  792.4800   157.6820  -999.2500    54.8220
  792.6324   157.6350  -999.2500    54.6670
  792.7848   157.3250  -999.2500    56.1230
  792.9372   158.6930  -999.2500    55.8830
  793.0896   159.6210  -999.2500    54.9290
  793.2420   159.5560  -999.2500    54.6810
  793.3944   161.4730  -999.2500    55.1010
  793.5468   161.9440  -999.2500    56.4710
  793.6992   161.2430  -999.2500    59.3100
  793.8516   161.5730  -999.2500    61.2260
  794.0040   161.2320  -999.2500    63.2420
  794.1564   159.2510  -999.2500    64.2930
  794.3088   158.0780  -999.2500    65.1150
  794.4612   158.3960  -999.2500    64.7200
  794.6136   159.3070  -999.2500    63.7090
  794.7660   160.2490  -999.2500    62.8090
  794.9184   161.0930  -999.2500    62.2590
  795.0708   158.8310  -999.2500    61.9510
  795.2232   157.6070  -999.2500    61.5710
  795.3756   156.7050  -999.2500    61.0920
  795.5280   156.4840  -999.2500    59.8510
  795.6804   156.7770  -999.2500    58.5090
  795.8328   157.7560  -999.2500    57.4930
  795.9852   158.6910  -999.2500    56.8340
  796.1376   158.7940  -999.2500    57.1240
  796.2900   157.8340  -999.2500    57.6610
  796.4424   157.1920  -999.2500    57.5970
  796.5948   156.6200  -999.2500    57.1060
  796.7472   157.7980  -999.2500    58.2750
  796.8996   158.7580  -999.2500    58.4700
  797.0520   157.6880  -999.2500    59.8500
  797.2044   157.1000  -999.2500    61.3610
  797.3568   155.5640  -999.2500    62.6590
  797.5092   154.3890  -999.2500    61.3260
  797.6616   154.4070  -999.2500    59.8270
  797.8140   155.8810  -999.2500    58.9200
  797.9664   157.3540  -999.2500    58.9100
  798.1188   158.9050  -999.2500    58.8800
  798.2712   159.9690  -999.2500    58.5070
  798.4236   160.0170  -999.2500    57.9510
  798.5760   158.9490  -999.2500    57.1970
  798.7284   158.3110  -999.2500    56.3920
  798.8808   157.2230  -999.2500    55.8280
  799.0332   156.6790  -999.2500    55.7750
  799.1856   156.8680  -999.2500    56.3200
  799.3380   157.0580  -999.2500    57.4210
  799.4904   156.5800  -999.2500    58.7330
  799.6428   155.7980  -999.2500    59.5260
  799.7952   157.0460  -999.2500    59.0350
  799.9476   158.0820  -999.2500    58.2330
  800.1000   158.5300  -999.2500    57.7500
  800.2524   158.4730  -999.2500    57.4540
  800.4048   158.5100  -999.2500    57.5240
  800.5572   157.8980  -999.2500    58.1300
  800.7096   158.5410  -999.2500    59.1640
  800.8620   159.1060  -999.2500    58.3430
  801.0144   158.9450  -999.2500    57.1470
  801.1668   158.7670  -999.2500    56.5550
  801.3192   158.7870  -999.2500    56.7880
  801.4716   157.8560  -999.2500    57.8330
  801.6240   157.6960  -999.2500    58.7060
  801.7764   158.2600  -999.2500    59.0260
  801.9288   158.7130  -999.2500    58.9580
  802.0812   159.1150  -999.2500    58.4890
  802.2336   159.5240  -999.2500    58.2550
  802.3860   160.2340  -999.2500    58.5720
  802.5384   160.3100  -999.2500    59.5400
  802.6908   159.7430  -999.2500    60.8740
  802.8432   159.4110  -999.2500    62.7170
  802.9956   159.2720  -999.2500    64.0070
  803.1480   158.5980  -999.2500    64.5240
  803.3004   158.8300  -999.2500    63.5360
  803.4528   158.7960  -999.2500    62.1970
  803.6052   158.3110  -999.2500    61.9170
  803.7576   158.1500  -999.2500    62.3090
  803.9100   158.0580  -999.2500    62.9580
  804.0624   157.2500  -999.2500    64.1990
  804.2148   156.7490  -999.2500    65.1030
  804.3672   155.9700  -999.2500    64.0810
  804.5196   155.2740  -999.2500    62.9970
  804.6720   155.2350  -999.2500    62.0360
  804.8244   156.3920  -999.2500    61.3630
  804.9768   157.4420  -999.2500    61.2620
  805.1292   158.2570  -999.2500    61.9690
  805.2816   157.7750  -999.2500    61.5850
  805.4340   156.9140  -999.2500    60.1550
  805.5864   156.3650  -999.2500    59.0220
  805.7388   155.7200  -999.2500    57.9060
  805.8912   155.6660  -999.2500    56.8630
  806.0436   157.2570  -999.2500    55.9680
  806.1960   157.1120  -999.2500    55.6540
  806.3484   157.8590  -999.2500    56.4090
  806.5008   158.3270  -999.2500    58.1040
  806.6532   157.8410  -999.2500    59.6870
  806.8056   157.7020  -999.2500    61.1680
  806.9580   157.7300  -999.2500    62.0670
  807.1104   157.1160  -999.2500    61.9270
  807.2628   157.0080  -999.2500    62.2340
  807.4152   157.3620  -999.2500    64.5450
  807.5676   157.5270  -999.2500    64.9270
  807.7200   158.0300  -999.2500    63.3870
  807.8724   158.0270  -999.2500    61.7690
  808.0248   157.8140  -999.2500    60.7160
  808.1772   157.9890  -999.2500    61.4130
  808.3296   157.8000  -999.2500    62.6200
  808.4820   158.0140  -999.2500    63.1230
  808.6344   158.2370  -999.2500    62.7110
  808.7868   158.3440  -999.2500    61.0440
  808.9392   158.5170  -999.2500    58.0600
  809.0916   159.0400  -999.2500    55.6150
  809.2440   158.9110  -999.2500    55.6910
  809.3964   159.5280  -999.2500    56.9930
  809.5488   159.4010  -999.2500    58.4060
  809.7012   159.3320  -999.2500    59.9110
  809.8536   159.7620  -999.2500    61.7500
  810.0060   160.2090  -999.2500    62.4700
  810.1584   159.9590  -999.2500    61.8450
  810.3108   160.4460  -999.2500    60.9730
  810.4632   160.4470  -999.2500    60.0950
  810.6156   160.1140  -999.2500    59.6920
  810.7680   160.5570  -999.2500    60.1280
  810.9204   160.9250  -999.2500    59.5890
  811.0728   160.5860  -999.2500    57.5490
  811.2252   160.5640  -999.2500    56.7830
  811.3776   160.1420  -999.2500    58.1740
  811.5300   159.5720  -999.2500    58.5750
  811.6824   159.1380  -999.2500    58.0620
  811.8348   159.0530  -999.2500    57.3380
  811.9872   159.4980  -999.2500    57.5320
  812.1396   159.3690  -999.2500    58.4820
  812.2920   159.3810  -999.2500    58.3210
  812.4444   159.8540  -999.2500    58.1170
  812.5968   159.7760  -999.2500    58.0500
  812.7492   160.7170  -999.2500    58.4580
  812.9016   160.8080  -999.2500    59.9570
  813.0540   159.9270  -999.2500    61.1200
  813.2064   159.9750  -999.2500    61.0420
  813.3588   160.3020  -999.2500    60.2860
  813.5112   160.5090  -999.2500    60.1000
  813.6636   160.3850  -999.2500    60.3230
  813.8160   160.8050  -999.2500    60.5930
  813.9684   160.2890  -999.2500    60.9280
  814.1208   159.4930  -999.2500    61.4190
  814.2732   159.7240  -999.2500    62.1520
