~VERSION INFORMATION
VERS.                                                 2.0:   CWLS Log ASCII Standard-VERSION 2.0
WRAP.                                                  NO:   One line per depth step
~Well Information Block
STRT.M                                          2687.1168:   Top Depth
STOP.M                                          3063.8496:   Bottom Depth
STEP.M                                             .15240:   Depth Increment
NULL.                                            -999.250:   Null Value
FLD .                                          EEMSKANAAL:   Field Name
WELL.                                       EEMSKANAAL- 1:   NAME
EDF .m                                               5.58:   ELEV DRILL FLOOR
EPD .                                                   0:   ELEV PERM DATUM
EGL .m                                                -.9:   GROUND LEVEL
LMF .                                                  DF:   LOGS MEAS FROM
COMP.                                                 NAM:   OPERATOR
PDAT.                                                 NAP:   PERM DATUM
SPUD.                                          1970/11/08:   SPUD DATE
UWBI.                                      11000074112201:   UWBI
WELL.                                       EEMSKANAAL- 1:   HOLE NAME
~PARAMETER INFORMATION (log)
LNAM.                                RUN 05 RAW OH 9.625":   NAME
LTYP.                                                 05R:   LOG TYPE
LVSN.                                                   1:   LOG VERSION
BS  .5/8"                                               9:   BIT SIZE
BLI .M                                               3063:   BOTTOM DEPTH LOGGED
BHIS.                                            RCCCCCCC:   BRIEF HISTORY
FHIS.              RAW-TIGA/COPY/COPY/COPY/COPY/COPY/COPY:   FULL HISTORY
MRT .C                                                 89:   MAX REC TEMP
DFT .                                          SALT SPERS:   MUD TYPE
RMS .                                               0.074:   RM
MST .C                                                 26:   RM TEMP
RMCS.                                               0.144:   RMC
MCST.C                                                 17:   RMC TEMP
RMFS.                                               0.059:   RMF
MFST.C                                                 26:   RMF TEMP
TCS .                                               5 HRS:   TIME SINCE CIRCLN
TLI .M                                               2690:   TOP DEPTH LOGGED
~Curve Information Block
#MNEM.UNIT                                        API CODE    No Description
#=========                                        ========    == ===========
DEPT.M                                       00 001 00 00:     1  DEPTH
LL7.OHMM                                                 :     2  LATEROLOG 7
SP.MV                                                    :     3  Spontaneous potential
~ASCII
# ...
 2724.1500   889.2630   -79.2200
 2724.3024   882.6350   -79.2610
 2724.4548   876.4650   -79.3260
 2724.6072   871.9950   -79.3600
 2724.7596   866.6390   -79.3840
 2724.9120   861.4650   -79.4450
 2725.0644   856.6430   -79.4990
 2725.2168   851.9780   -79.5350
 2725.3692   846.7790   -79.5880
 2725.5216   840.6170   -79.6110
 2725.6740   835.3070   -79.7170
 2725.8264   828.9000   -79.8340
 2725.9788   822.5060   -79.9470
 2726.1312   816.0770   -80.0620
 2726.2836   812.1320   -80.1690
 2726.4360   810.4780   -80.2250
 2726.5884   808.2060   -80.3140
 2726.7408   806.6830   -80.4670
 2726.8932   805.1130   -80.6060
 2727.0456   803.5800   -80.7410
 2727.1980   800.6840   -80.8490
 2727.3504   796.9360   -80.9050
 2727.5028   793.2440   -80.9500
 2727.6552   791.0220   -80.9500
 2727.8076   790.3140   -80.9530
 2727.9600   788.3330   -81.0140
 2728.1124   785.4750   -81.1040
 2728.2648   778.8890   -81.2390
 2728.4172   771.5230   -81.3170
 2728.5696   763.9810   -81.3780
 2728.7220   755.9670   -81.4290
 2728.8744   749.1140   -81.4680
 2729.0268   742.8390   -81.5130
 2729.1792   736.0330   -81.5440
 2729.3316   729.3660   -81.5600
 2729.4840   721.6770   -81.6050
 2729.6364   714.7540   -81.6510
 2729.7888   709.3390   -81.6700
 2729.9412   704.6460   -81.6700
 2730.0936   699.4920   -81.6700
 2730.2460   692.9900   -81.6840
 2730.3984   687.1760   -81.6410
 2730.5508   681.1050   -81.5440
 2730.7032   676.3600   -81.5500
 2730.8556   673.2630   -81.5500
 2731.0080   670.0900   -81.6280
 2731.1604   665.7950   -81.7620
 2731.3128   659.3600   -77.2900
 2731.4652   654.2230   -67.1050
 2731.6176   649.0490   -84.5550
 2731.7700   642.8540   -85.9660
 2731.9224   636.2150   -75.7620
 2732.0748   628.2640   -76.8150
 2732.2272   620.0870   -76.6740
 2732.3796   612.3030   -76.6220
 2732.5320   604.7940   -76.6270
 2732.6844   596.1880   -76.6200
 2732.8368   588.4480   -76.6200
 2732.9892   581.5350   -76.6200
 2733.1416   576.3240   -76.6200
 2733.2940   571.6750   -76.6200
 2733.4464   568.6860   -76.5680
 2733.5988   566.8120   -76.4210
 2733.7512   560.9790   -76.3190
 2733.9036   548.4750   -76.2170
 2734.0560   533.7870   -76.1400
 2734.2084   521.5100   -76.1840
 2734.3608   518.4420   -76.2200
 2734.5132   515.6630   -76.2340
 2734.6656   512.6760   -76.2600
 2734.8180   512.0180   -76.2600
 2734.9704   510.5830   -76.2600
 2735.1228   505.3950   -76.2620
 2735.2752   497.9940   -76.2850
 2735.4276   491.1770   -76.3110
 2735.5800   485.0120   -76.3800
 2735.7324   481.1200   -76.4860
 2735.8848   477.0840   -76.5990
 2736.0372   473.8440   -76.6710
 2736.1896   467.7070   -76.7260
 2736.3420   457.3880   -76.8080
 2736.4944   448.8710   -76.9070
 2736.6468   442.7680   -76.9830
 2736.7992   434.3880   -77.0500
 2736.9516   424.7560   -77.0290
 2737.1040   416.9830   -76.9480
 2737.2564   412.2660   -76.8900
 2737.4088   406.9570   -76.8870
 2737.5612   402.4150   -76.8500
 2737.7136   396.5760   -76.8900
 2737.8660   388.4660   -76.8900
 2738.0184   380.5770   -76.8830
 2738.1708   376.8180   -76.8500
 2738.3232   372.7310   -76.8100
 2738.4756   368.3090   -76.8100
 2738.6280   361.0730   -76.8210
 2738.7804   346.7100   -76.8580
 2738.9328   335.8630   -76.8900
 2739.0852   327.1770   -76.8900
 2739.2376   319.9140   -76.8900
 2739.3900   312.2870   -76.8900
 2739.5424   304.8570   -76.8670
 2739.6948   298.7610   -76.8500
 2739.8472   292.1940   -76.8500
 2739.9996   283.8330   -76.8500
 2740.1520   263.1900   -76.7480
 2740.3044   255.2960   -76.6180
 2740.4568   247.0330   -76.5470
 2740.6092   238.2700   -76.4960
 2740.7616   225.4120   -76.4360
 2740.9140   203.8720   -76.3800
 2741.0664   164.6620   -76.3540
 2741.2188   118.9440   -76.3000
 2741.3712    86.4010   -76.2720
 2741.5236    55.7660   -76.2310
 2741.6760    34.3900   -76.1850
 2741.8284    30.7470   -76.1800
 2741.9808    23.4620   -76.1480
 2742.1332    17.7360   -76.0240
 2742.2856    15.1630   -75.8590
 2742.4380    13.6540   -75.7000
 2742.5904    12.2960   -75.5420
 2742.7428    10.8820   -75.3770
 2742.8952     9.9710   -75.2630
 2743.0476     8.8990   -75.2200
 2743.2000     7.3490   -75.2200
 2743.3524     6.5100   -75.2200
 2743.5048     6.1870   -75.2200
 2743.6572     5.6670   -75.2200
 2743.8096     5.1630   -75.1770
 2743.9620     4.7640   -75.1190
 2744.1144     4.3270   -75.1000
 2744.2668     3.7870   -75.1000
 2744.4192     3.1520   -75.1000
 2744.5716     2.6320   -75.0710
 2744.7240     2.3780   -75.0530
 2744.8764     2.3090   -74.9920
 2745.0288     2.3090   -74.9240
 2745.1812     2.3450   -74.8780
 2745.3336     2.4720   -74.8300
 2745.4860     2.6390   -74.8300
 2745.6384     2.8480   -74.8180
 2745.7908     3.1350   -74.9900
 2745.9432     3.5660   -74.9620
 2746.0956     3.8920   -74.9500
 2746.2480     4.1310   -74.9450
 2746.4004     4.2170   -74.9100
 2746.5528     3.7210   -74.9100
 2746.7052     3.1690   -74.9490
 2746.8576     2.8200   -74.9190
 2747.0100     2.4640   -74.8700
 2747.1624     2.3870   -74.8700
 2747.3148     2.3630   -74.8300
 2747.4672     2.4660   -74.8300
 2747.6196     2.7090   -74.8300
 2747.7720     3.1560   -74.8300
 2747.9244     3.6110   -74.8300
 2748.0768     3.8570   -74.8300
 2748.2292     3.9900   -74.8300
 2748.3816     4.0060   -74.8300
 2748.5340     3.6610   -74.8300
 2748.6864     3.2890   -74.8300
 2748.8388     3.0840   -74.8300
 2748.9912     3.0370   -74.8300
 2749.1436     3.0220   -74.8130
 2749.2960     3.0130   -74.7900
 2749.4484     3.0060   -74.7710
 2749.6008     2.9970   -74.7100
 2749.7532     3.0040   -74.6490
 2749.9056     3.0550   -74.5830
 2750.0580     3.2230   -74.4240
 2750.2104     3.9850   -74.3330
 2750.3628     4.3580   -74.2450
 2750.5152     4.3650   -74.1600
 2750.6676     4.0620   -74.0530
 2750.8200     3.6950   -74.0000
 2750.9724     2.8160   -73.9530
 2751.1248     2.5670   -73.9500
 2751.2772     2.8230   -73.9500
 2751.4296     2.9310   -73.9100
 2751.5820     3.0580   -73.9100
 2751.7344     3.3020   -73.9100
 2751.8868     3.5550   -73.9100
 2752.0392     3.7660   -73.8910
 2752.1916     3.9760   -73.7960
 2752.3440     4.1330   -73.6920
 2752.4964     4.2380   -73.5140
 2752.6488     4.4030   -73.3120
 2752.8012     4.4820   -73.1490
 2752.9536     4.4900   -73.0030
 2753.1060     4.3840   -72.9270
 2753.2584     4.0800   -72.8510
 2753.4108     3.7920   -72.7870
 2753.5632     3.5310   -72.7220
 2753.7156     3.2650   -72.6520
 2753.8680     3.1440   -72.5900
 2754.0204     3.1400   -72.5600
 2754.1728     3.1310   -72.5600
 2754.3252     3.1240   -72.5500
 2754.4776     3.0830   -72.5200
 2754.6300     2.9670   -72.5200
 2754.7824     2.7330   -72.5200
 2754.9348     2.5350   -72.5200
 2755.0872     2.5130   -72.5200
 2755.2396     2.5670   -72.6480
 2755.3920     2.7420   -72.7570
 2755.5444     2.9760   -72.7600
 2755.6968     3.1040   -72.7600
 2755.8492     3.1110   -72.8350
 2756.0016     3.0830   -72.9830
 2756.1540     3.0720   -73.2720
 2756.3064     3.1100   -73.5060
 2756.4588     3.2140   -73.5670
 2756.6112     3.2740   -73.3110
 2756.7636     3.2800   -73.0040
 2756.9160     3.2890   -72.9600
 2757.0684     3.2890   -72.9600
 2757.2208     3.2890   -72.9440
 2757.3732     3.2890   -72.9130
 2757.5256     3.2900   -72.8320
 2757.6780     3.2950   -72.7110
 2757.8304     3.2950   -72.6740
 2757.9828     3.2950   -72.6440
 2758.1352     3.3070   -72.5970
 2758.2876     3.3490   -72.5200
 2758.4400     3.4410   -72.4300
 2758.5924     3.5260   -72.3260
 2758.7448     3.7010   -72.2430
 2758.8972     3.8580   -72.0840
 2759.0496     3.8910   -72.0200
 2759.2020     3.8920   -71.9590
 2759.3544     3.7950   -71.8930
 2759.5068     3.6110   -71.8270
 2759.6592     3.4210   -71.7660
 2759.8116     3.2570   -71.7470
 2759.9640     3.1770   -72.3560
 2760.1164     3.1550   -74.0580
 2760.2688     3.2030   -76.0850
 2760.4212     3.2330   -76.4880
 2760.5736     3.2270   -76.4730
 2760.7260     3.2050   -76.4580
 2760.8784     3.2370   -76.4340
 2761.0308     3.4120   -76.4170
