~VERSION INFORMATION
VERS.                                                 2.0:   CWLS Log ASCII Standard-VERSION 2.0
WRAP.                                                  NO:   One line per depth step
~Well Information Block
STRT.M                                          2769.1080:   Top Depth
STOP.M                                          2949.8544:   Bottom Depth
STEP.M                                             .15240:   Depth Increment
NULL.                                            -999.250:   Null Value
FLD .                                          EEMSKANAAL:   Field Name
WELL.                                       EEMSKANAAL- 2:   NAME
APD .M                                               5.62:   ABOVE PERM DATUM
CTRY.                                                  NE:   COUNTRY
EDF .m                                               5.62:   ELEV DRILL FLOOR
EPD .                                                   0:   ELEV PERM DATUM
EGL .m                                              -1.06:   GROUND LEVEL
LMF .                                                  DF:   LOGS MEAS FROM
COMP.                                                 NAM:   OPERATOR
PDAT.                                                 NAP:   PERM DATUM
SPUD.                                          1971/03/17:   SPUD DATE
STAT.                                           Unknown m:   STATE
UWBI.                                      11000074112601:   UWBI
WELL.                                       EEMSKANAAL- 2:   HOLE NAME
~PARAMETER INFORMATION (log)
LNAM.                                RUN 02 RAW OH 6 1/4":   NAME
LTYP.                                                 02R:   LOG TYPE
LVSN.                                                   1:   LOG VERSION
BS  .1/4"                                               6:   BIT SIZE
BLI .M                                             2942.0:   BOTTOM DEPTH LOGGED
BHIS.                                             RCCCCCC:   BRIEF HISTORY
FHIS.                   RAW-TIGA/COPY/COPY/COPY/COPY/COPY:   FULL HISTORY
MRT .DEGC                                              84:   MAX REC TEMP
DFD .G/CC                                            1.36:   MUD DENSITY
DFT .                                     SALT SAT UNICAL:   MUD TYPE
RMS .OHMM                                           0.031:   RM
MST .DEGC                                              12:   RM TEMP
RMCS.OHMM                                           0.136:   RMC
MCST. DEGC                                             12:   RMC TEMP
RMFS.OHMM                                           0.053:   RMF
MFST.DEGC                                              19:   RMF TEMP
TCS .                                                 N/A:   TIME SINCE CIRCLN
TLI .M                                             2772.0:   TOP DEPTH LOGGED
~Curve Information Block
#MNEM.UNIT                                        API CODE    No Description
#=========                                        ========    == ===========
DEPT.M                                       00 001 00 00:     1  DEPTH
CALF.IN                                                  :     2  CALIPER FROM FORMATION DENSITY LOG
FDC.G/C3                                                 :     3  Formation Density Log (Compensated Open
GR.API                                                   :     4  Gamma Ray
~ASCII
 2769.1080     6.8440     2.4990    40.9330
 2769.2604     6.7830     2.6230    37.9730
 2769.4128     6.7450     2.6790    39.6450
 2769.5652     6.8580     2.7120    49.4070
 2769.7176     6.9260     2.7220    54.2250
 2769.8700     6.9280     2.6930    56.8220
 2770.0224     6.8970     2.6670    58.7170
 2770.1748     6.8800     2.6340    60.8070
 2770.3272     6.8780     2.6090    63.1790
 2770.4796     6.8780     2.6050    65.0600
 2770.6320     6.8790     2.6170    64.2000
 2770.7844     6.8820     2.6350    59.3870
 2770.9368     6.8810     2.6520    53.5300
 2771.0892     6.8740     2.6720    50.5180
 2771.2416     6.8660     2.7220    50.6250
 2771.3940     6.8580     2.7480    55.0620
 2771.5464     6.8520     2.7300    60.8670
 2771.6988     6.8510     2.7570    66.3300
 2771.8512     6.8620     2.8490    66.2830
 2772.0036     6.8790     2.9310    62.1150
 2772.1560     6.9430     2.7600    56.0020
 2772.3084     7.0800     2.5920    50.2330
 2772.4608     7.2690     2.5420    44.1220
 2772.6132     7.2630     2.5320    43.6720
 2772.7656     7.2600     2.5620    52.2390
 2772.9180     7.3010     2.6180    67.5990
 2773.0704     7.4550     2.6450    82.1320
 2773.2228     7.9250     2.6570    91.3980
 2773.3752     8.7190     2.6610    92.8440
 2773.5276     8.8980     2.6520    89.2590
 2773.6800     9.4540     2.6550    88.6140
 2773.8324    10.0140     2.6540    85.8590
 2773.9848    10.2920     2.6780    82.1700
 2774.1372    10.3850     2.6790    81.2950
 2774.2896    10.4170     2.6740    79.5810
 2774.4420    10.4180     2.6850    78.5930
 2774.5944    10.4090     2.6650    81.1060
 2774.7468    10.4010     2.6560    84.6520
 2774.8992    10.3930     2.6320    92.9910
 2775.0516    10.3880     2.5940   101.4280
 2775.2040    10.3880     2.6480   107.2180
 2775.3564    10.4080     2.6480   109.6350
 2775.5088    10.4080     2.6220   110.9220
 2775.6612     8.7300     2.6170   109.5330
 2775.8136     7.4920     2.6050   104.2290
 2775.9660     7.4150     2.6110    99.3210
 2776.1184     7.3840     2.6310    94.3120
 2776.2708     7.3620     2.6410    87.3630
 2776.4232     7.3140     2.6350    75.4310
 2776.5756     7.2680     2.5870    64.0210
 2776.7280     7.2550     2.5770    61.8740
 2776.8804     7.2210     2.6060    68.8830
 2777.0328     7.1620     2.6270    75.7460
 2777.1852     7.1280     2.6150    69.4630
 2777.3376     7.0710     2.5760    64.1650
 2777.4900     6.9570     2.5490    67.9540
 2777.6424     6.8940     2.5660    79.4080
 2777.7948     6.8600     2.6080    87.3920
 2777.9472     6.8370     2.6110    83.9950
 2778.0996     6.8030     2.5840    70.1350
 2778.2520     6.7660     2.5350    60.3400
 2778.4044     6.7440     2.5040    52.8970
 2778.5568     6.7480     2.4760    49.9780
 2778.7092     6.7490     2.4670    53.3650
 2778.8616     6.7150     2.5220    70.9940
 2779.0140     6.6710     2.6260    82.7890
 2779.1664     6.6440     2.6950    90.5470
 2779.3188     6.6320     2.7250    93.5750
 2779.4712     6.6460     2.7100    93.5910
 2779.6236     6.6830     2.7010    96.1020
 2779.7760     6.7290     2.7110    97.6260
 2779.9284     6.7800     2.7120    93.3850
 2780.0808     6.8340     2.6970    88.1080
 2780.2332     6.8940     2.6730    83.4830
 2780.3856     6.9560     2.6520    79.6740
 2780.5380     7.0090     2.6540    77.1390
 2780.6904     7.0510     2.6650    75.3590
 2780.8428     7.0910     2.6680    74.2630
 2780.9952     7.1250     2.6590    73.0490
 2781.1476     7.1620     2.6750    71.3740
 2781.3000     7.1980     2.6920    71.4150
 2781.4524     7.2240     2.7020    80.7760
 2781.6048     7.2460     2.6980    84.1220
 2781.7572     7.2720     2.7020    79.6100
 2781.9096     7.2980     2.7100    77.6740
 2782.0620     7.3130     2.6960    77.0380
 2782.2144     7.3220     2.6920    80.5460
 2782.3668     7.3330     2.6950    84.3780
 2782.5192     7.3430     2.6890    89.2990
 2782.6716     7.3540     2.6920    97.1330
 2782.8240     7.3720     2.6950    95.8080
 2782.9764     7.3910     2.6800    95.7560
 2783.1288     7.4250     2.6620   100.4840
 2783.2812     7.4540     2.6720   104.4240
 2783.4336     7.4610     2.6590   106.0820
 2783.5860     7.4510     2.6520   105.9580
 2783.7384     7.4080     2.6650   104.7010
 2783.8908     7.3930     2.6760   105.8570
 2784.0432     7.3750     2.6610   100.2720
 2784.1956     7.2890     2.6480    92.8370
 2784.3480     7.2250     2.6650    82.6850
 2784.5004     7.2050     2.6700    75.8990
 2784.6528     7.2050     2.6710    74.6880
 2784.8052     7.1990     2.6620    70.8970
 2784.9576     7.1820     2.6490    67.4720
 2785.1100     7.1540     2.6350    66.9660
 2785.2624     7.1290     2.6340    68.8780
 2785.4148     7.1080     2.6380    70.2580
 2785.5672     7.0890     2.6360    68.4240
 2785.7196     7.0750     2.6310    74.8040
 2785.8720     7.0700     2.6350    85.5390
 2786.0244     7.0700     2.6500    94.0320
 2786.1768     7.0700     2.6530    93.9690
 2786.3292     7.0650     2.6410    87.2980
 2786.4816     7.0560     2.6140    78.7920
 2786.6340     7.0410     2.5920    70.3110
 2786.7864     7.0130     2.5750    67.3350
 2786.9388     6.9780     2.6090    79.7350
 2787.0912     6.9360     2.6480    93.5080
 2787.2436     6.8990     2.6880   101.4430
 2787.3960     6.8770     2.6870    98.3490
 2787.5484     6.8640     2.6490    86.9150
 2787.7008     6.8620     2.6310    75.7910
 2787.8532     6.8690     2.6270    80.6820
 2788.0056     6.8800     2.6430    90.4950
 2788.1580     6.8870     2.6690    91.9280
 2788.3104     6.8610     2.6750    86.4740
 2788.4628     6.8380     2.6750    81.0570
 2788.6152     6.8380     2.6830    78.8740
 2788.7676     6.8660     2.6830    85.6720
 2788.9200     6.9000     2.6740    92.8420
 2789.0724     6.9170     2.7050    99.7460
 2789.2248     6.9180     2.7190   105.6660
 2789.3772     6.9180     2.7140   107.4060
 2789.5296     6.9140     2.7090   109.2280
 2789.6820     6.9170     2.6890   110.1470
 2789.8344     6.9180     2.6810   110.6530
 2789.9868     6.9210     2.6880   115.0220
 2790.1392     6.9220     2.6900   116.9680
 2790.2916     6.9260     2.6910   118.2160
 2790.4440     6.9310     2.6850   115.4390
 2790.5964     6.9400     2.6890   110.6340
 2790.7488     6.9500     2.7010   104.9710
 2790.9012     6.9580     2.6880   101.6670
 2791.0536     6.9630     2.6590    98.2460
 2791.2060     6.9660     2.6490    90.2480
 2791.3584     6.9710     2.6490    81.3140
 2791.5108     6.9740     2.6280    77.4060
 2791.6632     6.9710     2.6320    83.7940
 2791.8156     6.9440     2.6520    87.4990
 2791.9680     6.8950     2.6670    87.8950
 2792.1204     6.8990     2.6580    86.7060
 2792.2728     6.9510     2.6760    88.9190
 2792.4252     6.9680     2.6980    93.9460
 2792.5776     6.9570     2.6940   100.9160
 2792.7300     6.9370     2.6880   107.5710
 2792.8824     6.9190     2.6670   107.2280
 2793.0348     6.9110     2.6730   104.0160
 2793.1872     6.9060     2.6750   100.3160
 2793.3396     6.9060     2.6800    92.2680
 2793.4920     6.9010     2.6830    88.6260
 2793.6444     6.8890     2.6850    85.2570
 2793.7968     6.8720     2.6700    79.4970
 2793.9492     6.8520     2.6580    76.6240
 2794.1016     6.8270     2.6490    75.3410
 2794.2540     6.8060     2.6190    68.9400
 2794.4064     6.7910     2.5940    61.4360
 2794.5588     6.7790     2.5840    57.5950
 2794.7112     6.7640     2.5770    65.3890
 2794.8636     6.7440     2.6360    78.5630
 2795.0160     6.7230     2.6920    89.1170
 2795.1684     6.7010     2.7270    99.3460
 2795.3208     6.6780     2.7070   102.0860
 2795.4732     6.6680     2.6910    97.9680
 2795.6256     6.6700     2.7100    97.4730
 2795.7780     6.6900     2.7160   102.8280
 2795.9304     6.7310     2.7060   106.3020
 2796.0828     6.7630     2.6850   104.5780
 2796.2352     6.7790     2.6400    95.2680
 2796.3876     6.7850     2.5990    78.9030
 2796.5400     6.7850     2.5680    61.6190
 2796.6924     6.7810     2.5390    45.5000
