~VERSION INFORMATION
VERS.                                                 2.0:   CWLS Log ASCII Standard-VERSION 2.0
WRAP.                                                  NO:   One line per depth step
~Well Information Block
STRT.M                                           404.0124:   Top Depth
STOP.M                                          1403.9088:   Bottom Depth
STEP.M                                             .15240:   Depth Increment
NULL.                                            -999.250:   Null Value
FLD .                                          EEMSKANAAL:   Field Name
WELL.                                       EEMSKANAAL- 1:   NAME
EDF .m                                               5.58:   ELEV DRILL FLOOR
EPD .                                                   0:   ELEV PERM DATUM
EGL .m                                                -.9:   GROUND LEVEL
LMF .                                                  DF:   LOGS MEAS FROM
COMP.                                                 NAM:   OPERATOR
PDAT.                                                 NAP:   PERM DATUM
SPUD.                                          1970/11/08:   SPUD DATE
UWBI.                                      11000074112201:   UWBI
WELL.                                       EEMSKANAAL- 1:   HOLE NAME
~PARAMETER INFORMATION (log)
LNAM.                                RUN 01 RAW OH 14.75":   NAME
LTYP.                                                 01R:   LOG TYPE
LVSN.                                                   1:   LOG VERSION
BS  .3/4"                                              14:   BIT SIZE
BLI .M                                             1406.2:   BOTTOM DEPTH LOGGED
BHIS.                                            RCCCCCCC:   BRIEF HISTORY
FHIS.              RAW-TIGA/COPY/COPY/COPY/COPY/COPY/COPY:   FULL HISTORY
MRT .C                                                 50:   MAX REC TEMP
DFT .                                         CHALK WATER:   MUD TYPE
RMS .                                                1.44:   RM
MST .C                                                 11:   RM TEMP
RMCS.                                                1.93:   RMC
MCST.C                                                 19:   RMC TEMP
RMFS.                                               0.917:   RMF
MFST.C                                                 19:   RMF TEMP
TCS .                                                 N/A:   TIME SINCE CIRCLN
TLI .M                                              403.6:   TOP DEPTH LOGGED
~Curve Information Block
#MNEM.UNIT                                        API CODE    No Description
#=========                                        ========    == ===========
DEPT.M                                       00 001 00 00:     1  DEPTH
DILD.OHMM                                                :     2  DUAL INDUCTION LOG DEEP RESISTIVITY
SN.OHMM                                                  :     3  SHORT NORMAL
~ASCII
# ...
 1033.5768      .2040     1.0310
 1033.7292      .2040      .9850
 1033.8816      .2090      .9400
 1034.0340      .2120      .9310
 1034.1864      .2140      .9310
 1034.3388      .2200      .9420
 1034.4912      .2310      .9350
 1034.6436      .2410      .9140
 1034.7960      .2440      .8690
 1034.9484      .2440      .8140
 1035.1008      .2440      .7870
 1035.2532      .2440      .7900
 1035.4056      .2440      .8030
 1035.5580      .2470      .8170
 1035.7104      .2600      .8310
 1035.8628      .2600      .8500
 1036.0152      .2600      .8870
 1036.1676      .2600      .9350
 1036.3200      .2610      .9720
 1036.4724      .2670      .9830
 1036.6248      .2680      .9800
 1036.7772      .2680      .9720
 1036.9296      .2680      .9810
 1037.0820      .2680      .9980
 1037.2344      .2680     1.0060
 1037.3868      .2680     1.0050
 1037.5392      .2680      .9860
 1037.6916      .2680      .9580
 1037.8440      .2680      .9470
 1037.9964      .2640      .9630
 1038.1488      .2560     1.0110
 1038.3012      .2520     1.0720
 1038.4536      .2520     1.1100
 1038.6060      .2520     1.1160
 1038.7584      .2520     1.0850
 1038.9108      .2520     1.0530
 1039.0632      .2490     1.0250
 1039.2156      .2440     1.0070
 1039.3680      .2440     1.0040
 1039.5204      .2440     1.0070
 1039.6728      .2440     1.0090
 1039.8252      .2440     1.0080
 1039.9776      .2460     1.0010
 1040.1300      .2490      .9920
 1040.2824      .2520      .9820
 1040.4348      .2520      .9790
 1040.5872      .2500      .9800
 1040.7396      .2470      .9830
 1040.8920      .2440      .9850
 1041.0444      .2440      .9960
 1041.1968      .2440     1.0040
 1041.3492      .2440      .9900
 1041.5016      .2440      .9690
 1041.6540      .2440      .9500
 1041.8064      .2440      .9400
 1041.9588      .2440      .9400
 1042.1112      .2440      .9510
 1042.2636      .2440      .9700
 1042.4160      .2440      .9700
 1042.5684      .2440      .9650
 1042.7208      .2440      .9620
 1042.8732      .2440      .9620
 1043.0256      .2440      .9620
 1043.1780      .2440      .9630
 1043.3304      .2440      .9690
 1043.4828      .2440      .9910
 1043.6352      .2440     1.0230
 1043.7876      .2440     1.0410
 1043.9400      .2440     1.0430
 1044.0924      .2440     1.0220
 1044.2448      .2440      .9670
 1044.3972      .2440      .8990
 1044.5496      .2510      .8450
 1044.7020      .2580      .8000
 1044.8544      .2600      .7780
 1045.0068      .2600      .7800
 1045.1592      .2600      .8050
 1045.3116      .2600      .8320
 1045.4640      .2600      .8720
 1045.6164      .2590      .9160
 1045.7688      .2530      .9350
 1045.9212      .2520      .9400
 1046.0736      .2520      .9370
 1046.2260      .2520      .9270
 1046.3784      .2520      .9170
 1046.5308      .2520      .9170
 1046.6832      .2520      .9240
 1046.8356      .2520      .9180
 1046.9880      .2520      .9030
 1047.1404      .2520      .8760
 1047.2928      .2520      .8520
 1047.4452      .2520      .8280
 1047.5976      .2520      .8100
 1047.7500      .2520      .8050
 1047.9024      .2520      .8080
 1048.0548      .2520      .8310
 1048.2072      .2520      .8610
 1048.3596      .2510      .8580
 1048.5120      .2440      .8390
 1048.6644      .2440      .8080
 1048.8168      .2440      .7820
 1048.9692      .2440      .7710
 1049.1216      .2440      .7730
 1049.2740      .2440      .7890
 1049.4264      .2440      .8140
 1049.5788      .2440      .8510
 1049.7312      .2440      .8750
 1049.8836      .2440      .9000
 1050.0360      .2440      .9280
 1050.1884      .2440      .9510
 1050.3408      .2440      .9730
 1050.4932      .2420      .9890
 1050.6456      .2360      .9870
 1050.7980      .2360      .9680
 1050.9504      .2330      .9370
 1051.1028      .2140      .8920
 1051.2552      .2060      .8320
 1051.4076      .2040      .7730
 1051.5600      .2110      .7350
 1051.7124      .2120      .7240
 1051.8648      .2050      .7400
 1052.0172      .2030      .7870
 1052.1696      .2020      .8400
 1052.3220      .2120      .8580
 1052.4744      .2120      .8580
 1052.6268      .2120      .8450
 1052.7792      .2120      .8410
 1052.9316      .2120      .8510
 1053.0840      .2120      .8840
 1053.2364      .2120      .9270
 1053.3888      .2120      .9590
 1053.5412      .2160      .9600
 1053.6936      .2200      .9420
 1053.8460      .2350      .9110
 1053.9984      .2460      .8810
 1054.1508      .2520      .8730
 1054.3032      .2520      .8810
 1054.4556      .2520      .9050
 1054.6080      .2520      .9140
 1054.7604      .2520      .9000
 1054.9128      .2520      .8710
 1055.0652      .2550      .8320
 1055.2176      .2660      .7950
 1055.3700      .2710      .7760
 1055.5224      .2760      .7960
 1055.6748      .2760      .8110
 1055.8272      .2710      .8090
 1055.9796      .2680      .7970
 1056.1320      .2680      .7910
 1056.2844      .2680      .7930
 1056.4368      .2680      .8070
 1056.5892      .2680      .8410
 1056.7416      .2680      .8770
 1056.8940      .2680      .8940
 1057.0464      .2680      .8940
 1057.1988      .2680      .8900
 1057.3512      .2680      .8710
 1057.5036      .2680      .8410
 1057.6560      .2700      .8080
 1057.8084      .2780      .7780
 1057.9608      .2840      .7500
 1058.1132      .3000      .7290
 1058.2656      .3000      .7250
 1058.4180      .3060      .7350
 1058.5704      .3080      .7600
 1058.7228      .3080      .8000
 1058.8752      .3080      .8260
 1059.0276      .3040      .8230
 1059.1800      .3000      .7870
 1059.3324      .3000      .7410
 1059.4848      .3000      .7100
 1059.6372      .3000      .6960
 1059.7896      .2960      .6970
 1059.9420      .2920      .7010
 1060.0944      .2920      .7120
 1060.2468      .2900      .7270
 1060.3992      .2840      .7480
 1060.5516      .2840      .7610
 1060.7040      .2840      .7600
 1060.8564      .2810      .7470
 1061.0088      .2780      .7310
 1061.1612      .2760      .7170
 1061.3136      .2760      .7080
 1061.4660      .2760      .7030
 1061.6184      .2760      .7120
 1061.7708      .2720      .7460
 1061.9232      .2670      .7960
 1062.0756      .2610      .8490
 1062.2280      .2600      .8800
 1062.3804      .2600      .8880
 1062.5328      .2600      .8870
 1062.6852      .2600      .8770
 1062.8376      .2600      .8590
 1062.9900      .2580      .8400
 1063.1424      .2540      .8230
 1063.2948      .2520      .8100
 1063.4472      .2520      .8050
 1063.5996      .2520      .8040
 1063.7520      .2500      .8070
 1063.9044      .2460      .8190
 1064.0568      .2440      .8340
 1064.2092      .2440      .8460
 1064.3616      .2440      .8560
 1064.5140      .2440      .8750
 1064.6664      .2400      .8860
 1064.8188      .2290      .8860
 1064.9712      .2180      .8840
 1065.1236      .2090      .8830
 1065.2760      .1990      .8810
 1065.4284      .1910      .8800
 1065.5808      .1850      .8800
 1065.7332      .1810      .8830
 1065.8856      .1760      .8870
 1066.0380      .1690      .9030
 1066.1904      .1590      .9210
 1066.3428      .1580      .9350
 1066.4952      .1580      .9490
 1066.6476      .1580      .9660
 1066.8000      .1580      .9850
 1066.9524      .1580      .9840
 1067.1048      .1580      .9750
 1067.2572      .1600      .9590
 1067.4096      .1620      .9450
 1067.5620      .1650      .9360
 1067.7144      .1660      .9350
 1067.8668      .1660      .9370
 1068.0192      .1660      .9390
 1068.1716      .1660      .9390
 1068.3240      .1660      .9400
 1068.4764      .1710      .9470
 1068.6288      .1740      .9710
 1068.7812      .1740      .9860
 1068.9336      .1740      .9690
 1069.0860      .1740      .9370
 1069.2384      .1790      .9150
 1069.3908      .1820      .9010
 1069.5432      .1880      .9000
 1069.6956      .1900      .9230
 1069.8480      .1910      .9670
 1070.0004      .1960     1.0210
 1070.1528      .1980     1.0350
 1070.3052      .1980     1.0290
 1070.4576      .2030     1.0160
