~VERSION INFORMATION
VERS.                                                 2.0:   CWLS Log ASCII Standard-VERSION 2.0
WRAP.                                                  NO:   One line per depth step
~Well Information Block
STRT.M                                           836.5236:   Top Depth
STOP.M                                          2800.0452:   Bottom Depth
STEP.M                                             .15240:   Depth Increment
NULL.                                            -999.250:   Null Value
FLD .                                          EEMSKANAAL:   Field Name
WELL.                                       EEMSKANAAL- 2:   NAME
APD .M                                               5.62:   ABOVE PERM DATUM
CTRY.                                                  NE:   COUNTRY
EDF .m                                               5.62:   ELEV DRILL FLOOR
EPD .                                                   0:   ELEV PERM DATUM
EGL .m                                              -1.06:   GROUND LEVEL
LMF .                                                  DF:   LOGS MEAS FROM
COMP.                                                 NAM:   OPERATOR
PDAT.                                                 NAP:   PERM DATUM
SPUD.                                          1971/03/17:   SPUD DATE
STAT.                                           Unknown m:   STATE
UWBI.                                      11000074112601:   UWBI
WELL.                                       EEMSKANAAL- 2:   HOLE NAME
~PARAMETER INFORMATION (log)
LNAM.                              RUN 04 RAW CH OCT 2002:   NAME
LTYP.                                                 04R:   LOG TYPE
LVSN.                                                   1:   LOG VERSION
BHT .DEGC                                             101:   BH TEMP
BS  .IN                                             9.625:   BIT SIZE
BHS .                                                CASE:   BOREHOLE STATUS
BLI .M                                               2800:   BOTTOM DEPTH LOGGED
BHIS.                                                  RC:   BRIEF HISTORY
CS  .IN                                             7.625:   CASING SIZE
CSW .LB/F                                            52.3:   CASING WEIGHT
R1  .                                 Log correlated with:   COMMENT  1
R2  .       Compensated formation density log 1-April-197:   COMMENT  2
R4  .          Weight expendable tubing 18.6 lbs per foot:   COMMENT  4
R5  .              Weight 7 5/8" casing 33.7 lbs per foot:   COMMENT  5
R7  .                                      Set CSID 5.98":   COMMENT  7
R8  .                   Set CWEI 33.7 + 18.6  =  52.3 LBS:   COMMENT  8
R9  .                                    Set CSIZ 7.625 ":   COMMENT  9
DMF .                                                 ORT:   DRILL MEAS FROM
EDF .M                                               5.62:   ELEV DRILL FLOOR
ELZ .                                              5.62 M:   ELEVATION LOG ZERO
ENGI.                                         M. Riedeman:   ENGINEER
FHIS.                                            RAW-DLIS:   FULL HISTORY
HIDE.                                               RST-C:   HEADER ID
LCNM.                                        Schlumberger:   LOGGING CONTRACTOR
LMF .                                                 ORT:   LOGS MEAS FROM
MATR.                                                LIME:   MATRIX
MRT .DEGC                                             101:   MAX REC TEMP
DFT .                                                 gas:   MUD TYPE
CN  .                                                 NAM:   OPERATOR
RUN .                                                   1:   RUN
DATE.                                          2002/10/25:   RUN DATE
RW  .OHMM                                               1:   RW
STEM.DEGC                                              18:   SURFACE TEMPERATURE
TLAB.                                                1100:   TIME LOGGER ON BOT
TLI .M                                                840:   TOP DEPTH LOGGED
WITN.                           P van der Zee & S. Yntema:   WITNESS
~Curve Information Block
#MNEM.UNIT                                        API CODE    No Description
#=========                                        ========    == ===========
DEPT.M                                       00 001 00 00:     1  DEPTH
AIRB.                                                    :     2  RST Air Borehole Diagnostic
CIRF.                                                    :     3  RST Capture to Inelastic Ratio Far
CIRN.                                                    :     4  RST Capture to Inelastic Ratio Near
FBAC.CPS                                                 :     5  Far Background Count Rate
GR.API                                                   :     6  Gamma Ray
IRAT.                                                    :     7  RST Inelastic Ratio
NBAC.CPS                                                 :     8  Near Background Count Rate
SBNA.CU                                                  :     9  RST Sigma Borehole Near Apparent
SFNA.CU                                                  :    10  RST Sigma Formation Near Apparent
SIGM.CU                                                  :    11  Formation Sigma (Neutron Capture Cross S
TPHI.FRAC                                                :    12  Thermal Decay Porosity
~ASCII
# ...
 2528.4684     1.0000      .1349      .0748  3265.5237    11.9712     1.0862  1906.2836   137.8160    51.8479    67.1146     -.0220
 2528.6208     1.0000      .1276      .0795  3283.0369    11.3903     1.0893  1900.4011   140.7711    50.2510    66.9730     -.0090
 2528.7732     1.0000      .1380      .0796  3261.2454    11.6299     1.0987  1920.1874   132.0563    51.5460    65.8129     -.0171
 2528.9256     1.0000      .1352      .0829  3271.1384    11.8891     1.0978  1905.7485   136.2136    50.8993    64.7123     -.0088
 2529.0780     1.0000      .1416      .0791  3319.5186    11.8881     1.0977  1908.4222   129.0515    52.3544    63.8611     -.0411
 2529.2304     1.0000      .1398      .0719  3291.6882    12.9398     1.0915  1910.0269   136.4707    52.9515    64.8238     -.0400
 2529.3828     1.0000      .1427      .0753  3280.5920    11.8691     1.0926  1905.7488   132.2053    50.3890    65.0719     -.0441
 2529.5352     1.0000      .1473      .0735  3268.2922    11.9521     1.0969  1919.2512   127.5485    50.2665    64.6190     -.0409
 2529.6876     1.0000      .1442      .0761  3283.6670    12.2860     1.0928  1943.3157   134.7110    50.7333    64.1063     -.0284
 2529.8400     1.0000      .1368      .0825  3296.5010    12.3695     1.0881  1947.4598   130.4446    53.5456    63.1511     -.0414
 2529.9924     1.0000      .1376      .0771  3281.7952    11.7852     1.0880  1968.7216   138.1792    51.7984    63.3204     -.0226
 2530.1448     1.0000      .1404      .0790  3271.6345    12.6039     1.0893  1947.7368   127.5153    47.7864    63.5865     -.0330
 2530.2972     1.0000      .1417      .0789  3245.2734    12.6856     1.0889  1940.2504   135.1779    50.1606    64.1316     -.0303
 2530.4496     1.0000      .1455      .0783  3259.5784    11.6840     1.0985  1971.4171   135.8978    51.6866    63.4082     -.0461
 2530.6020     1.0000      .1425      .0843  3238.9905    11.6840     1.0985  1938.6460   132.2692    50.0317    63.1908     -.0295
 2530.7544     1.0000      .1405      .0830  3231.9138    12.1013     1.1053  1906.4082   130.3052    49.3694    63.7975     -.0041
 2530.9068     1.0000      .1369      .0854  3253.8623    11.3511     1.0993  1840.3154   129.7562    52.6022    66.0407      .0207
 2531.0592     1.0000      .1388      .0790  3278.8391    10.1847     1.1030  1948.1115   131.6340    49.9468    66.8640      .0250
 2531.2116     1.0000      .1419      .0819  3307.7166    10.1012     1.0980  1928.5929   131.1175    54.0207    66.6123      .0205
 2531.3640     1.0000      .1350      .0876  3328.1709    10.6807     1.0935  1900.2505   131.8163    51.2831    65.3545      .0158
 2531.5164     1.0000      .1406      .0792  3324.4275    10.4303     1.0939  1887.0153   130.7689    44.3932    66.2415      .0318
 2531.6688     1.0000      .1458      .0878  3336.6018    11.0136     1.0913  1879.5236   125.8542    50.1812    66.3432      .0364
 2531.8212     1.0000      .1369      .0840  3349.4360    11.3712     1.0956  1886.6046   129.2136    52.2136    66.4079      .0333
 2531.9736     1.0000      .1421      .0832  3375.5071    11.9555     1.0925  1885.4058   130.7917    53.2592    65.9900      .0151
 2532.1260     1.0000      .1387      .0826  3394.7585    11.4491     1.0863  1916.8228   132.3110    50.2797    66.5156      .0069
 2532.2784     1.0000      .1379      .0820  3418.0205    10.8648     1.0722  1898.1062   136.0583    51.4482    67.9098      .0233
 2532.4308     1.0000      .1378      .0789  3412.3962    10.1136     1.0645  1880.0845   132.9655    50.4774    68.1810      .0463
 2532.5832     1.0000      .1263      .0824  3416.5498    10.5906     1.0614  1871.2333   127.0917    51.5921    68.6338      .0641
 2532.7356     1.0000      .1287      .0780  3409.2202    10.5906     1.0691  1862.1425   134.4808    55.0466    67.9875      .0534
 2532.8880     1.0000      .1354      .0818  3380.3430    11.0184     1.0669  1875.7789   133.2302    47.3942    67.2655      .0258
 2533.0404     1.0000      .1343      .0806  3367.2412    11.3523     1.0736  1868.8270   135.6085    54.6463    66.3037      .0306
 2533.1928     1.0000      .1362      .0841  3378.4712    11.3523     1.0794  1889.4153   123.8378    48.9163    66.1465      .0228
 2533.3452     1.0000      .1396      .0840  3364.6921    11.1019     1.0868  1891.6880   137.1074    50.2488    67.3560      .0378
 2533.4976     1.0000      .1347      .0837  3354.5322    10.7680     1.0866  1891.6880   131.5508    49.8888    68.3051      .0207
 2533.6500     1.0000      .1343      .0791  3367.5315    10.7680     1.0819  1891.8173   134.1656    49.7046    68.7766      .0132
 2533.8024     1.0000      .1440      .0784  3369.1353    10.9349     1.0798  1878.5819   138.5978    49.9221    68.1200     -.0006
 2533.9548     1.0000      .1393      .0817  3347.7219    12.1886     1.0781  1891.4161   131.6554    58.3365    67.4276     -.0063
 2534.1072     1.0000      .1369      .0790  3317.5159    12.4461     1.0760  1897.5657   138.7305    51.9983    66.8929      .0112
 2534.2596     1.0000      .1380      .0912  3306.7893    12.6141     1.0766  1902.1390   132.9266    50.4791    65.7915      .0098
 2534.4120     1.0000      .1399      .0830  3334.4719    11.8629     1.0707  1911.7645   133.6909    50.3407    65.3462      .0124
 2534.5644     1.0000      .1436      .0800  3344.6318    11.4455     1.0581  1893.5828   130.5091    49.3269    65.6123      .0190
 2534.7168     1.0000      .1407      .0770  3362.0117    10.8596     1.0648  1889.3047   126.4999    53.0959    66.7845      .0446
 2534.8692     1.0000      .1265      .0790  3346.7710    10.8607     1.0737  1884.2246   125.2267    45.4153    66.1213      .0446
 2535.0216     1.0000      .1312      .0812  3344.5063    11.2770     1.0952  1881.9519   130.3923    47.7039    64.7429      .0179
 2535.1740     1.0000      .1432      .0812  3351.3330    11.1935     1.0924  1894.2515   134.5434    48.9043    63.5235     -.0249
 2535.3264     1.0000      .1399      .0833  3369.0830    11.7789     1.0946  1902.2727   137.9199    54.8694    63.7035     -.0264
 2535.4788     1.0000      .1371      .0804  3348.7620    11.9459     1.0866  1912.1659   132.4975    54.4860    63.9605     -.0243
 2535.6312     1.0000      .1323      .0820  3371.2451    11.9448     1.0842  1919.1176   133.6391    53.7541    64.7635     -.0085
 2535.7836     1.0000      .1373      .0742  3399.1338    11.5285     1.0748  1928.4758   133.9599    53.3315    64.1766     -.0396
 2535.9360     1.0000      .1420      .0804  3376.0439    12.3598     1.0746  1941.4437   142.0979    52.5307    64.7625     -.0278
 2536.0884     1.0000      .1359      .0795  3351.0352    12.5268     1.0751  1946.2566   132.0225    54.1912    65.1850     -.0062
 2536.2408     1.0000      .1358      .0830  3329.7788    12.4372     1.0826  1950.5348   126.8552    52.0307    65.4218      .0189
 2536.3932     1.0000      .1398      .0824  3342.3635    12.4313     1.0796  1952.9413   133.0710    51.1502    66.1046      .0236
 2536.5456     1.0000      .1456      .0805  3351.7224    12.7625     1.0889  1943.3156   131.2360    51.2509    64.6414      .0019
 2536.6980     1.0000      .1363      .0830  3376.3127    12.6048     1.0902  1934.8929   126.7087    47.3459    65.0869      .0099
 2536.8504     1.0000      .1458      .0791  3386.0640    12.5360     1.0905  1929.8129   130.0388    51.8252    63.9132      .0078
 2537.0028     1.0000      .1361      .0827  3366.2993    11.7285     1.0826  1925.0000   128.2993    51.5388    64.5862      .0127
 2537.1552     1.0000      .1388      .0882  3362.1548    11.5070     1.0901  1918.3157   133.5799    48.5487    64.0118      .0235
 2537.3076     1.0000      .1358      .0809  3369.6414    11.6755     1.1010  1910.4279   125.3226    53.6123    65.1674      .0308
 2537.4600     1.0000      .1385      .0862  3358.4563    11.2534     1.0965  1893.8505   129.4776    53.9394    64.9904      .0316
 2537.6124     1.0000      .1479      .0848  3381.0344    10.9212     1.0888  1874.4652   131.4713    47.3509    65.8128      .0236
