~VERSION INFORMATION
VERS.                                                 2.0:   CWLS Log ASCII Standard-VERSION 2.0
WRAP.                                                  NO:   One line per depth step
~Well Information Block
STRT.M                                          1789.0236:   Top Depth
STOP.M                                          2779.9284:   Bottom Depth
STEP.M                                             .15240:   Depth Increment
NULL.                                            -999.250:   Null Value
FLD .                                          EEMSKANAAL:   Field Name
WELL.                                       EEMSKANAAL- 2:   NAME
APD .M                                               5.62:   ABOVE PERM DATUM
CTRY.                                                  NE:   COUNTRY
EDF .m                                               5.62:   ELEV DRILL FLOOR
EPD .                                                   0:   ELEV PERM DATUM
EGL .m                                              -1.06:   GROUND LEVEL
LMF .                                                  DF:   LOGS MEAS FROM
COMP.                                                 NAM:   OPERATOR
PDAT.                                                 NAP:   PERM DATUM
SPUD.                                          1971/03/17:   SPUD DATE
STAT.                                           Unknown m:   STATE
UWBI.                                      11000074112601:   UWBI
WELL.                                       EEMSKANAAL- 2:   HOLE NAME
~PARAMETER INFORMATION (log)
LNAM.                                RUN 01 RAW OH 9 5/8":   NAME
LTYP.                                                 01R:   LOG TYPE
LVSN.                                                   1:   LOG VERSION
BS  .5/8"                                               9:   BIT SIZE
BLI .M                                             2778.0:   BOTTOM DEPTH LOGGED
BHIS.                                                MCCC:   BRIEF HISTORY
FHIS.                                     MERGE/COPY/COPY:   FULL HISTORY
MRT .DEGC                                              84:   MAX REC TEMP
DFD .G/CC                                            1.54:   MUD DENSITY
DFT .                                   SALT SAT SPERSENE:   MUD TYPE
RMS .                                                    :   RM
MST .                                                    :   RM TEMP
RMCS.                                                    :   RMC
MCST.                                                    :   RMC TEMP
RMFS.                                                    :   RMF
MFST.                                                    :   RMF TEMP
TCS .                                                 N/A:   TIME SINCE CIRCLN
TLI .M                                             1800.0:   TOP DEPTH LOGGED
~Curve Information Block
#MNEM.UNIT                                        API CODE    No Description
#=========                                        ========    == ===========
DEPT.M                                       00 001 00 00:     1  DEPTH
CALF.IN                                                  :     2  CALIPER FROM FORMATION DENSITY LOG
FDC.G/C3                                                 :     3  Formation Density Log (Compensated Open
GR.API                                                   :     4  Gamma Ray
~ASCII
# ...
 1899.9708    10.2740     2.1830    64.9510
 1900.1232    10.3170     2.1910    64.9690
 1900.2756    10.3320     2.2020    58.6400
 1900.4280    10.2100     2.2060    53.8400
 1900.5804    10.2070     2.1970    52.4300
 1900.7328    10.4020     2.2200    52.4660
 1900.8852    10.4310     2.2360    51.5510
 1901.0376    10.3620     2.2340    48.5520
 1901.1900    10.3440     2.2260    44.3850
 1901.3424    10.3690     2.2240    40.3430
 1901.4948    10.3830     2.2110    36.9680
 1901.6472    10.3550     2.2180    35.1120
 1901.7996    10.3360     2.2450    35.3070
 1901.9520    10.3470     2.2520    36.1700
 1902.1044    10.3690     2.2470    37.5790
 1902.2568    10.3840     2.2390    39.3640
 1902.4092    10.3740     2.2390    40.9100
 1902.5616    10.2870     2.2280    41.7810
 1902.7140    10.2370     2.1860    40.5440
 1902.8664    10.2270     2.1660    37.3160
 1903.0188    10.2340     2.1580    34.0180
 1903.1712    10.2360     2.1560    31.1980
 1903.3236    10.2350     2.1580    29.5400
 1903.4760    10.2320     2.1630    31.6510
 1903.6284    10.2280     2.1640    35.0510
 1903.7808    10.2230     2.1710    37.8780
 1903.9332    10.2180     2.1830    38.1160
 1904.0856    10.2140     2.1850    37.2190
 1904.2380    10.2100     2.1850    38.5120
 1904.3904    10.2080     2.1720    35.5290
 1904.5428    10.2120     2.1610    29.2610
 1904.6952    10.2120     2.1590    24.8740
 1904.8476    10.2100     2.1350    22.6540
 1905.0000    10.2080     2.1250    21.3450
 1905.1524    10.2010     2.1400    20.9540
 1905.3048    10.1870     2.1410    21.7690
 1905.4572    10.1690     2.1320    23.3230
 1905.6096    10.1480     2.1390    25.4040
 1905.7620    10.1360     2.1520    27.5880
 1905.9144    10.1290     2.1620    28.8490
 1906.0668    10.1290     2.1690    28.4840
 1906.2192    10.1290     2.1750    27.6330
 1906.3716    10.1290     2.1440    25.7050
 1906.5240    10.1290     2.1330    23.2670
 1906.6764    10.1290     2.1300    21.4740
 1906.8288    10.1290     2.1300    22.3570
 1906.9812    10.1320     2.1280    25.2330
 1907.1336    10.1330     2.1360    25.5980
 1907.2860    10.1370     2.1460    24.6970
 1907.4384    10.1460     2.1530    25.3600
 1907.5908    10.1490     2.1750    27.7130
 1907.7432    10.1470     2.1830    29.1480
 1907.8956    10.1410     2.1810    29.9980
 1908.0480    10.1340     2.1640    28.7050
 1908.2004    10.1290     2.1470    26.3970
 1908.3528    10.1270     2.1390    25.3970
 1908.5052    10.1220     2.1380    27.4790
 1908.6576    10.1210     2.1520    30.2880
 1908.8100    10.1220     2.1450    30.9410
 1908.9624    10.1240     2.1200    26.1900
 1909.1148    10.1230     2.1060    20.7070
 1909.2672    10.1230     2.0900    18.2230
 1909.4196    10.1260     2.0950    16.8830
 1909.5720    10.1290     2.0980    16.2030
 1909.7244    10.1310     2.0950    16.1390
 1909.8768    10.1350     2.1090    16.6770
 1910.0292    10.1380     2.1170    18.3500
 1910.1816    10.1420     2.1180    20.0440
 1910.3340    10.1450     2.1230    21.1680
 1910.4864    10.1450     2.1240    21.5990
 1910.6388    10.1450     2.1280    22.4120
 1910.7912    10.1450     2.1170    21.4860
 1910.9436    10.1470     2.1030    18.5520
 1911.0960    10.1490     2.0950    15.7500
 1911.2484    10.1490     2.0940    15.3170
 1911.4008    10.1490     2.0980    17.2250
 1911.5532    10.1530     2.0960    17.6440
 1911.7056    10.1530     2.0940    16.7620
 1911.8580    10.1580     2.0920    16.4410
 1912.0104    10.1610     2.1090    17.2950
 1912.1628    10.1620     2.1210    18.7600
 1912.3152    10.1650     2.1380    19.4550
 1912.4676    10.1660     2.1250    18.3270
 1912.6200    10.1610     2.1120    16.2360
 1912.7724    10.1480     2.1100    14.7080
 1912.9248    10.1300     2.1070    13.4190
 1913.0772    10.1130     2.0980    12.1950
 1913.2296    10.0970     2.0990    11.2210
 1913.3820    10.0740     2.1030    11.7300
 1913.5344    10.0610     2.1090    13.4080
 1913.6868    10.0580     2.1030    15.1810
 1913.8392    10.0670     2.0960    16.4490
 1913.9916    10.0850     2.0870    16.5710
 1914.1440    10.1030     2.0850    15.0390
 1914.2964    10.1130     2.0980    16.2270
 1914.4488    10.1120     2.1070    18.5160
 1914.6012    10.1040     2.1130    18.5490
 1914.7536    10.0910     2.1320    19.7580
 1914.9060    10.0730     2.1370    21.1030
 1915.0584    10.0540     2.1360    22.0160
 1915.2108    10.0400     2.1190    21.6150
 1915.3632    10.0310     2.0980    19.2730
 1915.5156    10.0340     2.0930    17.4500
 1915.6680    10.0400     2.0910    16.7330
 1915.8204    10.0400     2.0900    15.6470
 1915.9728    10.0340     2.0960    11.9410
 1916.1252    10.0210     2.0990     9.9860
 1916.2776     9.9970     2.0940     9.5160
 1916.4300     9.9800     2.0730     8.4050
 1916.5824     9.9770     2.0630     7.6740
 1916.7348     9.9850     2.0590     7.0670
 1916.8872    10.0070     2.0590     6.5520
 1917.0396    10.0270     2.0650     6.5130
 1917.1920    10.0460     2.0650     6.7920
 1917.3444    10.0680     2.0750     7.4500
 1917.4968    10.0850     2.0860     8.5840
 1917.6492    10.0890     2.0970     9.4820
 1917.8016    10.0890     2.0820    10.2860
 1917.9540    10.0910     2.0650    10.6000
 1918.1064    10.0970     2.0480    13.8400
 1918.2588    10.0990     2.0230    17.4530
 1918.4112    10.1070     2.0000    19.4710
 1918.5636    10.1130     1.9920    20.2800
 1918.7160    10.1080     1.9820    20.0030
 1918.8684    10.0980     1.9840    20.1290
 1919.0208    10.0990     1.9770    21.7450
 1919.1732    10.0930     1.9660    27.1620
 1919.3256    10.1150     1.9590    34.6330
 1919.4780    10.1470     1.9390    37.6460
 1919.6304    10.1610     1.9460    38.2770
 1919.7828    10.1190     2.0080    35.6060
 1919.9352    10.0830     2.0300    32.3110
 1920.0876    10.0780     2.0340    30.1600
 1920.2400    10.0730     2.0290    30.1950
 1920.3924    10.0250     2.0170    32.0450
 1920.5448     9.9760     2.0100    30.6180
 1920.6972     9.9030     2.0060    30.5720
 1920.8496     9.8760     2.0090    32.1660
 1921.0020     9.8810     2.0160    30.5780
 1921.1544     9.9100     2.0220    27.9230
 1921.3068     9.9430     2.0240    26.9370
 1921.4592     9.9670     2.0150    28.8770
 1921.6116     9.9690     2.0010    30.0960
 1921.7640     9.9550     1.9950    31.0800
 1921.9164     9.9390     1.9760    33.7010
 1922.0688     9.9230     1.9550    39.7630
 1922.2212     9.9180     1.9290    45.1400
 1922.3736     9.9230     1.8960    48.7660
 1922.5260     9.9420     1.8710    53.1970
 1922.6784     9.9900     1.8520    62.0250
 1922.8308    10.1020     1.8250    72.3830
 1922.9832    10.2130     1.8030    77.7680
 1923.1356    10.1760     1.8090    74.8620
 1923.2880    10.1280     1.8650    72.2590
 1923.4404    10.0960     1.8900    71.3320
 1923.5928    10.0850     1.8700    70.9330
 1923.7452    10.1030     1.8380    71.3960
 1923.8976    10.2120     1.8050    74.2770
 1924.0500    10.5210     1.7920    79.6800
 1924.2024    10.7610     1.7910    82.8750
 1924.3548    10.8630     1.8080    82.6600
 1924.5072    10.9680     1.7850    84.8540
 1924.6596    11.0440     1.7410    87.0660
 1924.8120    11.0850     1.7150    89.0290
 1924.9644    11.0800     1.7240    83.5570
 1925.1168    10.5680     1.7410    78.5440
 1925.2692    10.3270     1.7510    71.9210
 1925.4216    10.3760     1.7630    69.3840
 1925.5740    10.6250     1.7600    69.7650
 1925.7264    10.6140     1.7540    69.8730
 1925.8788    10.5400     1.7530    65.8000
 1926.0312    10.5390     1.7680    64.3030
 1926.1836    10.5370     1.7760    64.3650
 1926.3360    10.4150     1.7810    63.7340
 1926.4884    10.3560     1.7920    55.1770
 1926.6408    10.3550     1.7810    56.7840
 1926.7932    10.3610     1.7590    64.8770
 1926.9456    10.3640     1.7440    72.2450
 1927.0980    10.3640     1.7560    74.9550
 1927.2504    10.3610     1.7780    71.5210
 1927.4028    10.3560     1.7850    69.9270
 1927.5552    10.3510     1.7900    69.0580
