~VERSION INFORMATION
VERS.                                                 2.0:   CWLS Log ASCII Standard-VERSION 2.0
WRAP.                                                  NO:   One line per depth step
~Well Information Block
STRT.M                                          1407.1092:   Top Depth
STOP.M                                          3062.9352:   Bottom Depth
STEP.M                                             .15240:   Depth Increment
NULL.                                            -999.250:   Null Value
FLD .                                          EEMSKANAAL:   Field Name
WELL.                                       EEMSKANAAL- 1:   NAME
EDF .m                                               5.58:   ELEV DRILL FLOOR
EPD .                                                   0:   ELEV PERM DATUM
EGL .m                                                -.9:   GROUND LEVEL
LMF .                                                  DF:   LOGS MEAS FROM
COMP.                                                 NAM:   OPERATOR
PDAT.                                                 NAP:   PERM DATUM
SPUD.                                          1970/11/08:   SPUD DATE
UWBI.                                      11000074112201:   UWBI
WELL.                                       EEMSKANAAL- 1:   HOLE NAME
~PARAMETER INFORMATION (log)
LNAM.                                RUN 03 RAW OH 9.625":   NAME
LTYP.                                                 03R:   LOG TYPE
LVSN.                                                   1:   LOG VERSION
BS  .5/8"                                               9:   BIT SIZE
BLI .M                                               3064:   BOTTOM DEPTH LOGGED
BHIS.                                            RCCCCCCC:   BRIEF HISTORY
FHIS.              RAW-TIGA/COPY/COPY/COPY/COPY/COPY/COPY:   FULL HISTORY
MRT .C                                                 98:   MAX REC TEMP
DFT .                                          SALT SPERS:   MUD TYPE
RMS .                                                    :   RM
MST .                                                    :   RM TEMP
RMCS.                                                    :   RMC
MCST.                                                    :   RMC TEMP
RMFS.                                                    :   RMF
MFST.                                                    :   RMF TEMP
TCS .                                               4 HRS:   TIME SINCE CIRCLN
TLI .M                                               1407:   TOP DEPTH LOGGED
~Curve Information Block
#MNEM.UNIT                                        API CODE    No Description
#=========                                        ========    == ===========
DEPT.M                                       00 001 00 00:     1  DEPTH
CALF.IN                                                  :     2  CALIPER FROM FORMATION DENSITY LOG
FDC.g/c3                                                 :     3  Formation Density Log (Compensated Open
GR.GAPI                                                  :     4  Gamma Ray
~ASCII
# ...
 2488.8444    10.7120     2.0770     9.7670
 2488.9968    10.6840     2.1040     9.6050
 2489.1492    10.7650     2.1190     9.7970
 2489.3016    10.8540     2.1150    11.3930
 2489.4540    10.8430     2.0960    13.5080
 2489.6064    10.7470     2.0770    14.5380
 2489.7588    10.6790     2.0750    14.2270
 2489.9112    10.6910     2.0810    12.3660
 2490.0636    10.8360     2.0740    11.1350
 2490.2160    11.0300     2.0710     9.4370
 2490.3684    11.3220     2.0800     8.6970
 2490.5208    11.2350     2.0880     9.1990
 2490.6732    11.0380     2.1020     9.9280
 2490.8256    11.0720     2.0970    10.0740
 2490.9780    11.1650     2.0890    10.4990
 2491.1304    11.1060     2.0710    11.4000
 2491.2828    11.0240     2.0490    12.5440
 2491.4352    10.9380     2.0590    12.4320
 2491.5876    10.8170     2.0810    10.3380
 2491.7400    10.7770     2.0870     8.9790
 2491.8924    10.9110     2.0820     8.8800
 2492.0448    10.8740     2.0800     8.9670
 2492.1972    10.8080     2.0840     8.9420
 2492.3496    10.8110     2.0820     9.7160
 2492.5020    10.8360     2.0810    10.9380
 2492.6544    10.8460     2.0690    10.8720
 2492.8068    10.8530     2.0640     9.8460
 2492.9592    10.8840     2.0550     8.9860
 2493.1116    10.9620     2.0530     8.4200
 2493.2640    10.9750     2.0480     8.4170
 2493.4164    10.9280     2.0640     8.5180
 2493.5688    10.8130     2.0640     7.7200
 2493.7212    10.8210     2.0550     8.2530
 2493.8736    10.8570     2.0520     9.6300
 2494.0260    10.8640     2.0620     9.3310
 2494.1784    10.8580     2.0540     9.6020
 2494.3308    10.8480     2.0630     9.9130
 2494.4832    10.8320     2.0700     9.7650
 2494.6356    10.8170     2.0630     9.4450
 2494.7880    10.8290     2.0640     9.1150
 2494.9404    10.8990     2.0750     7.8560
 2495.0928    11.0940     2.0830     8.0740
 2495.2452    11.2220     2.0800     9.4000
 2495.3976    11.2320     2.0690     9.1150
 2495.5500    11.2180     2.0680     8.6480
 2495.7024    11.1990     2.0720     7.2800
 2495.8548    11.1960     2.0840     7.0670
 2496.0072    11.2200     2.0930     7.8380
 2496.1596    11.2540     2.0850     8.5840
 2496.3120    11.2610     2.0570     9.3020
 2496.4644    11.2750     2.0440     9.5790
 2496.6168    11.2920     2.0560     8.2990
 2496.7692    11.3060     2.0520     8.0870
 2496.9216    11.3060     2.0610     8.6330
 2497.0740    11.2830     2.0690     7.7920
 2497.2264    11.2660     2.0860     6.8770
 2497.3788    11.2820     2.1100     6.6330
 2497.5312    11.2710     2.0930     6.8310
 2497.6836    11.2400     2.0780     7.2210
 2497.8360    11.2230     2.0770     7.5400
 2497.9884    11.2090     2.0720     7.7840
 2498.1408    11.1770     2.0620     7.7570
 2498.2932    11.1090     2.0560     7.3450
 2498.4456    11.1040     2.0560     6.8180
 2498.5980    11.1520     2.0530     7.3670
 2498.7504    11.1730     2.0450     8.4760
 2498.9028    11.1970     2.0460     8.7000
 2499.0552    11.2070     2.0480     8.7000
 2499.2076    11.2070     2.0490     8.7000
 2499.3600    11.1950     2.0500     8.7630
 2499.5124    11.1880     2.0370     8.9660
 2499.6648    11.1740     2.0360     9.3150
 2499.8172    11.1680     2.0380     9.7570
 2499.9696    11.1880     2.0380    10.3410
 2500.1220    11.1900     2.0410    10.6600
 2500.2744    11.1900     2.0700    10.8000
 2500.4268    11.1900     2.0830    11.3570
 2500.5792    11.1990     2.0860    11.9780
 2500.7316    11.2140     2.0750    11.9570
 2500.8840    11.2700     2.0580    11.7140
 2501.0364    11.3060     2.0430    11.2890
 2501.1888    11.2600     2.0080    10.3660
 2501.3412    11.1370     2.0050     9.1440
 2501.4936    11.0410     2.0320     8.7410
 2501.6460    11.0120     2.0390     9.7670
 2501.7984    11.0140     2.0450    10.4200
 2501.9508    11.0160     2.0540    10.3710
 2502.1032    11.0430     2.0640    10.0780
 2502.2556    11.0960     2.0680     9.0860
 2502.4080    11.0860     2.0700     9.0030
 2502.5604    11.0720     2.0580    10.1990
 2502.7128    11.0800     2.0400    10.7980
 2502.8652    11.0900     2.0390    10.7170
 2503.0176    11.0860     2.0520    10.3100
 2503.1700    11.0890     2.0580    10.7340
 2503.3224    11.1000     2.0640    11.5570
 2503.4748    11.1050     2.0690    11.0010
 2503.6272    11.1240     2.0630    10.2820
 2503.7796    11.1380     2.0490    10.2600
 2503.9320    11.1680     2.0500    10.0950
 2504.0844    11.2000     2.0470     9.4490
 2504.2368    11.2140     2.0450     9.4570
 2504.3892    11.2510     2.0450     9.7390
 2504.5416    11.2660     2.0510     8.2180
 2504.6940    11.2660     2.0430     7.7440
 2504.8464    11.2730     2.0430     8.3090
 2504.9988    11.2880     2.0610     8.5510
 2505.1512    11.3010     2.0690     8.6530
 2505.3036    11.2980     2.0750     9.2980
 2505.4560    11.2980     2.0820     8.9360
 2505.6084    11.3020     2.0830     7.6970
 2505.7608    11.3020     2.0790     6.8920
 2505.9132    11.3020     2.0770     7.5290
 2506.0656    11.3050     2.0700     7.7720
 2506.2180    11.3190     2.0750     7.3230
 2506.3704    11.3620     2.0890     7.2000
 2506.5228    11.3940     2.0760     7.2550
 2506.6752    11.4180     2.0370     7.7900
 2506.8276    11.4210     2.0320     8.3410
 2506.9800    11.4180     2.0420     8.4600
 2507.1324    11.4160     2.0430     9.0930
 2507.2848    11.4180     2.0450     9.8800
 2507.4372    11.4190     2.0670    10.0600
 2507.5896    11.4220     2.0630     9.1800
 2507.7420    11.4260     2.0590     8.2570
 2507.8944    11.4340     2.0660     7.2890
 2508.0468    11.4750     2.0890     8.0230
 2508.1992    11.5150     2.0890     8.8770
 2508.3516    11.5360     2.0910     8.7990
 2508.5040    11.5860     2.0870     9.3120
 2508.6564    11.6060     2.0760     9.9980
 2508.8088    11.6060     2.0750    10.8810
 2508.9612    11.6000     2.0670    10.8430
 2509.1136    11.6060     2.0540     9.7710
 2509.2660    11.6220     2.0630     9.1910
 2509.4184    11.6550     2.0640     8.9510
 2509.5708    11.6930     2.0530     9.3400
 2509.7232    11.7260     2.0240     9.7630
 2509.8756    11.7310     2.0280    10.6970
 2510.0280    11.6910     2.0440    11.0580
 2510.1804    11.6970     2.0460    10.2890
 2510.3328    11.6980     2.0420     9.9680
 2510.4852    11.7160     2.0540     8.9760
 2510.6376    11.6840     2.0660     7.7170
 2510.7900    11.5810     2.0550     7.3260
 2510.9424    11.5980     2.0530     8.1600
 2511.0948    11.6400     2.0660     8.8570
 2511.2472    11.6810     2.0650     8.9510
 2511.3996    11.7290     2.0680     9.0600
 2511.5520    11.7720     2.0590     8.7820
 2511.7044    11.7780     2.0480     8.5230
 2511.8568    11.7320     2.0400     8.5970
 2512.0092    11.6950     2.0450     8.5850
 2512.1616    11.6950     2.0520     8.7510
 2512.3140    11.6830     2.0580     9.2470
 2512.4664    11.6460     2.0450    10.1280
 2512.6188    11.6120     2.0470    10.1890
 2512.7712    11.6220     2.0700     9.5860
 2512.9236    11.6400     2.0710     8.9170
 2513.0760    11.6430     2.0710     8.1170
 2513.2284    11.6440     2.0820     7.7090
 2513.3808    11.6530     2.0580     8.4080
 2513.5332    11.6670     2.0470     9.5440
 2513.6856    11.6670     2.0530    10.4720
 2513.8380    11.6730     2.0570    10.8860
 2513.9904    11.6750     2.0480    11.5270
 2514.1428    11.6770     2.0550    11.9060
 2514.2952    11.6830     2.0590    11.8800
 2514.4476    11.6930     2.0580    11.4860
 2514.6000    11.7190     2.0500    10.2900
 2514.7524    11.7350     2.0780     8.9830
 2514.9048    11.7680     2.0940     8.3650
 2515.0572    11.7790     2.1000     9.2420
 2515.2096    11.7890     2.0900    10.1700
 2515.3620    11.7950     2.0810    10.7850
 2515.5144    11.8010     2.0820    11.0140
 2515.6668    11.8040     2.0790    11.0800
 2515.8192    11.7830     2.0760    11.3260
 2515.9716    11.7190     2.0700    11.8530
 2516.1240    11.6940     2.0730    12.7290
 2516.2764    11.6880     2.0860    12.1660
 2516.4288    11.6840     2.1020    10.5580
