~VERSION INFORMATION
VERS.                                                 2.0:   CWLS Log ASCII Standard-VERSION 2.0
WRAP.                                                  NO:   One line per depth step
~Well Information Block
STRT.M                                          2687.1168:   Top Depth
STOP.M                                          3063.8496:   Bottom Depth
STEP.M                                             .15240:   Depth Increment
NULL.                                            -999.250:   Null Value
FLD .                                          EEMSKANAAL:   Field Name
WELL.                                       EEMSKANAAL- 1:   NAME
EDF .m                                               5.58:   ELEV DRILL FLOOR
EPD .                                                   0:   ELEV PERM DATUM
EGL .m                                                -.9:   GROUND LEVEL
LMF .                                                  DF:   LOGS MEAS FROM
COMP.                                                 NAM:   OPERATOR
PDAT.                                                 NAP:   PERM DATUM
SPUD.                                          1970/11/08:   SPUD DATE
UWBI.                                      11000074112201:   UWBI
WELL.                                       EEMSKANAAL- 1:   HOLE NAME
~PARAMETER INFORMATION (log)
LNAM.                                RUN 05 RAW OH 9.625":   NAME
LTYP.                                                 05R:   LOG TYPE
LVSN.                                                   1:   LOG VERSION
BS  .5/8"                                               9:   BIT SIZE
BLI .M                                               3063:   BOTTOM DEPTH LOGGED
BHIS.                                            RCCCCCCC:   BRIEF HISTORY
FHIS.              RAW-TIGA/COPY/COPY/COPY/COPY/COPY/COPY:   FULL HISTORY
MRT .C                                                 89:   MAX REC TEMP
DFT .                                          SALT SPERS:   MUD TYPE
RMS .                                               0.074:   RM
MST .C                                                 26:   RM TEMP
RMCS.                                               0.144:   RMC
MCST.C                                                 17:   RMC TEMP
RMFS.                                               0.059:   RMF
MFST.C                                                 26:   RMF TEMP
TCS .                                               5 HRS:   TIME SINCE CIRCLN
TLI .M                                               2690:   TOP DEPTH LOGGED
~Curve Information Block
#MNEM.UNIT                                        API CODE    No Description
#=========                                        ========    == ===========
DEPT.M                                       00 001 00 00:     1  DEPTH
LL7.OHMM                                                 :     2  LATEROLOG 7
SP.MV                                                    :     3  Spontaneous potential
~ASCII
# ...
 2798.2164     3.6070   -69.6500
 2798.3688     3.6150   -69.6500
 2798.5212     3.6350   -69.6500
 2798.6736     3.7320   -69.6500
 2798.8260     3.8340   -69.7180
 2798.9784     3.8340   -69.8010
 2799.1308     3.5440   -69.9480
 2799.2832     3.3630   -70.0100
 2799.4356     3.2240   -69.9770
 2799.5880     3.1190   -70.0430
 2799.7404     3.0970   -70.2510
 2799.8928     3.1510   -70.5650
 2800.0452     3.2300   -70.8070
 2800.1976     3.2610   -70.9690
 2800.3500     3.2630   -70.9550
 2800.5024     3.2170   -70.9300
 2800.6548     2.9700   -70.9300
 2800.8072     2.4490   -70.9300
 2800.9596     2.6070   -70.9300
 2801.1120     3.3580   -70.9300
 2801.2644     3.4240   -70.9300
 2801.4168     3.5960   -70.9300
 2801.5692     3.9890   -70.9020
 2801.7216     4.3310   -70.8900
 2801.8740     3.6670   -70.9200
 2802.0264     3.3950   -70.9300
 2802.1788     3.1530   -71.2060
 2802.3312     2.9680   -71.2050
 2802.4836     3.1210   -71.3370
 2802.6360     3.3160   -73.0410
 2802.7884     3.2230   -74.1690
 2802.9408     3.0540   -74.9160
 2803.0932     3.0180   -75.3290
 2803.2456     3.0990   -75.3400
 2803.3980     3.2620   -75.3400
 2803.5504     3.5780   -75.3400
 2803.7028     3.8770   -75.3380
 2803.8552     3.9560   -75.2690
 2804.0076     3.9490   -75.2200
 2804.1600     4.0940   -75.2200
 2804.3124     4.2280   -75.2200
 2804.4648     3.6610   -75.2200
 2804.6172     2.9390   -75.2200
 2804.7696     2.9280   -75.2200
 2804.9220     2.9500   -75.2900
 2805.0744     3.0000   -75.3970
 2805.2268     3.1210   -75.6310
 2805.3792     3.5030   -75.9370
 2805.5316     4.2560   -76.2440
 2805.6840     5.0160   -76.4410
 2805.8364     5.2400   -76.6370
 2805.9888     5.0280   -76.7800
 2806.1412     4.3680   -76.8890
 2806.2936     3.6890   -76.9580
 2806.4460     3.2920   -76.9700
 2806.5984     2.9610   -76.9700
 2806.7508     2.7760   -76.8850
 2806.9032     2.8050   -76.8100
 2807.0556     3.2180   -76.7780
 2807.2080     3.4670   -76.7400
 2807.3604     3.5910   -76.7400
 2807.5128     3.6470   -76.7400
 2807.6652     3.6570   -76.7660
 2807.8176     3.6300   -76.8100
 2807.9700     3.3570   -76.8100
 2808.1224     3.3300   -76.8100
 2808.2748     3.3440   -76.8030
 2808.4272     3.3500   -76.7210
 2808.5796     3.3400   -76.6140
 2808.7320     3.2980   -76.5510
 2808.8844     3.1520   -76.4650
 2809.0368     3.2400   -76.4450
 2809.1892     3.6060   -76.3840
 2809.3416     3.6390   -76.3180
 2809.4940     3.6200   -76.1290
 2809.6464     3.6400   -75.8350
 2809.7988     3.7400   -75.7400
 2809.9512     3.9550   -75.6640
 2810.1036     4.0230   -75.5660
 2810.2560     3.8550   -75.4030
 2810.4084     3.8260   -75.2170
 2810.5608     3.9110   -75.1560
 2810.7132     3.9610   -75.1430
 2810.8656     3.9550   -75.1730
 2811.0180     3.9350   -75.2280
 2811.1704     3.7540   -75.3590
 2811.3228     3.3730   -75.4690
 2811.4752     3.1010   -75.4930
 2811.6276     2.9580   -75.4460
 2811.7800     2.9450   -75.3700
 2811.9324     3.0050   -75.2610
 2812.0848     3.1130   -75.0640
 2812.2372     3.1690   -74.7330
 2812.3896     3.1950   -74.3640
 2812.5420     3.2750   -74.0570
 2812.6944     3.3770   -73.8190
 2812.8468     4.4090   -73.5750
 2812.9992     5.2920   -73.2720
 2813.1516     2.7260   -72.9720
 2813.3040     2.9110   -72.7430
 2813.4564     2.9310   -72.4900
 2813.6088     2.8850   -72.2140
 2813.7612     2.8860   -71.9580
 2813.9136     2.9110   -71.7560
 2814.0660     2.9930   -71.6170
 2814.2184     3.0810   -71.5450
 2814.3708     3.1770   -71.4780
 2814.5232     3.4900   -71.4330
 2814.6756     3.9700   -71.3720
 2814.8280     3.9820   -71.2490
 2814.9804     3.6100   -71.1220
 2815.1328     3.3640   -71.0170
 2815.2852     3.1560   -70.8730
 2815.4376     3.0810   -70.7700
 2815.5900     3.1530   -70.7700
 2815.7424     3.3690   -70.7700
 2815.8948     3.5820   -70.7700
 2816.0472     3.7070   -70.7750
 2816.1996     3.7970   -71.8560
 2816.3520     3.8040   -72.0180
 2816.5044     3.8040   -72.2150
 2816.6568     3.8170   -72.4000
 2816.8092     3.8680   -72.6090
 2816.9616     3.9980   -72.7310
 2817.1140     4.1320   -71.7600
 2817.2664     4.3180   -71.7340
 2817.4188     4.7090   -71.7200
 2817.5712     5.2780   -71.7200
 2817.7236     5.6090   -71.7200
 2817.8760     5.7810   -71.6970
 2818.0284     5.8510   -71.6800
 2818.1808     5.7680   -71.6800
 2818.3332     5.6060   -71.6740
 2818.4856     5.5660   -71.6430
 2818.6380     6.4320   -71.6150
 2818.7904     6.9770   -71.5630
 2818.9428     7.1380   -71.5600
 2819.0952     7.0380   -71.5600
 2819.2476     6.0230   -71.5600
 2819.4000     5.1790   -71.5600
 2819.5524     4.8770   -71.5600
 2819.7048     4.6600   -71.5600
 2819.8572     4.6130   -71.5600
 2820.0096     4.6460   -71.5570
 2820.1620     4.8860   -71.5180
 2820.3144     5.2920   -71.4760
 2820.4668     5.3370   -71.3900
 2820.6192     4.9650   -71.2660
 2820.7716     4.8900   -71.2430
 2820.9240     4.8100   -71.2100
 2821.0764     4.5510   -71.1800
 2821.2288     4.2320   -71.1370
 2821.3812     4.0740   -71.1300
 2821.5336     4.0670   -71.1300
 2821.6860     4.0920   -71.1300
 2821.8384     4.1320   -71.1300
 2821.9908     4.2860   -71.0940
 2822.1432     4.4270   -70.9800
 2822.2956     4.4090   -70.9310
 2822.4480     4.1660   -70.9110
 2822.6004     3.9100   -70.8100
 2822.7528     3.7030   -70.3060
 2822.9052     3.9240   -67.7970
 2823.0576     4.1390   -65.9880
 2823.2100     3.9170   -65.3200
 2823.3624     3.6600   -65.3200
 2823.5148     3.8080   -65.3200
 2823.6672     4.7500   -65.3200
 2823.8196     4.8370   -65.3280
 2823.9720     4.8900   -65.3600
 2824.1244     4.9210   -65.3600
 2824.2768     4.9210   -65.3600
 2824.4292     4.8870   -65.3600
 2824.5816     4.8080   -65.3930
 2824.7340     4.6900   -65.5680
 2824.8864     4.6460   -65.8180
 2825.0388     4.6630   -66.0160
 2825.1912     4.6630   -66.0770
 2825.3436     4.6700   -66.0510
 2825.4960     4.6920   -65.9730
 2825.6484     4.7550   -65.8700
 2825.8008     4.9480   -65.8400
 2825.9532     5.2120   -65.8190
 2826.1056     5.1750   -65.8000
 2826.2580     5.0720   -65.7940
 2826.4104     5.1370   -65.7600
 2826.5628     5.5260   -65.7600
 2826.7152     6.4610   -65.7600
 2826.8676     7.1590   -65.7870
 2827.0200     6.7270   -65.8000
 2827.1724     6.6030   -65.8290
 2827.3248     6.2260   -65.8500
 2827.4772     5.5230   -65.9420
 2827.6296     5.2410   -65.9080
 2827.7820     5.6360   -65.8800
 2827.9344     5.7500   -65.7850
 2828.0868     5.6850   -65.1160
 2828.2392     5.6780   -64.3590
 2828.3916     5.7470   -63.9690
 2828.5440     5.8760   -63.8210
 2828.6964     6.0640   -63.8200
 2828.8488     6.2110   -63.8700
 2829.0012     6.2370   -63.9310
 2829.1536     6.1410   -64.0440
 2829.3060     6.0680   -64.1730
 2829.4584     6.1170   -64.2330
 2829.6108     6.2370   -64.2940
 2829.7632     6.5360   -64.3810
 2829.9156     7.0110   -64.4830
 2830.0680     7.8340   -64.5770
 2830.2204     8.4230   -64.6720
 2830.3728     7.9510   -64.6660
 2830.5252     7.5290   -64.6400
 2830.6776     7.3730   -64.6400
 2830.8300     7.3650   -64.6400
 2830.9824     7.3690   -64.6400
 2831.1348     7.3580   -64.6400
 2831.2872     7.2590   -64.6400
 2831.4396     6.9710   -64.6560
 2831.5920     6.5660   -64.6990
 2831.7444     6.2480   -64.7380
 2831.8968     6.0060   -64.7990
 2832.0492     5.7180   -64.8600
 2832.2016     5.4560   -65.0120
 2832.3540     5.2810   -65.2410
 2832.5064     5.1730   -65.4210
 2832.6588     5.1500   -65.4340
 2832.8112     5.2350   -65.3670
 2832.9636     5.6240   -65.2510
 2833.1160     6.2180   -65.0740
 2833.2684     6.9330   -65.0400
 2833.4208     8.1150   -65.0420
 2833.5732     8.5980   -65.0720
 2833.7256     8.5250   -65.1300
 2833.8780     7.7750   -65.1600
 2834.0304     6.8640   -65.1510
 2834.1828     6.3460   -65.0640
 2834.3352     5.8640   -65.0210
 2834.4876     5.0320   -65.2500
 2834.6400     4.2790   -65.7580
 2834.7924     5.5230   -66.3660
 2834.9448     5.7260   -66.9310
 2835.0972     5.3850   -67.4700
