~VERSION INFORMATION
VERS.                                                 2.0:   CWLS Log ASCII Standard-VERSION 2.0
WRAP.                                                  NO:   One line per depth step
~Well Information Block
STRT.M                                          2684.0688:   Top Depth
STOP.M                                          2930.9568:   Bottom Depth
STEP.M                                             .15240:   Depth Increment
NULL.                                            -999.250:   Null Value
FLD .                                          EEMSKANAAL:   Field Name
WELL.                                       EEMSKANAAL- 1:   NAME
EDF .m                                               5.58:   ELEV DRILL FLOOR
EPD .                                                   0:   ELEV PERM DATUM
EGL .m                                                -.9:   GROUND LEVEL
LMF .                                                  DF:   LOGS MEAS FROM
COMP.                                                 NAM:   OPERATOR
PDAT.                                                 NAP:   PERM DATUM
SPUD.                                          1970/11/08:   SPUD DATE
UWBI.                                      11000074112201:   UWBI
WELL.                                       EEMSKANAAL- 1:   HOLE NAME
~PARAMETER INFORMATION (log)
LNAM.                                RUN 08 RAW OH 9.625":   NAME
LTYP.                                                 08R:   LOG TYPE
LVSN.                                                   1:   LOG VERSION
BS  .5/8"                                               9:   BIT SIZE
BLI .M                                               2950:   BOTTOM DEPTH LOGGED
BHIS.                                              MCCCCC:   BRIEF HISTORY
FHIS.                           MERGE/COPY/COPY/COPY/COPY:   FULL HISTORY
MRT .                                                    :   MAX REC TEMP
DFT .                                          SALT SPERS:   MUD TYPE
RMS .                                               0.074:   RM
MST .C                                                 26:   RM TEMP
RMCS.                                               0.144:   RMC
MCST.C                                                 17:   RMC TEMP
RMFS.                                               0.059:   RMF
MFST.C                                                 26:   RMF TEMP
TCS .                                                 N/A:   TIME SINCE CIRCLN
TLI .M                                             1406.5:   TOP DEPTH LOGGED
~Curve Information Block
#MNEM.UNIT                                        API CODE    No Description
#=========                                        ========    == ===========
DEPT.M                                       00 001 00 00:     1  DEPTH
LL9D.OHMM                                                :     2  Dual Laterolog 9 deep
LL9S.OHMM                                                :     3  Dual Laterolog 9 shallow
MSFL.OHMM                                                :     4  MICRO SPHERICALLY FOCUSSED LOG
~ASCII
# ...
 2850.4896    12.6510     7.7180     1.1510
 2850.6420    12.6520     7.5530     1.5720
 2850.7944    12.3890     7.3020     2.1050
 2850.9468    12.4640     7.4270     1.4940
 2851.0992    13.7390     8.3770     1.5250
 2851.2516    16.7330     9.4800     1.7020
 2851.4040    18.2350    10.1800     1.6250
 2851.5564    17.7080    10.6150     1.0830
 2851.7088    17.1320    10.6360     1.3530
 2851.8612    17.6900    10.9460     1.5430
 2852.0136    17.4010    10.6010     1.7840
 2852.1660    15.6400     9.5520     1.6600
 2852.3184    13.6690     8.7540     1.3310
 2852.4708    12.2410     8.0460     1.3670
 2852.6232    11.8280     7.5250     1.2050
 2852.7756    13.1380     7.9210     1.2680
 2852.9280    16.4610     9.8210     1.3950
 2853.0804    18.2040    10.2230     2.0410
 2853.2328    18.3510     9.9740     2.3340
 2853.3852    18.9240    10.0450     1.5920
 2853.5376    16.7980     9.8790     6.4360
 2853.6900    15.0660     8.6400     3.7120
 2853.8424    13.8330     7.5420     3.5990
 2853.9948    12.0280     6.6340     3.6280
 2854.1472     9.5100     5.7520     2.5250
 2854.2996     7.4220     4.6740     1.4380
 2854.4520     5.4500     4.0020     1.1530
 2854.6044     4.8810     3.6350      .8640
 2854.7568     4.8550     3.5410      .7860
 2854.9092     4.9280     3.5400      .8360
 2855.0616     5.5510     3.6170      .7370
 2855.2140     6.6970     4.1690     1.0860
 2855.3664     8.7240     5.1500     1.1840
 2855.5188    11.5810     5.9310     1.2350
 2855.6712    13.6640     6.7830     2.2820
 2855.8236    14.3340     7.3810     3.2090
 2855.9760    14.3850     7.5640     1.8400
 2856.1284    13.9800     7.5990     1.0720
 2856.2808    12.4540     7.4350     1.1870
 2856.4332    11.7880     7.2660     1.4090
 2856.5856    11.7380     7.1670     1.5860
 2856.7380    12.2210     7.1070     1.9660
 2856.8904    13.2210     7.1270     2.5670
 2857.0428    14.4720     7.5200     2.8460
 2857.1952    14.4780     8.2170     3.8280
 2857.3476    14.2050     8.2690     1.6080
 2857.5000    14.2500     8.2530     2.3090
 2857.6524    14.4480     8.2890     3.5240
 2857.8048    15.2580     8.4670     2.8130
 2857.9572    17.3860     8.9850     3.1950
 2858.1096    18.7320     9.5610     3.4400
 2858.2620    17.9320     9.3070     3.8690
 2858.4144    15.1300     8.0930     2.8580
 2858.5668    13.6340     7.4110     3.4560
 2858.7192    13.3060     7.2020     3.5200
 2858.8716    13.4740     7.2020     2.0630
 2859.0240    13.6370     7.2100     1.7720
 2859.1764    13.3720     7.2000     1.8770
 2859.3288    11.7250     6.8520     1.8970
 2859.4812     9.4200     5.4090     1.7310
 2859.6336     8.0350     4.7430     1.6510
 2859.7860     7.6390     4.6430     1.7200
 2859.9384     7.6410     4.6610     1.5210
 2860.0908     7.6540     4.6580     1.1470
 2860.2432     7.4610     4.4520     1.9250
 2860.3956     6.8350     4.1640     3.0880
 2860.5480     6.5890     3.9370     1.7710
 2860.7004     6.5130     3.7340     1.2860
 2860.8528     6.2410     3.5510     1.1490
 2861.0052     5.8800     3.4020     1.0630
 2861.1576     5.6730     3.3240     1.2600
 2861.3100     5.8750     3.3630     1.0520
 2861.4624     6.7520     3.5210      .8290
 2861.6148     7.3760     3.6750     1.2990
 2861.7672     7.4930     3.7560     1.3650
 2861.9196     7.4100     3.7400     1.3640
 2862.0720     7.1540     3.6720     1.7250
 2862.2244     7.0090     3.6120     1.1820
 2862.3768     6.9700     3.5990     1.2720
 2862.5292     6.9810     3.6310     1.4000
 2862.6816     6.9440     3.6510     1.3390
 2862.8340     6.7870     3.6230     1.2180
 2862.9864     6.5870     3.4350     1.4770
 2863.1388     6.1750     3.2560     1.4990
 2863.2912     5.7700     3.2010     1.2420
 2863.4436     5.8740     3.2920     1.2440
 2863.5960     6.3390     3.6450     1.2120
 2863.7484     6.6590     3.8940     1.2210
 2863.9008     6.5790     3.9210     1.3210
 2864.0532     6.3140     3.5990     2.5500
 2864.2056     5.7860     3.2540     2.9980
 2864.3580     5.3770     3.3520     1.4690
 2864.5104     5.3020     3.5270     1.3360
 2864.6628     5.4720     3.6730     2.1770
 2864.8152     5.9590     4.0480     1.8080
 2864.9676     6.8290     4.7710     1.5330
 2865.1200     7.6300     5.3270     2.6320
 2865.2724     7.9380     5.5090     2.6460
 2865.4248     7.4670     5.1900     2.9700
 2865.5772     6.4190     4.5900     4.7420
 2865.7296     5.5500     4.1530     6.5080
 2865.8820     4.9670     3.8000     5.8420
 2866.0344     4.7180     3.5710     5.4840
 2866.1868     4.5640     3.4830     5.7460
 2866.3392     4.4190     3.4070     7.3630
 2866.4916     4.1790     3.2120     2.3890
 2866.6440     4.0640     3.1210     1.5220
 2866.7964     4.1820     3.2510     1.9260
 2866.9488     4.8610     3.8680     2.4300
 2867.1012     5.5330     4.3750     2.3770
 2867.2536     4.9950     4.1830     2.1210
 2867.4060     4.2710     3.4530     2.7190
 2867.5584     4.2710     3.4160     5.1350
 2867.7108     5.0350     3.8820     2.7530
 2867.8632     6.0190     5.0550     1.7120
 2868.0156     6.8660     5.6210     2.1310
 2868.1680     7.0350     5.5690     2.4140
 2868.3204     6.9230     5.3280     4.0270
 2868.4728     6.7810     5.3060     6.1380
 2868.6252     6.7770     5.4190     5.7430
 2868.7776     6.9960     5.4380     5.7740
 2868.9300     6.9180     5.3850     6.5050
 2869.0824     6.5640     5.2910     7.2970
 2869.2348     6.3420     5.1780     7.4250
 2869.3872     5.6020     4.6190     5.0320
 2869.5396     4.4500     3.5190     4.8600
 2869.6920     4.2060     3.2640     5.1410
 2869.8444     3.9310     3.1140     4.0950
 2869.9968     3.4770     2.7630     1.3690
 2870.1492     3.1840     2.6050     1.1800
 2870.3016     3.2100     2.6260     1.2430
 2870.4540     3.4910     2.8270     1.2460
 2870.6064     4.0720     3.2640     1.0000
 2870.7588     4.3560     3.4190      .9590
 2870.9112     4.5090     3.5270     1.0930
 2871.0636     4.9040     3.8650     1.3240
 2871.2160     5.6170     4.3310     1.4290
 2871.3684     5.8080     4.5790     3.9500
 2871.5208     5.7780     4.6800     4.8270
 2871.6732     5.9640     5.0050     4.9020
 2871.8256     6.5890     5.3030     5.1930
 2871.9780     6.9460     5.5280     7.0580
 2872.1304     7.0360     5.5600     6.3260
 2872.2828     6.9490     5.4990     5.5430
 2872.4352     6.7370     5.3250     6.3860
 2872.5876     6.4290     5.0800     7.7170
 2872.7400     6.0970     4.8670     6.9080
 2872.8924     5.8570     4.7230     4.9820
 2873.0448     6.1360     4.7830     5.0500
 2873.1972     6.6370     5.2490     5.3410
 2873.3496     6.4830     5.1320     5.1210
 2873.5020     5.1150     4.3300     4.3200
 2873.6544     4.5070     3.6010     2.6490
 2873.8068     4.5920     3.5930     1.3420
 2873.9592     5.4200     4.0570     1.3020
 2874.1116     6.5420     4.8020     1.3740
 2874.2640     6.7050     5.1910     1.7040
 2874.4164     6.3540     4.9540     5.9140
 2874.5688     4.7220     4.3470     4.7550
 2874.7212     3.6360     3.3320     2.0430
 2874.8736     3.5290     2.7880     1.5530
 2875.0260     3.7230     2.8110     1.5590
 2875.1784     4.3860     3.0920     1.4140
 2875.3308     5.2220     3.7150     1.4300
 2875.4832     6.0320     4.5530     1.7950
 2875.6356     6.3500     4.7800     4.0650
 2875.7880     6.3350     4.7690     5.1010
 2875.9404     6.0040     4.6220     6.6360
 2876.0928     5.0460     4.2240     4.5320
 2876.2452     4.2330     3.2290     3.1580
 2876.3976     4.1260     3.0270     1.5380
 2876.5500     4.1580     3.0080     1.0310
 2876.7024     4.3900     3.1140     1.0290
 2876.8548     5.1550     3.4920     1.1050
 2877.0072     6.0830     3.9010     1.2910
 2877.1596     6.9420     4.3570     1.1760
 2877.3120     7.6480     4.6410     1.2320
 2877.4644     7.8770     4.7180     1.2570
 2877.6168     8.0090     4.7170     1.3550
 2877.7692     7.9600     4.6240     1.2340
 2877.9216     7.8710     4.6150     1.1610
 2878.0740     8.0530     4.7130     1.2720
