~VERSION INFORMATION
VERS.                                                 2.0:   CWLS Log ASCII Standard-VERSION 2.0
WRAP.                                                  NO:   One line per depth step
~Well Information Block
STRT.M                                          1789.0236:   Top Depth
STOP.M                                          2779.9284:   Bottom Depth
STEP.M                                             .15240:   Depth Increment
NULL.                                            -999.250:   Null Value
FLD .                                          EEMSKANAAL:   Field Name
WELL.                                       EEMSKANAAL- 2:   NAME
APD .M                                               5.62:   ABOVE PERM DATUM
CTRY.                                                  NE:   COUNTRY
EDF .m                                               5.62:   ELEV DRILL FLOOR
EPD .                                                   0:   ELEV PERM DATUM
EGL .m                                              -1.06:   GROUND LEVEL
LMF .                                                  DF:   LOGS MEAS FROM
COMP.                                                 NAM:   OPERATOR
PDAT.                                                 NAP:   PERM DATUM
SPUD.                                          1971/03/17:   SPUD DATE
STAT.                                           Unknown m:   STATE
UWBI.                                      11000074112601:   UWBI
WELL.                                       EEMSKANAAL- 2:   HOLE NAME
~PARAMETER INFORMATION (log)
LNAM.                                RUN 01 RAW OH 9 5/8":   NAME
LTYP.                                                 01R:   LOG TYPE
LVSN.                                                   1:   LOG VERSION
BS  .5/8"                                               9:   BIT SIZE
BLI .M                                             2778.0:   BOTTOM DEPTH LOGGED
BHIS.                                                MCCC:   BRIEF HISTORY
FHIS.                                     MERGE/COPY/COPY:   FULL HISTORY
MRT .DEGC                                              84:   MAX REC TEMP
DFD .G/CC                                            1.54:   MUD DENSITY
DFT .                                   SALT SAT SPERSENE:   MUD TYPE
RMS .                                                    :   RM
MST .                                                    :   RM TEMP
RMCS.                                                    :   RMC
MCST.                                                    :   RMC TEMP
RMFS.                                                    :   RMF
MFST.                                                    :   RMF TEMP
TCS .                                                 N/A:   TIME SINCE CIRCLN
TLI .M                                             1800.0:   TOP DEPTH LOGGED
~Curve Information Block
#MNEM.UNIT                                        API CODE    No Description
#=========                                        ========    == ===========
DEPT.M                                       00 001 00 00:     1  DEPTH
CALF.IN                                                  :     2  CALIPER FROM FORMATION DENSITY LOG
FDC.G/C3                                                 :     3  Formation Density Log (Compensated Open
GR.API                                                   :     4  Gamma Ray
~ASCII
# ...
 2759.8116     9.9250     2.6360    94.8770
 2759.9640     9.9890     2.6480    94.5480
 2760.1164    10.0490     2.6460    92.0190
 2760.2688    10.0760     2.6340    92.3090
 2760.4212    10.0900     2.6360    92.8470
 2760.5736    10.0930     2.6300    89.5270
 2760.7260    10.0930     2.6230    90.1210
 2760.8784    10.0960     2.6310    96.3370
 2761.0308    10.1010     2.6570    95.7260
 2761.1832    10.0980     2.6740    87.1140
 2761.3356    10.0750     2.6770    80.4700
 2761.4880    10.0040     2.6770    77.0640
 2761.6404     9.9830     2.6700    76.7270
 2761.7928     9.9960     2.6510    81.1650
 2761.9452    10.0080     2.6730    81.9500
 2762.0976    10.0050     2.6610    80.8380
 2762.2500     9.9990     2.6400    76.5670
 2762.4024     9.9970     2.6440    74.8840
 2762.5548    10.0190     2.6580    74.4110
 2762.7072    10.0750     2.6600    75.2140
 2762.8596    10.1360     2.6530    77.2830
 2763.0120    10.1720     2.6440    80.7800
 2763.1644    10.1730     2.6430    85.9450
 2763.3168    10.1690     2.6500    92.2440
 2763.4692    10.1420     2.6530    95.4450
 2763.6216    10.0890     2.6500    95.3700
 2763.7740    10.0560     2.6480    92.0290
 2763.9264    10.0530     2.6560    91.2830
 2764.0788    10.0540     2.6680    98.1360
 2764.2312    10.0570     2.6680   101.7340
 2764.3836    10.0540     2.6490   101.5350
 2764.5360    10.0490     2.6570   101.2890
 2764.6884    10.0490     2.6570   100.4150
 2764.8408    10.0330     2.6480   100.3980
 2764.9932     9.9990     2.6660    99.8800
 2765.1456     9.9820     2.6410    96.6920
 2765.2980     9.9860     2.6140    95.0890
 2765.4504    10.0280     2.6160    97.5310
 2765.6028    10.0300     2.6180    97.7170
 2765.7552     9.9220     2.6050    91.2970
 2765.9076     9.8750     2.6220    85.9940
 2766.0600     9.8630     2.6500    86.1480
 2766.2124     9.8620     2.6530    85.3260
 2766.3648     9.8990     2.6470    86.3870
 2766.5172     9.9280     2.6440    84.6680
 2766.6696     9.9100     2.6290    78.0850
 2766.8220     9.9310     2.6240    76.8160
 2766.9744     9.9020     2.6260    80.5470
 2767.1268     9.8790     2.6290    89.4420
 2767.2792     9.8910     2.6260    91.6910
 2767.4316     9.9300     2.6280    89.5230
 2767.5840     9.9220     2.6250    86.2120
 2767.7364     9.9330     2.6360    84.6350
 2767.8888     9.9220     2.6610    83.7820
 2768.0412     9.9030     2.6520    84.2700
 2768.1936     9.9070     2.6270    86.0980
 2768.3460     9.9530     2.5940    82.2600
 2768.4984    10.0130     2.5830    78.0880
 2768.6508    10.0290     2.5980    76.4290
 2768.8032     9.9960     2.6140    76.3970
 2768.9556     9.9790     2.6260    79.1940
 2769.1080    10.0100     2.6130    80.8470
 2769.2604    10.0430     2.6110    85.0020
 2769.4128    10.0410     2.6220    84.3640
 2769.5652     9.9360     2.6210    72.5940
 2769.7176     9.9090     2.6220    64.0910
 2769.8700     9.9150     2.6500    58.3930
 2770.0224     9.9980     2.6580    61.4410
 2770.1748    10.1810     2.6550    72.3750
 2770.3272    10.2200     2.6690    86.8910
 2770.4796    10.2230     2.6710    98.0710
 2770.6320    10.2270     2.6680    95.8550
 2770.7844    10.2240     2.6750    89.6660
 2770.9368    10.2220     2.6620    83.2290
 2771.0892    10.2150     2.6490    80.8920
 2771.2416    10.2030     2.6430    80.0890
 2771.3940    10.1890     2.6500    82.1740
 2771.5464    10.1670     2.6590    85.7760
 2771.6988    10.1540     2.6580    88.0320
 2771.8512    10.1690     2.6700    87.5500
 2772.0036    10.1790     2.6700    81.8580
 2772.1560    10.1880     2.6570    79.0540
 2772.3084    10.2010     2.6500    81.6190
 2772.4608    10.2080     2.6550    82.9760
 2772.6132    10.2070     2.6550    79.9900
 2772.7656    10.1970     2.6440    75.4460
 2772.9180    10.1840     2.6410    68.7970
 2773.0704    10.1670     2.6370    62.8990
 2773.2228    10.1910     2.6460    59.9750
 2773.3752    10.2170     2.6360    60.1510
 2773.5276    10.1910     2.6340    59.3380
 2773.6800    10.2040     2.6310    58.2690
 2773.8324    10.2320     2.6300    57.6740
 2773.9848    10.2400     2.6470    57.1440
 2774.1372    10.2400     2.6470    58.5500
 2774.2896    10.2410     2.6450    60.6010
 2774.4420    10.2440     2.6420    64.5510
 2774.5944    10.2460     2.6460    67.5880
 2774.7468    10.2460     2.6500    68.9830
 2774.8992    10.2440     2.6500    67.3650
 2775.0516    10.2270     2.6430    64.5160
 2775.2040    10.1870     2.6280    61.4730
 2775.3564    10.1560     2.6290    60.8930
 2775.5088    10.1340     2.6240    60.1100
 2775.6612    10.1180     2.6270    61.0770
 2775.8136    10.1020     2.6240    61.7520
 2775.9660    10.0760     2.6130    62.0000
 2776.1184    10.0380     2.5850    63.3660
 2776.2708     9.9970     2.5940    64.2200
 2776.4232     9.9530     2.5970    61.0940
 2776.5756     9.9250     2.5940    59.2400
 2776.7280     9.9440     2.6390    57.3100
 2776.8804    10.0900     2.6610    58.5740
 2777.0328    10.1890     2.6700    57.4190
 2777.1852    10.2450     2.6690    59.5800
 2777.3376    10.2680     2.6590    63.2970
 2777.4900    10.2680     2.6710    64.5990
 2777.6424    10.2560     2.6570    63.5080
 2777.7948    10.2520     2.6480    62.9980
 2777.9472    10.2260     2.6320    63.8340
 2778.0996    10.0590     2.5970    64.1840
 2778.2520     9.5190     2.5560    63.4370
 2778.4044     8.7710     2.5170    61.2550
 2778.5568     8.1710     2.4920    64.2570
 2778.7092     7.9140     2.4770    65.5620
 2778.8616     7.8950     2.4700    63.1050
 2779.0140     7.8930     2.4570    62.4320
 2779.1664     7.8950     2.4590    62.5150
 2779.3188     7.9010     2.4670    62.5210
 2779.4712     7.9060     2.4690    61.3250
 2779.6236     7.9080     2.4500    39.7110
 2779.7760     7.9050     2.3760     1.6420
 2779.9284     7.9010     2.3420     -.6000
