~VERSION INFORMATION
VERS.                                                 2.0:   CWLS Log ASCII Standard-VERSION 2.0
WRAP.                                                  NO:   One line per depth step
~Well Information Block
STRT.M                                          1407.1092:   Top Depth
STOP.M                                          3062.9352:   Bottom Depth
STEP.M                                             .15240:   Depth Increment
NULL.                                            -999.250:   Null Value
FLD .                                          EEMSKANAAL:   Field Name
WELL.                                       EEMSKANAAL- 1:   NAME
EDF .m                                               5.58:   ELEV DRILL FLOOR
EPD .                                                   0:   ELEV PERM DATUM
EGL .m                                                -.9:   GROUND LEVEL
LMF .                                                  DF:   LOGS MEAS FROM
COMP.                                                 NAM:   OPERATOR
PDAT.                                                 NAP:   PERM DATUM
SPUD.                                          1970/11/08:   SPUD DATE
UWBI.                                      11000074112201:   UWBI
WELL.                                       EEMSKANAAL- 1:   HOLE NAME
~PARAMETER INFORMATION (log)
LNAM.                                RUN 03 RAW OH 9.625":   NAME
LTYP.                                                 03R:   LOG TYPE
LVSN.                                                   1:   LOG VERSION
BS  .5/8"                                               9:   BIT SIZE
BLI .M                                               3064:   BOTTOM DEPTH LOGGED
BHIS.                                            RCCCCCCC:   BRIEF HISTORY
FHIS.              RAW-TIGA/COPY/COPY/COPY/COPY/COPY/COPY:   FULL HISTORY
MRT .C                                                 98:   MAX REC TEMP
DFT .                                          SALT SPERS:   MUD TYPE
RMS .                                                    :   RM
MST .                                                    :   RM TEMP
RMCS.                                                    :   RMC
MCST.                                                    :   RMC TEMP
RMFS.                                                    :   RMF
MFST.                                                    :   RMF TEMP
TCS .                                               4 HRS:   TIME SINCE CIRCLN
TLI .M                                               1407:   TOP DEPTH LOGGED
~Curve Information Block
#MNEM.UNIT                                        API CODE    No Description
#=========                                        ========    == ===========
DEPT.M                                       00 001 00 00:     1  DEPTH
CALF.IN                                                  :     2  CALIPER FROM FORMATION DENSITY LOG
FDC.g/c3                                                 :     3  Formation Density Log (Compensated Open
GR.GAPI                                                  :     4  Gamma Ray
~ASCII
# ...
 2266.9500    10.6210     2.1010    13.9500
 2267.1024    10.6440     2.0800    12.8260
 2267.2548    10.7450     2.0680    14.0670
 2267.4072    10.7910     2.0690    15.2150
 2267.5596    10.6630     2.0700    14.9450
 2267.7120    10.8090     2.0770    13.5470
 2267.8644    10.8180     2.0910    12.4760
 2268.0168    10.8180     2.0820    11.8870
 2268.1692    10.8420     2.0790    11.5800
 2268.3216    10.9250     2.1030    11.4600
 2268.4740    10.9320     2.1080    11.5270
 2268.6264    10.9040     2.1100    12.5020
 2268.7788    10.8090     2.1080    13.1950
 2268.9312    10.6540     2.1020    13.2700
 2269.0836    10.6570     2.0820    13.9520
 2269.2360    10.7430     2.0790    14.7360
 2269.3884    10.8370     2.0940    14.6010
 2269.5408    10.8070     2.0850    13.9180
 2269.6932    10.7300     2.0860    14.3410
 2269.8456    10.6340     2.0920    15.1450
 2269.9980    10.6300     2.0830    14.8150
 2270.1504    10.7450     2.0740    13.9790
 2270.3028    10.7350     2.0770    14.0150
 2270.4552    10.6360     2.0880    15.0890
 2270.6076    10.6800     2.0880    15.3790
 2270.7600    10.7340     2.0840    14.5290
 2270.9124    10.7360     2.0830    13.5380
 2271.0648    10.6520     2.0810    12.3500
 2271.2172    10.7240     2.0830    11.1610
 2271.3696    10.7950     2.0750     9.9830
 2271.5220    10.6280     2.0710    11.0860
 2271.6744    10.6260     2.0780    12.2080
 2271.8268    10.6750     2.0920    12.8360
 2271.9792    10.8460     2.0980    13.4780
 2272.1316    10.8720     2.1030    14.1570
 2272.2840    10.8040     2.1200    14.2800
 2272.4364    10.6240     2.1150    13.4120
 2272.5888    10.5850     2.1030    12.8100
 2272.7412    10.5140     2.1020    13.3890
 2272.8936    10.5210     2.0950    14.5320
 2273.0460    10.5630     2.0860    15.4880
 2273.1984    10.6600     2.0950    16.6520
 2273.3508    10.8270     2.1010    16.7160
 2273.5032    10.8570     2.1090    16.1760
 2273.6556    10.7050     2.1090    15.6580
 2273.8080    10.7620     2.0960    16.6060
 2273.9604    10.6930     2.0820    16.5020
 2274.1128    10.6700     2.0750    16.2600
 2274.2652    10.6930     2.0910    16.2990
 2274.4176    10.6780     2.1060    16.4350
 2274.5700    10.7830     2.1020    16.5880
 2274.7224    10.7540     2.0870    16.9620
 2274.8748    10.7430     2.0870    17.8220
 2275.0272    10.7230     2.0940    18.7930
 2275.1796    10.6900     2.0920    17.5210
 2275.3320    10.6700     2.0930    16.2290
 2275.4844    10.7690     2.0910    15.1850
 2275.6368    10.8420     2.0730    13.8620
 2275.7892    10.7350     2.0560    13.2960
 2275.9416    10.6520     2.0540    13.6840
 2276.0940    10.6750     2.0650    13.9280
 2276.2464    10.7380     2.0810    13.9800
 2276.3988    10.6960     2.0880    13.9800
 2276.5512    10.6670     2.0940    13.8880
 2276.7036    10.6820     2.1010    13.6640
 2276.8560    10.6590     2.1100    13.9460
 2277.0084    10.7500     2.1030    14.3760
 2277.1608    10.6340     2.0920    14.4180
 2277.3132    10.7920     2.0840    14.4000
 2277.4656    10.7410     2.0700    14.4000
 2277.6180    10.6660     2.0660    14.2620
 2277.7704    10.7220     2.0680    13.4300
 2277.9228    10.7690     2.0670    12.7240
 2278.0752    10.8070     2.0750    12.5510
 2278.2276    10.7210     2.0910    12.5670
 2278.3800    10.7380     2.1010    12.6000
 2278.5324    10.7570     2.1070    12.5590
 2278.6848    10.7800     2.0950    12.6250
 2278.8372    10.8530     2.0930    12.6280
 2278.9896    10.8580     2.0810    13.0970
 2279.1420    10.7910     2.0870    14.3540
 2279.2944    11.0230     2.0790    14.9210
 2279.4468    10.8850     2.0770    14.9190
 2279.5992    10.7490     2.0820    14.8210
 2279.7516    10.7500     2.0900    14.4380
 2279.9040    10.7350     2.0850    13.0610
 2280.0564    10.6220     2.0840    12.0450
 2280.2088    10.7770     2.0820    12.5330
 2280.3612    10.8270     2.0740    14.2890
 2280.5136    10.8160     2.0790    15.8430
 2280.6660    10.7720     2.0870    15.2870
 2280.8184    10.8750     2.0880    14.5200
 2280.9708    10.8160     2.0890    14.5620
 2281.1232    10.7210     2.0830    14.5200
 2281.2756    10.7160     2.0750    14.5090
 2281.4280    10.7650     2.0790    14.5200
 2281.5804    10.8410     2.0870    14.5200
 2281.7328    10.8790     2.1000    14.4600
 2281.8852    11.0360     2.1120    14.4600
 2282.0376    10.8820     2.1050    14.6250
 2282.1900    11.1020     2.1040    14.6460
 2282.3424    10.8110     2.1150    14.5270
 2282.4948    10.6740     2.1330    15.3970
 2282.6472    10.6820     2.1240    16.3660
 2282.7996    10.7950     2.0970    15.8130
 2282.9520    10.8570     2.0910    14.5640
 2283.1044    10.7500     2.1070    13.5040
 2283.2568    10.7850     2.1090    12.6910
 2283.4092    10.7440     2.0910    12.1440
 2283.5616    10.7730     2.0890    11.7830
 2283.7140    10.7510     2.0730    11.5640
 2283.8664    10.7590     2.0700    12.4530
 2284.0188    10.8070     2.0750    13.2080
 2284.1712    10.7640     2.1140    13.2980
 2284.3236    10.7850     2.1210    13.5800
 2284.4760    10.7240     2.1150    13.7400
 2284.6284    10.9030     2.1160    13.7230
 2284.7808    10.7850     2.1030    13.1710
 2284.9332    10.6620     2.0940    12.1600
 2285.0856    10.6360     2.0940    12.1330
 2285.2380    10.6280     2.0830    12.6170
 2285.3904    10.6960     2.0830    13.6320
 2285.5428    10.7700     2.0890    14.3530
 2285.6952    10.7070     2.0820    13.1480
 2285.8476    10.6630     2.0770    12.8690
 2286.0000    10.7960     2.0810    12.8700
 2286.1524    10.7850     2.0780    12.6850
 2286.3048    10.6210     2.0830    12.2480
 2286.4572    10.6380     2.0830    11.4360
 2286.6096    10.9590     2.0820    10.4500
 2286.7620    10.7970     2.0790     9.8170
 2286.9144    10.8850     2.0670     9.9040
 2287.0668    10.6090     2.0650    11.4950
 2287.2192    10.6150     2.0800    10.2900
 2287.3716    10.6520     2.0810     9.4020
 2287.5240    10.7900     2.0710     9.1800
 2287.6764    11.0490     2.0650     9.1800
 2287.8288    10.8850     2.0770     9.1160
 2287.9812    10.9520     2.0790     9.1170
 2288.1336    10.8750     2.0820     9.1650
 2288.2860    10.9550     2.0750     9.3970
 2288.4384    10.9450     2.0840     9.5720
 2288.5908    10.7630     2.0870    10.3460
 2288.7432    10.7940     2.0810    10.7480
 2288.8956    10.8350     2.0640    10.0490
 2289.0480    10.9080     2.0670    10.5300
 2289.2004    10.9570     2.0790     9.6140
 2289.3528    10.9280     2.0800     9.4630
 2289.5052    10.9230     2.0860     9.7200
 2289.6576    11.0050     2.1050     9.6850
 2289.8100    10.8410     2.1060     9.5280
 2289.9624    10.9070     2.0860     9.3080
 2290.1148    10.6280     2.0800     9.6050
 2290.2672    10.6370     2.0750     9.7200
 2290.4196    10.6760     2.0820     9.6510
 2290.5720    10.8700     2.0720     9.4960
 2290.7244    11.1000     2.0630     9.1520
 2290.8768    11.1020     2.0770     8.5680
 2291.0292    11.0400     2.0830     7.8750
 2291.1816    10.8760     2.0920     7.8770
 2291.3340    10.8350     2.0800     8.6540
 2291.4864    11.0530     2.0700     9.4150
 2291.6388    11.1200     2.0600     8.9490
 2291.7912    11.0290     2.0690     8.4910
 2291.9436    11.2230     2.0940     8.4080
 2292.0960    11.2040     2.0860     8.4000
 2292.2484    11.0120     2.0800     8.4370
 2292.4008    10.9680     2.0920     8.5210
 2292.5532    10.9920     2.1040     8.6400
 2292.7056    10.9660     2.1050     8.2750
 2292.8580    11.0350     2.0980     7.6800
 2293.0104    10.8970     2.1030     7.9340
 2293.1628    11.0710     2.0970     8.1770
 2293.3152    10.9830     2.0770     8.5880
 2293.4676    10.9900     2.0620     8.7860
 2293.6200    11.0780     2.0580     8.8080
 2293.7724    11.1720     2.0630     8.5860
 2293.9248    11.1740     2.0710     8.4450
 2294.0772    11.0700     2.0730     8.7190
 2294.2296    10.9860     2.0720     8.4270
 2294.3820    11.0640     2.0910     7.7990
 2294.5344    11.2480     2.0940     8.1540
