~VERSION INFORMATION
VERS.                                                 2.0:   CWLS Log ASCII Standard-VERSION 2.0
WRAP.                                                  NO:   One line per depth step
~Well Information Block
STRT.M                                          1406.0424:   Top Depth
STOP.M                                          1903.9332:   Bottom Depth
STEP.M                                             .15240:   Depth Increment
NULL.                                            -999.250:   Null Value
FLD .                                          EEMSKANAAL:   Field Name
WELL.                                       EEMSKANAAL- 1:   NAME
EDF .m                                               5.58:   ELEV DRILL FLOOR
EPD .                                                   0:   ELEV PERM DATUM
EGL .m                                                -.9:   GROUND LEVEL
LMF .                                                  DF:   LOGS MEAS FROM
COMP.                                                 NAM:   OPERATOR
PDAT.                                                 NAP:   PERM DATUM
SPUD.                                          1970/11/08:   SPUD DATE
UWBI.                                      11000074112201:   UWBI
WELL.                                       EEMSKANAAL- 1:   HOLE NAME
~PARAMETER INFORMATION (log)
LNAM.                                RUN 07 RAW OH 9.625":   NAME
LTYP.                                                 07R:   LOG TYPE
LVSN.                                                   1:   LOG VERSION
BS  .5/8"                                               9:   BIT SIZE
BLI .M                                               2950:   BOTTOM DEPTH LOGGED
BHIS.                                            RCCCCCCC:   BRIEF HISTORY
FHIS.              RAW-TIGA/COPY/COPY/COPY/COPY/COPY/COPY:   FULL HISTORY
MRT .                                                    :   MAX REC TEMP
DFT .                                          SALT SPERS:   MUD TYPE
RMS .                                               0.074:   RM
MST .C                                                 26:   RM TEMP
RMCS.                                               0.144:   RMC
MCST.C                                                 17:   RMC TEMP
RMFS.                                               0.059:   RMF
MFST.C                                                 26:   RMF TEMP
TCS .                                                 N/A:   TIME SINCE CIRCLN
TLI .M                                             1406.5:   TOP DEPTH LOGGED
~Curve Information Block
#MNEM.UNIT                                        API CODE    No Description
#=========                                        ========    == ===========
DEPT.M                                       00 001 00 00:     1  DEPTH
LL9D.OHMM                                                :     2  Dual Laterolog 9 deep
LL9S.OHMM                                                :     3  Dual Laterolog 9 shallow
MSFL.OHMM                                                :     4  MICRO SPHERICALLY FOCUSSED LOG
~ASCII
# ...
 1711.1472     2.0390     1.7050     2.6150
 1711.2996     2.0000     1.6730     2.7450
 1711.4520     1.9990     1.6640     2.6630
 1711.6044     2.0100     1.6690     2.6130
 1711.7568     2.0600     1.7240     2.3000
 1711.9092     2.1500     1.7850     2.3260
 1712.0616     2.1620     1.7890     2.5190
 1712.2140     2.1460     1.7720     2.5370
 1712.3664     2.1130     1.7520     2.2990
 1712.5188     2.1020     1.7520     2.3930
 1712.6712     2.1270     1.7650     2.2970
 1712.8236     2.1420     1.8030     2.2570
 1712.9760     2.1300     1.8080     2.3370
 1713.1284     2.0800     1.7970     2.4660
 1713.2808     2.0160     1.7770     2.5740
 1713.4332     1.9460     1.7460     2.4360
 1713.5856     1.9060     1.7030     2.5820
 1713.7380     1.8830     1.6540     2.3160
 1713.8904     1.8700     1.6090     2.2750
 1714.0428     1.8710     1.5830     2.3750
 1714.1952     1.8820     1.5930     2.3600
 1714.3476     1.9300     1.6490     2.2750
 1714.5000     1.9830     1.7280     2.2110
 1714.6524     2.0120     1.7480     2.1190
 1714.8048     1.9820     1.7430     2.2420
 1714.9572     1.9290     1.7070     2.2360
 1715.1096     1.8680     1.6510     2.2180
 1715.2620     1.8230     1.6080     2.3330
 1715.4144     1.7900     1.6000     2.1470
 1715.5668     1.7720     1.6000     2.1060
 1715.7192     1.7630     1.5900     2.1470
 1715.8716     1.7610     1.5600     2.2810
 1716.0240     1.7610     1.5230     2.2380
 1716.1764     1.7720     1.5010     2.2300
 1716.3288     1.7980     1.5020     2.3820
 1716.4812     1.8270     1.5130     2.3460
 1716.6336     1.8070     1.5290     2.2360
 1716.7860     1.7840     1.5500     2.1430
 1716.9384     1.8120     1.5890     2.0500
 1717.0908     1.9190     1.6500     1.8700
 1717.2432     2.0520     1.7070     1.8440
 1717.3956     2.0900     1.7320     1.9920
 1717.5480     2.0780     1.7310     2.3120
 1717.7004     2.0180     1.7050     2.7640
 1717.8528     1.9260     1.5970     2.6900
 1718.0052     1.8660     1.5390     2.2240
 1718.1576     1.8630     1.5380     1.9770
 1718.3100     1.8780     1.5650     2.1490
 1718.4624     1.9100     1.6420     2.9630
 1718.6148     1.9610     1.6990     2.6760
 1718.7672     2.0160     1.7210     2.4310
 1718.9196     2.0360     1.7330     2.4290
 1719.0720     2.0390     1.7380     2.6440
 1719.2244     2.0400     1.7450     2.9350
 1719.3768     2.0430     1.7520     3.2090
 1719.5292     2.0440     1.7680     2.4660
 1719.6816     2.0600     1.7850     2.1630
 1719.8340     2.0940     1.8110     3.1320
 1719.9864     2.1230     1.8610     3.1510
 1720.1388     2.1620     1.9250     2.7170
 1720.2912     2.2160     1.9780     2.3990
 1720.4436     2.2770     2.0380     2.9590
 1720.5960     2.3420     2.0850     3.0700
 1720.7484     2.4160     2.1340     2.3460
 1720.9008     2.4680     2.1670     2.3580
 1721.0532     2.5060     2.1810     2.6920
 1721.2056     2.5500     2.1830     2.9780
 1721.3580     2.5940     2.1860     2.8170
 1721.5104     2.6420     2.2380     3.6660
 1721.6628     2.6430     2.3330     3.7740
 1721.8152     2.5960     2.3310     3.0560
 1721.9676     2.3400     2.1690     2.8020
 1722.1200     2.0980     1.9560     3.1760
 1722.2724     1.9950     1.8330     3.5710
 1722.4248     1.9210     1.7740     4.0730
 1722.5772     1.8720     1.7530     4.4020
 1722.7296     1.8560     1.7480     3.2440
 1722.8820     1.8600     1.7480     3.1040
 1723.0344     1.8750     1.7570     2.8030
 1723.1868     1.8890     1.7770     3.0700
 1723.3392     1.9160     1.8070     3.4080
 1723.4916     1.9330     1.8410     3.2910
 1723.6440     1.9310     1.8830     3.2730
 1723.7964     1.9210     1.9270     3.2540
 1723.9488     1.9070     1.9700     2.7320
 1724.1012     1.8960     2.0250     2.4500
 1724.2536     1.8900     2.0930     2.6010
 1724.4060     1.8820     2.1180     2.6440
 1724.5584     1.8770     2.1210     2.6590
 1724.7108     1.8770     2.1290     2.7570
 1724.8632     1.8840     2.1270     2.7480
 1725.0156     1.8930     2.1190     2.7370
 1725.1680     1.9200     2.1230     2.7160
 1725.3204     2.0100     2.1840     2.6520
 1725.4728     2.3050     2.8620     2.5590
 1725.6252     3.7930     4.3680     2.9540
 1725.7776     6.5020     5.8000    38.7670
 1725.9300     5.5320     5.1210   134.1070
 1726.0824     3.3230     3.8630    67.1500
 1726.2348     2.0440     2.2300     4.9210
 1726.3872     1.6220     1.7780     1.9900
 1726.5396     1.5870     1.7180     2.3020
 1726.6920     1.5870     1.7420     2.4290
 1726.8444     1.5760     1.7520     2.6840
 1726.9968     1.5350     1.7410     2.3640
 1727.1492     1.5210     1.7030     2.2330
 1727.3016     1.5320     1.6820     2.1810
 1727.4540     1.6250     1.7100     1.9880
 1727.6064     1.7690     1.8610     1.8260
 1727.7588     1.9900     1.9830     1.9980
 1727.9112     2.0930     1.9900     3.2530
 1728.0636     2.0780     1.9000     3.5970
 1728.2160     2.0170     1.8250     4.5090
 1728.3684     1.9910     1.8120     3.5400
 1728.5208     2.0270     1.8810     2.9160
 1728.6732     2.1700     2.0420     2.5580
 1728.8256     2.2200     2.0410     3.4290
 1728.9780     2.0170     1.9530     2.7030
 1729.1304     1.7610     1.8080     3.2430
 1729.2828     1.5720     1.6010     4.4660
 1729.4352     1.4890     1.4960     2.6240
 1729.5876     1.5160     1.4980     1.8790
 1729.7400     1.6800     1.6090     1.2130
 1729.8924     1.8660     1.7100     2.5420
 1730.0448     1.8670     1.7180     2.5340
 1730.1972     1.8280     1.6770     2.3130
 1730.3496     1.7520     1.5990     2.6420
 1730.5020     1.6420     1.5250     2.5250
 1730.6544     1.5320     1.4570     2.5180
 1730.8068     1.4500     1.3880     2.5810
 1730.9592     1.3870     1.3150     1.8220
 1731.1116     1.3440     1.2560     1.7910
 1731.2640     1.3070     1.2170     1.9670
 1731.4164     1.2760     1.1940     1.9740
 1731.5688     1.2510     1.1770     1.6550
 1731.7212     1.2330     1.1650     1.6410
 1731.8736     1.2260     1.1620     1.7400
 1732.0260     1.2320     1.1620     1.7270
 1732.1784     1.2920     1.1840     1.4850
 1732.3308     1.4410     1.2950     1.7200
 1732.4832     1.5820     1.3720     1.8400
 1732.6356     1.6870     1.4500     2.0120
 1732.7880     1.7520     1.4960     2.6200
 1732.9404     1.6630     1.4670     2.2760
 1733.0928     1.5710     1.4060     2.2740
 1733.2452     1.5160     1.3580     2.7730
 1733.3976     1.4800     1.3400     2.1820
 1733.5500     1.4740     1.3370     2.0670
 1733.7024     1.4830     1.3490     2.1420
 1733.8548     1.4920     1.3550     2.2650
 1734.0072     1.4970     1.3560     2.2770
 1734.1596     1.5130     1.3570     2.2060
 1734.3120     1.5570     1.3680     2.1110
 1734.4644     1.6380     1.4310     2.1260
 1734.6168     1.8060     1.5860     2.3550
 1734.7692     1.8380     1.6410     2.6090
 1734.9216     1.7600     1.6010     4.1910
 1735.0740     1.5820     1.5000     3.0640
 1735.2264     1.4390     1.3700     2.4890
 1735.3788     1.4280     1.3330     2.2680
 1735.5312     1.4430     1.3460     2.0660
 1735.6836     1.4610     1.3650     2.0560
 1735.8360     1.4550     1.3670     2.3540
 1735.9884     1.4360     1.3560     2.6500
 1736.1408     1.4030     1.3250     2.3550
 1736.2932     1.3820     1.2770     2.2290
 1736.4456     1.4050     1.2600     2.1650
 1736.5980     1.4680     1.2870     2.0330
 1736.7504     1.5630     1.3460     2.0380
 1736.9028     1.6200     1.3980     2.1160
 1737.0552     1.6100     1.4090     2.7930
 1737.2076     1.5550     1.3810     2.4960
 1737.3600     1.4980     1.3280     2.7320
 1737.5124     1.4760     1.2900     2.1340
 1737.6648     1.4590     1.2780     2.4350
 1737.8172     1.4390     1.2710     2.0210
 1737.9696     1.4190     1.2660     2.1570
 1738.1220     1.4070     1.2630     2.2350
 1738.2744     1.4010     1.2550     2.2500
 1738.4268     1.3960     1.2430     2.2460
 1738.5792     1.3880     1.2300     2.1290
 1738.7316     1.3800     1.2180     1.9630
