~VERSION INFORMATION
VERS.                                                 2.0:   CWLS Log ASCII Standard-VERSION 2.0
WRAP.                                                  NO:   One line per depth step
~Well Information Block
STRT.M                                            10.0584:   Top Depth
STOP.M                                          1400.8608:   Bottom Depth
STEP.M                                             .15240:   Depth Increment
NULL.                                            -999.250:   Null Value
FLD .                                          EEMSKANAAL:   Field Name
WELL.                                       EEMSKANAAL- 1:   NAME
EDF .m                                               5.58:   ELEV DRILL FLOOR
EPD .                                                   0:   ELEV PERM DATUM
EGL .m                                                -.9:   GROUND LEVEL
LMF .                                                  DF:   LOGS MEAS FROM
COMP.                                                 NAM:   OPERATOR
PDAT.                                                 NAP:   PERM DATUM
SPUD.                                          1970/11/08:   SPUD DATE
UWBI.                                      11000074112201:   UWBI
WELL.                                       EEMSKANAAL- 1:   HOLE NAME
~PARAMETER INFORMATION (log)
LNAM.                                RUN 02 RAW OH 14.75":   NAME
LTYP.                                                 02R:   LOG TYPE
LVSN.                                                   1:   LOG VERSION
BS  .3/4"                                              14:   BIT SIZE
BLI .M                                             1402.5:   BOTTOM DEPTH LOGGED
BHIS.                                            RCCCCCCC:   BRIEF HISTORY
FHIS.              RAW-TIGA/COPY/COPY/COPY/COPY/COPY/COPY:   FULL HISTORY
MRT .C                                                 50:   MAX REC TEMP
DFT .                                         CHALK WATER:   MUD TYPE
RMS .                                                1.44:   RM
MST .C                                                 11:   RM TEMP
RMCS.                                                1.93:   RMC
MCST.C                                                 19:   RMC TEMP
RMFS.                                               0.917:   RMF
MFST.C                                                 19:   RMF TEMP
TCS .                                                 N/A:   TIME SINCE CIRCLN
TLI .M                                                 10:   TOP DEPTH LOGGED
~Curve Information Block
#MNEM.UNIT                                        API CODE    No Description
#=========                                        ========    == ===========
DEPT.M                                       00 001 00 00:     1  DEPTH
BCSL.US/F                                                :     2  Interval Transit Time From Borehole Comp
GRIC.GAPI                                                :     3  GAMMA RAY LOG IN CASING
GRS.GAPI                                                 :     4  GAMMA RAY FROM SONIC LOG
~ASCII
# ...
  925.3728   104.8350  -999.2500     6.3120
  925.5252   105.8890  -999.2500     6.5180
  925.6776   106.8570  -999.2500     6.5850
  925.8300   107.7960  -999.2500     6.5220
  925.9824   108.7650  -999.2500     6.2510
  926.1348   109.6300  -999.2500     6.1750
  926.2872   109.7530  -999.2500     6.3520
  926.4396   109.0220  -999.2500     6.8830
  926.5920   108.1590  -999.2500     7.4720
  926.7444   107.4490  -999.2500     7.1820
  926.8968   108.4050  -999.2500     6.3200
  927.0492   110.0270  -999.2500     5.4930
  927.2016   111.8400  -999.2500     5.2650
  927.3540   112.6330  -999.2500     5.3350
  927.5064   112.3240  -999.2500     5.4420
  927.6588   110.3280  -999.2500     5.6960
  927.8112   108.4460  -999.2500     5.9950
  927.9636   107.2610  -999.2500     6.2520
  928.1160   106.2610  -999.2500     6.2950
  928.2684   105.4730  -999.2500     6.3140
  928.4208   105.3860  -999.2500     6.0430
  928.5732   105.8630  -999.2500     5.7440
  928.7256   106.3740  -999.2500     5.2550
  928.8780   106.8850  -999.2500     4.7680
  929.0304   107.5010  -999.2500     4.7720
  929.1828   108.0810  -999.2500     4.9940
  929.3352   108.3660  -999.2500     5.4150
  929.4876   108.2170  -999.2500     5.7250
  929.6400   108.1020  -999.2500     5.6970
  929.7924   108.3190  -999.2500     5.5140
  929.9448   109.1570  -999.2500     6.1040
  930.0972   110.0640  -999.2500     7.1790
  930.2496   108.8800  -999.2500     7.9410
  930.4020   106.8530  -999.2500     8.1420
  930.5544   105.6260  -999.2500     7.6450
  930.7068   104.4310  -999.2500     6.7740
  930.8592   103.9770  -999.2500     5.9920
  931.0116   104.6500  -999.2500     5.3680
  931.1640   105.2380  -999.2500     5.2540
  931.3164   105.0700  -999.2500     5.6990
  931.4688   104.2040  -999.2500     6.2610
  931.6212   103.3960  -999.2500     6.2400
  931.7736   103.8120  -999.2500     5.9430
  931.9260   105.1400  -999.2500     5.5440
  932.0784   106.2510  -999.2500     5.3310
  932.2308   106.3530  -999.2500     5.4790
  932.3832   105.0860  -999.2500     5.9670
  932.5356   104.2660  -999.2500     6.3980
  932.6880   103.5040  -999.2500     6.8810
  932.8404   103.0740  -999.2500     7.6190
  932.9928   103.3030  -999.2500     8.3540
  933.1452   104.6330  -999.2500     8.5490
  933.2976   105.8540  -999.2500     7.8430
  933.4500   107.6300  -999.2500     6.9000
  933.6024   108.9300  -999.2500     6.1570
  933.7548   109.1120  -999.2500     5.6620
  933.9072   107.9020  -999.2500     5.4950
  934.0596   106.5400  -999.2500     5.6540
  934.2120   105.3150  -999.2500     5.9560
  934.3644   104.6720  -999.2500     6.0940
  934.5168   104.1480  -999.2500     6.0100
  934.6692   103.7380  -999.2500     5.9750
  934.8216   103.7400  -999.2500     5.8520
  934.9740   103.7980  -999.2500     5.8600
  935.1264   103.1940  -999.2500     5.9250
  935.2788   102.6560  -999.2500     5.9250
  935.4312   102.6200  -999.2500     5.9250
  935.5836   103.1290  -999.2500     5.8750
  935.7360   103.7580  -999.2500     5.8430
  935.8884   104.4110  -999.2500     5.7520
  936.0408   104.8070  -999.2500     5.6850
  936.1932   104.6360  -999.2500     5.7830
  936.3456   103.9220  -999.2500     6.1500
  936.4980   104.2540  -999.2500     6.6680
  936.6504   103.9930  -999.2500     6.9980
  936.8028   103.8590  -999.2500     7.3360
  936.9552   104.1210  -999.2500     7.2990
  937.1076   103.5500  -999.2500     7.4520
  937.2600   103.3040  -999.2500     7.6860
  937.4124   103.5660  -999.2500     6.9750
  937.5648   103.3650  -999.2500     6.4190
  937.7172   102.8260  -999.2500     6.0380
  937.8696   102.1650  -999.2500     5.6960
  938.0220   101.7800  -999.2500     5.5390
  938.1744   102.6130  -999.2500     5.4450
  938.3268   103.4220  -999.2500     5.4830
  938.4792   103.8820  -999.2500     5.5530
  938.6316   103.4880  -999.2500     5.7020
  938.7840   102.4370  -999.2500     5.9690
  938.9364   102.5280  -999.2500     6.2860
  939.0888   103.6970  -999.2500     6.5130
  939.2412   104.3190  -999.2500     6.5190
  939.3936   104.4410  -999.2500     6.4680
  939.5460   103.6150  -999.2500     6.3170
  939.6984   102.7490  -999.2500     6.2260
  939.8508   102.0560  -999.2500     6.2250
  940.0032   101.5390  -999.2500     6.2250
  940.1556   101.7410  -999.2500     6.2580
  940.3080   102.4260  -999.2500     6.3310
  940.4604   102.8990  -999.2500     6.3360
  940.6128   103.0110  -999.2500     6.3100
  940.7652   103.0720  -999.2500     6.4240
  940.9176   103.2780  -999.2500     6.5430
  941.0700   103.5570  -999.2500     6.6820
  941.2224   103.8400  -999.2500     6.8380
  941.3748   104.1070  -999.2500     6.7730
  941.5272   104.2970  -999.2500     6.5030
  941.6796   104.2190  -999.2500     6.3090
  941.8320   104.0040  -999.2500     6.3040
  941.9844   104.1850  -999.2500     6.4970
  942.1368   103.7950  -999.2500     6.8610
  942.2892   103.8730  -999.2500     7.6630
  942.4416   104.4410  -999.2500     8.9070
  942.5940   104.6860  -999.2500     8.7890
  942.7464   105.3050  -999.2500     7.3890
  942.8988   105.7280  -999.2500     6.3240
  943.0512   105.5430  -999.2500     6.0760
  943.2036   105.2110  -999.2500     6.3430
  943.3560   104.8190  -999.2500     6.9150
  943.5084   104.4570  -999.2500     7.4150
  943.6608   104.2590  -999.2500     7.6530
  943.8132   104.1380  -999.2500     7.6730
  943.9656   103.9680  -999.2500     7.6660
  944.1180   103.7220  -999.2500     7.6050
  944.2704   103.6470  -999.2500     7.6050
  944.4228   103.8150  -999.2500     7.6650
  944.5752   104.1580  -999.2500     7.5300
  944.7276   103.9280  -999.2500     7.2210
  944.8800   103.3060  -999.2500     6.8160
  945.0324   103.4340  -999.2500     6.6450
  945.1848   102.3970  -999.2500     6.9630
  945.3372   101.5890  -999.2500     7.2650
  945.4896   101.7980  -999.2500     6.8130
  945.6420   102.4210  -999.2500     6.6450
  945.7944   103.0100  -999.2500     6.7720
  945.9468   103.1840  -999.2500     6.8760
  946.0992   102.6830  -999.2500     7.0040
  946.2516   101.9620  -999.2500     7.2700
  946.4040   101.2700  -999.2500     7.4420
  946.5564   101.0180  -999.2500     7.4680
  946.7088   101.1140  -999.2500     7.2880
  946.8612   101.4250  -999.2500     6.8770
  947.0136   101.8410  -999.2500     6.8390
  947.1660   101.4760  -999.2500     7.0790
  947.3184   101.3100  -999.2500     7.2310
  947.4708   101.3740  -999.2500     7.0430
  947.6232   101.6950  -999.2500     6.8850
  947.7756   102.4330  -999.2500     6.8850
  947.9280   103.3100  -999.2500     6.8220
  948.0804   103.9530  -999.2500     6.2140
  948.2328   103.6390  -999.2500     5.7600
  948.3852   102.9690  -999.2500     5.9340
  948.5376   102.1630  -999.2500     6.5220
  948.6900   101.5720  -999.2500     6.9270
  948.8424   101.9290  -999.2500     6.8850
  948.9948   102.2230  -999.2500     6.6290
  949.1472   102.1450  -999.2500     6.3170
  949.2996   101.4820  -999.2500     6.1650
  949.4520   101.6340  -999.2500     6.5510
  949.6044   102.0850  -999.2500     7.0830
  949.7568   101.9630  -999.2500     7.2060
  949.9092   102.1630  -999.2500     7.1850
  950.0616   102.6520  -999.2500     6.8500
  950.2140   102.9320  -999.2500     6.4730
  950.3664   103.3430  -999.2500     6.6450
  950.5188   103.5390  -999.2500     7.1660
  950.6712   103.4900  -999.2500     7.3350
  950.8236   103.8080  -999.2500     6.7170
  950.9760   103.8310  -999.2500     5.9620
  951.1284   103.3530  -999.2500     5.2780
  951.2808   102.8270  -999.2500     4.9520
  951.4332   102.8630  -999.2500     4.9350
  951.5856   103.5380  -999.2500     5.0810
  951.7380   104.1580  -999.2500     5.4460
  951.8904   104.5030  -999.2500     5.7710
  952.0428   104.4740  -999.2500     5.9510
  952.1952   104.2100  -999.2500     5.9280
  952.3476   103.9520  -999.2500     5.8610
  952.5000   104.0300  -999.2500     5.6850
  952.6524   104.2520  -999.2500     5.6240
  952.8048   104.8930  -999.2500     5.5940
  952.9572   105.3200  -999.2500     5.6060
