~VERSION INFORMATION
VERS.                                                 2.0:   CWLS Log ASCII Standard-VERSION 2.0
WRAP.                                                  NO:   One line per depth step
~Well Information Block
STRT.M                                            10.0584:   Top Depth
STOP.M                                          1400.8608:   Bottom Depth
STEP.M                                             .15240:   Depth Increment
NULL.                                            -999.250:   Null Value
FLD .                                          EEMSKANAAL:   Field Name
WELL.                                       EEMSKANAAL- 1:   NAME
EDF .m                                               5.58:   ELEV DRILL FLOOR
EPD .                                                   0:   ELEV PERM DATUM
EGL .m                                                -.9:   GROUND LEVEL
LMF .                                                  DF:   LOGS MEAS FROM
COMP.                                                 NAM:   OPERATOR
PDAT.                                                 NAP:   PERM DATUM
SPUD.                                          1970/11/08:   SPUD DATE
UWBI.                                      11000074112201:   UWBI
WELL.                                       EEMSKANAAL- 1:   HOLE NAME
~PARAMETER INFORMATION (log)
LNAM.                                RUN 02 RAW OH 14.75":   NAME
LTYP.                                                 02R:   LOG TYPE
LVSN.                                                   1:   LOG VERSION
BS  .3/4"                                              14:   BIT SIZE
BLI .M                                             1402.5:   BOTTOM DEPTH LOGGED
BHIS.                                            RCCCCCCC:   BRIEF HISTORY
FHIS.              RAW-TIGA/COPY/COPY/COPY/COPY/COPY/COPY:   FULL HISTORY
MRT .C                                                 50:   MAX REC TEMP
DFT .                                         CHALK WATER:   MUD TYPE
RMS .                                                1.44:   RM
MST .C                                                 11:   RM TEMP
RMCS.                                                1.93:   RMC
MCST.C                                                 19:   RMC TEMP
RMFS.                                               0.917:   RMF
MFST.C                                                 19:   RMF TEMP
TCS .                                                 N/A:   TIME SINCE CIRCLN
TLI .M                                                 10:   TOP DEPTH LOGGED
~Curve Information Block
#MNEM.UNIT                                        API CODE    No Description
#=========                                        ========    == ===========
DEPT.M                                       00 001 00 00:     1  DEPTH
BCSL.US/F                                                :     2  Interval Transit Time From Borehole Comp
GRIC.GAPI                                                :     3  GAMMA RAY LOG IN CASING
GRS.GAPI                                                 :     4  GAMMA RAY FROM SONIC LOG
~ASCII
# ...
 1313.6880    81.4830  -999.2500    10.2470
 1313.8404    81.9690  -999.2500    10.2120
 1313.9928    82.3820  -999.2500    10.1850
 1314.1452    81.1410  -999.2500    10.0340
 1314.2976    81.1070  -999.2500     9.7700
 1314.4500    81.0800  -999.2500     9.4120
 1314.6024    80.0460  -999.2500     8.9360
 1314.7548    78.3460  -999.2500     8.7520
 1314.9072    77.6290  -999.2500     8.9810
 1315.0596    78.5910  -999.2500     9.6460
 1315.2120    80.1220  -999.2500    10.2260
 1315.3644    81.0900  -999.2500    10.3050
 1315.5168    81.2020  -999.2500    10.3130
 1315.6692    80.8250  -999.2500    10.6090
 1315.8216    80.7840  -999.2500    11.0590
 1315.9740    79.8280  -999.2500    10.6540
 1316.1264    79.1390  -999.2500    10.5050
 1316.2788    78.2960  -999.2500    10.7730
 1316.4312    78.8460  -999.2500    11.2710
 1316.5836    79.8480  -999.2500    11.9510
 1316.7360    81.8230  -999.2500    12.3240
 1316.8884    83.1500  -999.2500    11.6100
 1317.0408    83.2240  -999.2500    10.6950
 1317.1932    82.8360  -999.2500    10.5670
 1317.3456    81.5910  -999.2500    11.3780
 1317.4980    80.1070  -999.2500    11.6700
 1317.6504    79.8270  -999.2500    11.5950
 1317.8028    80.4990  -999.2500    11.4270
 1317.9552    80.9410  -999.2500    11.1860
 1318.1076    80.4310  -999.2500    10.9650
 1318.2600    79.5540  -999.2500    10.9650
 1318.4124    80.1600  -999.2500    11.0040
 1318.5648    81.0280  -999.2500    11.3890
 1318.7172    81.5310  -999.2500    11.7640
 1318.8696    81.7080  -999.2500    12.0090
 1319.0220    81.5220  -999.2500    11.9680
 1319.1744    80.3740  -999.2500    11.5860
 1319.3268    79.4100  -999.2500    10.8700
 1319.4792    79.3930  -999.2500    10.2570
 1319.6316    79.6500  -999.2500     9.9670
 1319.7840    79.8520  -999.2500     9.8980
 1319.9364    79.8860  -999.2500    10.0860
 1320.0888    79.8530  -999.2500    10.2400
 1320.2412    79.6720  -999.2500    10.2080
 1320.3936    79.4310  -999.2500    10.0710
 1320.5460    80.0750  -999.2500    10.0050
 1320.6984    79.2240  -999.2500    10.0050
 1320.8508    79.4060  -999.2500    10.0430
 1321.0032    80.2010  -999.2500    10.2560
 1321.1556    79.8120  -999.2500    10.7980
 1321.3080    80.2760  -999.2500    11.3510
 1321.4604    81.6520  -999.2500    11.8000
 1321.6128    81.2310  -999.2500    11.9850
 1321.7652    82.1130  -999.2500    11.9560
 1321.9176    83.0480  -999.2500    11.7150
 1322.0700    82.2970  -999.2500    11.4630
 1322.2224    82.1610  -999.2500    11.4250
 1322.3748    82.6520  -999.2500    11.8680
 1322.5272    82.0480  -999.2500    12.3600
 1322.6796    82.2130  -999.2500    12.1450
 1322.8320    82.4730  -999.2500    11.6310
 1322.9844    82.3990  -999.2500    11.0590
 1323.1368    81.7700  -999.2500    10.6390
 1323.2892    81.8270  -999.2500    10.2390
 1323.4416    81.3840  -999.2500     9.9460
 1323.5940    81.0950  -999.2500     9.8290
 1323.7464    82.0570  -999.2500     9.9430
 1323.8988    82.6760  -999.2500    10.6140
 1324.0512    83.3000  -999.2500    11.3510
 1324.2036    84.1280  -999.2500    11.5030
 1324.3560    83.5670  -999.2500    11.4450
 1324.5084    82.1240  -999.2500    11.4450
 1324.6608    83.0130  -999.2500    11.4450
 1324.8132    82.1090  -999.2500    11.4610
 1324.9656    81.7970  -999.2500    11.7420
 1325.1180    83.2170  -999.2500    12.5360
 1325.2704    82.1550  -999.2500    13.2150
 1325.4228    80.6230  -999.2500    12.9710
 1325.5752    79.8020  -999.2500    11.4510
 1325.7276    78.2130  -999.2500    10.1880
 1325.8800    77.8340  -999.2500     9.1770
 1326.0324    78.8760  -999.2500     8.4390
 1326.1848    79.1960  -999.2500     7.9370
 1326.3372    79.7690  -999.2500     8.2140
 1326.4896    80.6930  -999.2500     9.1610
 1326.6420    80.4230  -999.2500    10.0940
 1326.7944    79.5870  -999.2500    10.4190
 1326.9468    78.8750  -999.2500    10.2050
 1327.0992    78.0450  -999.2500     9.6480
 1327.2516    78.1970  -999.2500     9.7760
 1327.4040    80.5350  -999.2500    10.0740
 1327.5564    81.1570  -999.2500    10.3490
 1327.7088    80.7040  -999.2500    10.5040
 1327.8612    81.2860  -999.2500    10.5450
 1328.0136    80.5270  -999.2500    10.4610
 1328.1660    79.1980  -999.2500    10.0480
 1328.3184    78.5860  -999.2500     9.5380
 1328.4708    77.9270  -999.2500     8.9720
 1328.6232    77.2170  -999.2500     8.8220
 1328.7756    76.9480  -999.2500     9.0270
 1328.9280    77.5950  -999.2500     9.3730
 1329.0804    77.5330  -999.2500     9.3570
 1329.2328    77.2340  -999.2500     9.3300
 1329.3852    76.7450  -999.2500     9.1980
 1329.5376    75.9250  -999.2500     9.0680
 1329.6900    76.8600  -999.2500     9.2670
 1329.8424    77.9790  -999.2500     9.9920
 1329.9948    78.5150  -999.2500    10.7180
 1330.1472    78.5510  -999.2500    10.7560
 1330.2996    77.8430  -999.2500    10.1570
 1330.4520    77.0930  -999.2500     9.1390
 1330.6044    76.9400  -999.2500     8.4850
 1330.7568    77.2040  -999.2500     7.9530
 1330.9092    77.2090  -999.2500     7.8640
 1331.0616    78.2300  -999.2500     7.9790
 1331.2140    77.8740  -999.2500     8.2130
 1331.3664    77.8080  -999.2500     8.3750
 1331.5188    78.1700  -999.2500     8.3250
 1331.6712    78.4690  -999.2500     8.3680
 1331.8236    79.2520  -999.2500     8.4420
 1331.9760    79.4510  -999.2500     8.8990
 1332.1284    78.7210  -999.2500     9.5990
 1332.2808    78.9420  -999.2500     9.8490
 1332.4332    79.4230  -999.2500     9.9600
 1332.5856    79.5700  -999.2500    10.0410
 1332.7380    79.5200  -999.2500    10.1980
 1332.8904    78.7260  -999.2500    10.3260
 1333.0428    78.0710  -999.2500    10.3650
 1333.1952    79.0420  -999.2500    10.3650
 1333.3476    78.0100  -999.2500    10.2480
 1333.5000    77.6100  -999.2500    10.0200
 1333.6524    77.1830  -999.2500    10.0050
 1333.8048    78.2460  -999.2500    10.0900
 1333.9572    78.7550  -999.2500    10.4020
 1334.1096    78.9240  -999.2500    10.6570
 1334.2620    78.1870  -999.2500    10.7160
 1334.4144    76.4350  -999.2500    10.5920
 1334.5668    76.4840  -999.2500    10.0340
 1334.7192    77.3070  -999.2500     9.2820
 1334.8716    76.6730  -999.2500     8.7080
 1335.0240    76.6160  -999.2500     8.0480
 1335.1764    76.8980  -999.2500     8.2080
 1335.3288    76.1630  -999.2500     9.1850
 1335.4812    77.5020  -999.2500     9.1990
 1335.6336    77.6840  -999.2500     8.8700
 1335.7860    76.0850  -999.2500     8.5410
 1335.9384    75.2000  -999.2500     8.0610
 1336.0908    75.3440  -999.2500     7.8550
 1336.2432    76.3890  -999.2500     8.0600
 1336.3956    78.1260  -999.2500     8.8910
 1336.5480    78.8770  -999.2500     9.7990
 1336.7004    79.0670  -999.2500     9.8240
 1336.8528    78.1180  -999.2500     9.2600
 1337.0052    78.3980  -999.2500     8.4560
 1337.1576    77.5790  -999.2500     9.1470
 1337.3100    77.4530  -999.2500     9.8380
 1337.4624    78.3290  -999.2500     9.6470
 1337.6148    79.0450  -999.2500     9.1980
 1337.7672    79.4070  -999.2500     9.0350
 1337.9196    78.4740  -999.2500     8.9970
 1338.0720    78.7230  -999.2500     8.9850
 1338.2244    77.9540  -999.2500     8.9850
 1338.3768    77.7900  -999.2500     8.9970
 1338.5292    78.2450  -999.2500     9.0450
 1338.6816    78.9390  -999.2500     9.0570
 1338.8340    79.1990  -999.2500     9.4890
 1338.9864    79.2060  -999.2500    10.3000
 1339.1388    79.9030  -999.2500    10.9220
 1339.2912    79.5690  -999.2500    11.5250
 1339.4436    79.8840  -999.2500    12.1970
 1339.5960    80.2910  -999.2500    12.5240
 1339.7484    80.3840  -999.2500    12.4070
 1339.9008    79.6190  -999.2500    12.3440
 1340.0532    79.5800  -999.2500    12.0020
 1340.2056    78.6300  -999.2500    11.2660
 1340.3580    78.6820  -999.2500    10.7260
 1340.5104    79.1650  -999.2500    11.4970
 1340.6628    78.1950  -999.2500    11.6380
 1340.8152    76.4430  -999.2500    11.0220
 1340.9676    74.5670  -999.2500    10.1150
 1341.1200    73.2400  -999.2500     9.1950
 1341.2724    73.1520  -999.2500     8.9170
