~VERSION INFORMATION
VERS.                                                 2.0:   CWLS Log ASCII Standard-VERSION 2.0
WRAP.                                                  NO:   One line per depth step
~Well Information Block
STRT.M                                           404.0124:   Top Depth
STOP.M                                          1403.9088:   Bottom Depth
STEP.M                                             .15240:   Depth Increment
NULL.                                            -999.250:   Null Value
FLD .                                          EEMSKANAAL:   Field Name
WELL.                                       EEMSKANAAL- 1:   NAME
EDF .m                                               5.58:   ELEV DRILL FLOOR
EPD .                                                   0:   ELEV PERM DATUM
EGL .m                                                -.9:   GROUND LEVEL
LMF .                                                  DF:   LOGS MEAS FROM
COMP.                                                 NAM:   OPERATOR
PDAT.                                                 NAP:   PERM DATUM
SPUD.                                          1970/11/08:   SPUD DATE
UWBI.                                      11000074112201:   UWBI
WELL.                                       EEMSKANAAL- 1:   HOLE NAME
~PARAMETER INFORMATION (log)
LNAM.                                RUN 01 RAW OH 14.75":   NAME
LTYP.                                                 01R:   LOG TYPE
LVSN.                                                   1:   LOG VERSION
BS  .3/4"                                              14:   BIT SIZE
BLI .M                                             1406.2:   BOTTOM DEPTH LOGGED
BHIS.                                            RCCCCCCC:   BRIEF HISTORY
FHIS.              RAW-TIGA/COPY/COPY/COPY/COPY/COPY/COPY:   FULL HISTORY
MRT .C                                                 50:   MAX REC TEMP
DFT .                                         CHALK WATER:   MUD TYPE
RMS .                                                1.44:   RM
MST .C                                                 11:   RM TEMP
RMCS.                                                1.93:   RMC
MCST.C                                                 19:   RMC TEMP
RMFS.                                               0.917:   RMF
MFST.C                                                 19:   RMF TEMP
TCS .                                                 N/A:   TIME SINCE CIRCLN
TLI .M                                              403.6:   TOP DEPTH LOGGED
~Curve Information Block
#MNEM.UNIT                                        API CODE    No Description
#=========                                        ========    == ===========
DEPT.M                                       00 001 00 00:     1  DEPTH
DILD.OHMM                                                :     2  DUAL INDUCTION LOG DEEP RESISTIVITY
SN.OHMM                                                  :     3  SHORT NORMAL
~ASCII
# ...
 1292.8092     2.6270     2.7070
 1292.9616     2.5720     2.6950
 1293.1140     2.5190     2.6790
 1293.2664     2.4720     2.6590
 1293.4188     2.4480     2.6340
 1293.5712     2.4480     2.6120
 1293.7236     2.4560     2.5920
 1293.8760     2.4700     2.5740
 1294.0284     2.4910     2.5670
 1294.1808     2.5090     2.5670
 1294.3332     2.5120     2.5690
 1294.4856     2.5050     2.5770
 1294.6380     2.5020     2.5850
 1294.7904     2.4960     2.5740
 1294.9428     2.4890     2.5580
 1295.0952     2.4880     2.5380
 1295.2476     2.4810     2.5020
 1295.4000     2.4800     2.4820
 1295.5524     2.4800     2.4790
 1295.7048     2.4800     2.4790
 1295.8572     2.4820     2.4830
 1296.0096     2.4880     2.4940
 1296.1620     2.4890     2.5200
 1296.3144     2.4960     2.5600
 1296.4668     2.4990     2.5730
 1296.6192     2.5060     2.5720
 1296.7716     2.5180     2.5690
 1296.9240     2.5330     2.5680
 1297.0764     2.5570     2.5680
 1297.2288     2.6110     2.5770
 1297.3812     2.6810     2.6100
 1297.5336     2.7350     2.6660
 1297.6860     2.7910     2.7520
 1297.8384     2.8720     2.8330
 1297.9908     2.9410     2.9010
 1298.1432     2.9920     2.9500
 1298.2956     3.0410     2.9790
 1298.4480     3.0480     2.9830
 1298.6004     3.0340     2.9780
 1298.7528     2.9780     2.9370
 1298.9052     2.9160     2.8780
 1299.0576     2.8550     2.8280
 1299.2100     2.7890     2.7850
 1299.3624     2.7120     2.7400
 1299.5148     2.6480     2.7060
 1299.6672     2.6090     2.7060
 1299.8196     2.6630     2.7050
 1299.9720     2.6720     2.7040
 1300.1244     2.7100     2.7150
 1300.2768     2.7300     2.7330
 1300.4292     2.7340     2.7500
 1300.5816     2.7340     2.7660
 1300.7340     2.7340     2.7730
 1300.8864     2.7340     2.7730
 1301.0388     2.7340     2.7720
 1301.1912     2.7340     2.7720
 1301.3436     2.7500     2.7740
 1301.4960     2.8020     2.7790
 1301.6484     2.8690     2.7930
 1301.8008     2.9300     2.8090
 1301.9532     2.9890     2.8350
 1302.1056     3.0250     2.8700
 1302.2580     3.0340     2.9220
 1302.4104     3.0250     2.9790
 1302.5628     3.0040     2.9830
 1302.7152     2.9800     2.9660
 1302.8676     2.9630     2.9300
 1303.0200     2.9530     2.9060
 1303.1724     2.9480     2.9110
 1303.3248     2.9640     2.9230
 1303.4772     2.9790     2.9280
 1303.6296     2.9730     2.9290
 1303.7820     2.9520     2.9280
 1303.9344     2.9260     2.9150
 1304.0868     2.8910     2.8940
 1304.2392     2.8480     2.8630
 1304.3916     2.8100     2.8280
 1304.5440     2.7670     2.7930
 1304.6964     2.7350     2.7630
 1304.8488     2.7110     2.7400
 1305.0012     2.6980     2.7240
 1305.1536     2.6880     2.7140
 1305.3060     2.6880     2.7000
 1305.4584     2.6960     2.6860
 1305.6108     2.7050     2.6700
 1305.7632     2.7090     2.6530
 1305.9156     2.6990     2.6360
 1306.0680     2.6890     2.6210
 1306.2204     2.6780     2.6100
 1306.3728     2.6600     2.6030
 1306.5252     2.6350     2.5960
 1306.6776     2.6060     2.5840
 1306.8300     2.5720     2.5680
 1306.9824     2.5330     2.5470
 1307.1348     2.4920     2.5250
 1307.2872     2.4440     2.5100
 1307.4396     2.4090     2.4990
 1307.5920     2.3950     2.4860
 1307.7444     2.3940     2.4750
 1307.8968     2.3940     2.4650
 1308.0492     2.3950     2.4600
 1308.2016     2.4060     2.4540
 1308.3540     2.4290     2.4510
 1308.5064     2.4640     2.4480
 1308.6588     2.5090     2.4480
 1308.8112     2.5520     2.4480
 1308.9636     2.5750     2.4630
 1309.1160     2.6050     2.4930
 1309.2684     2.6320     2.5220
 1309.4208     2.6460     2.5440
 1309.5732     2.6460     2.5540
 1309.7256     2.6360     2.5560
 1309.8780     2.6200     2.5560
 1310.0304     2.5870     2.5540
 1310.1828     2.5730     2.5510
 1310.3352     2.5700     2.5510
 1310.4876     2.5790     2.5540
 1310.6400     2.5940     2.5610
 1310.7924     2.6110     2.5780
 1310.9448     2.6330     2.6010
 1311.0972     2.6590     2.6300
 1311.2496     2.6900     2.6600
 1311.4020     2.7100     2.6860
 1311.5544     2.7100     2.7010
 1311.7068     2.7100     2.7060
 1311.8592     2.7030     2.7020
 1312.0116     2.7020     2.6990
 1312.1640     2.7020     2.7030
 1312.3164     2.7080     2.7200
 1312.4688     2.7100     2.7360
 1312.6212     2.7190     2.7520
 1312.7736     2.7250     2.7640
 1312.9260     2.7270     2.7650
 1313.0784     2.7330     2.7630
 1313.2308     2.7320     2.7530
 1313.3832     2.7210     2.7360
 1313.5356     2.6980     2.7190
 1313.6880     2.6800     2.7010
 1313.8404     2.6560     2.6860
 1313.9928     2.6200     2.6690
 1314.1452     2.5790     2.6530
 1314.2976     2.5950     2.6360
 1314.4500     2.6210     2.6220
 1314.6024     2.6140     2.6080
 1314.7548     2.6060     2.6010
 1314.9072     2.6000     2.6000
 1315.0596     2.5920     2.6080
 1315.2120     2.5840     2.6260
 1315.3644     2.5840     2.6390
 1315.5168     2.5840     2.6550
 1315.6692     2.5840     2.6600
 1315.8216     2.5840     2.6570
 1315.9740     2.5960     2.6440
 1316.1264     2.6360     2.6330
 1316.2788     2.6800     2.6380
 1316.4312     2.6860     2.6690
 1316.5836     2.6860     2.7270
 1316.7360     2.6950     2.7720
 1316.8884     2.7050     2.7970
 1317.0408     2.7350     2.8010
 1317.1932     2.7420     2.7950
 1317.3456     2.7420     2.7720
 1317.4980     2.7380     2.7420
 1317.6504     2.7340     2.7330
 1317.8028     2.7340     2.7420
 1317.9552     2.7340     2.7640
 1318.1076     2.7340     2.7770
 1318.2600     2.7350     2.7740
 1318.4124     2.7420     2.7650
 1318.5648     2.7420     2.7640
 1318.7172     2.7420     2.7660
 1318.8696     2.7390     2.7760
 1319.0220     2.7320     2.7780
 1319.1744     2.7210     2.7710
 1319.3268     2.7140     2.7610
 1319.4792     2.7070     2.7500
 1319.6316     2.7020     2.7380
 1319.7840     2.6950     2.7360
 1319.9364     2.6940     2.7420
 1320.0888     2.6940     2.7490
 1320.2412     2.6940     2.7460
 1320.3936     2.6960     2.7410
 1320.5460     2.7000     2.7420
 1320.6984     2.7020     2.7500
 1320.8508     2.7070     2.7650
 1321.0032     2.7160     2.7820
 1321.1556     2.7240     2.8000
 1321.3080     2.7320     2.8130
 1321.4604     2.7400     2.8150
 1321.6128     2.7420     2.8100
 1321.7652     2.7420     2.8010
 1321.9176     2.7390     2.7820
 1322.0700     2.7340     2.7670
 1322.2224     2.7290     2.7650
 1322.3748     2.7260     2.7660
 1322.5272     2.7260     2.7730
 1322.6796     2.7260     2.7840
 1322.8320     2.7260     2.7960
 1322.9844     2.7260     2.8040
 1323.1368     2.7260     2.8090
 1323.2892     2.7260     2.8100
 1323.4416     2.7260     2.8100
 1323.5940     2.7260     2.8100
 1323.7464     2.7230     2.8100
 1323.8988     2.7080     2.8090
 1324.0512     2.6960     2.8050
 1324.2036     2.6800     2.8010
 1324.3560     2.6610     2.7660
 1324.5084     2.6380     2.7360
 1324.6608     2.6220     2.7110
 1324.8132     2.6220     2.7010
 1324.9656     2.6220     2.7000
 1325.1180     2.6220     2.7020
 1325.2704     2.6220     2.7100
 1325.4228     2.6320     2.7180
 1325.5752     2.6430     2.7290
 1325.7276     2.6620     2.7420
 1325.8800     2.7000     2.7650
 1326.0324     2.7460     2.8000
 1326.1848     2.7920     2.8480
 1326.3372     2.8320     2.9000
 1326.4896     2.8680     2.9460
 1326.6420     2.8900     2.9500
 1326.7944     2.9060     2.9500
 1326.9468     2.9170     2.9440
 1327.0992     2.9260     2.9350
 1327.2516     2.9380     2.9360
 1327.4040     2.9480     2.9580
 1327.5564     2.9480     2.9940
 1327.7088     2.9480     3.0100
 1327.8612     2.9470     3.0150
 1328.0136     2.9390     3.0100
 1328.1660     2.9320     2.9860
 1328.3184     2.9310     2.9660
 1328.4708     2.9260     2.9560
 1328.6232     2.9300     2.9620
 1328.7756     2.9350     2.9850
 1328.9280     2.9550     3.0290
 1329.0804     2.9810     3.0790
 1329.2328     3.0140     3.1170
 1329.3852     3.0490     3.1430
 1329.5376     3.0710     3.1530
 1329.6900     3.0830     3.1570
