~VERSION INFORMATION
VERS.                                                 2.0:   CWLS Log ASCII Standard-VERSION 2.0
WRAP.                                                  NO:   One line per depth step
~Well Information Block
STRT.M                                          1789.0236:   Top Depth
STOP.M                                          2779.9284:   Bottom Depth
STEP.M                                             .15240:   Depth Increment
NULL.                                            -999.250:   Null Value
FLD .                                          EEMSKANAAL:   Field Name
WELL.                                       EEMSKANAAL- 2:   NAME
APD .M                                               5.62:   ABOVE PERM DATUM
CTRY.                                                  NE:   COUNTRY
EDF .m                                               5.62:   ELEV DRILL FLOOR
EPD .                                                   0:   ELEV PERM DATUM
EGL .m                                              -1.06:   GROUND LEVEL
LMF .                                                  DF:   LOGS MEAS FROM
COMP.                                                 NAM:   OPERATOR
PDAT.                                                 NAP:   PERM DATUM
SPUD.                                          1971/03/17:   SPUD DATE
STAT.                                           Unknown m:   STATE
UWBI.                                      11000074112601:   UWBI
WELL.                                       EEMSKANAAL- 2:   HOLE NAME
~PARAMETER INFORMATION (log)
LNAM.                                RUN 01 RAW OH 9 5/8":   NAME
LTYP.                                                 01R:   LOG TYPE
LVSN.                                                   1:   LOG VERSION
BS  .5/8"                                               9:   BIT SIZE
BLI .M                                             2778.0:   BOTTOM DEPTH LOGGED
BHIS.                                                MCCC:   BRIEF HISTORY
FHIS.                                     MERGE/COPY/COPY:   FULL HISTORY
MRT .DEGC                                              84:   MAX REC TEMP
DFD .G/CC                                            1.54:   MUD DENSITY
DFT .                                   SALT SAT SPERSENE:   MUD TYPE
RMS .                                                    :   RM
MST .                                                    :   RM TEMP
RMCS.                                                    :   RMC
MCST.                                                    :   RMC TEMP
RMFS.                                                    :   RMF
MFST.                                                    :   RMF TEMP
TCS .                                                 N/A:   TIME SINCE CIRCLN
TLI .M                                             1800.0:   TOP DEPTH LOGGED
~Curve Information Block
#MNEM.UNIT                                        API CODE    No Description
#=========                                        ========    == ===========
DEPT.M                                       00 001 00 00:     1  DEPTH
CALF.IN                                                  :     2  CALIPER FROM FORMATION DENSITY LOG
FDC.G/C3                                                 :     3  Formation Density Log (Compensated Open
GR.API                                                   :     4  Gamma Ray
~ASCII
# ...
 2121.8652    10.0690     2.0590     3.5850
 2122.0176    10.0690     2.0660     3.7310
 2122.1700    10.0690     2.0670     4.0330
 2122.3224    10.0700     2.0740     4.5840
 2122.4748    10.0700     2.0760     4.7700
 2122.6272    10.0600     2.0780     5.0490
 2122.7796    10.0500     2.0830     5.5340
 2122.9320    10.0460     2.0740     5.2330
 2123.0844    10.0450     2.0680     4.5740
 2123.2368    10.0450     2.0650     4.7280
 2123.3892    10.0450     2.0660     5.4200
 2123.5416    10.0300     2.0740     5.4550
 2123.6940    10.0480     2.0650     4.8510
 2123.8464    10.0470     2.0630     4.7700
 2123.9988    10.0500     2.0700     5.0070
 2124.1512    10.0800     2.0670     4.9790
 2124.3036    10.0800     2.0670     4.9530
 2124.4560    10.0680     2.0730     5.1490
 2124.6084    10.0510     2.0720     5.5630
 2124.7608    10.0600     2.0660     6.0290
 2124.9132    10.0770     2.0600     6.3300
 2125.0656    10.0740     2.0580     6.3100
 2125.2180    10.0680     2.0640     6.0810
 2125.3704    10.0670     2.0720     5.9070
 2125.5228    10.0750     2.0740     5.9010
 2125.6752    10.0510     2.0810     5.9700
 2125.8276    10.0610     2.0880     6.0570
 2125.9800    10.0530     2.0820     6.0900
 2126.1324    10.0680     2.0780     6.0560
 2126.2848    10.0760     2.0760     5.5650
 2126.4372    10.0770     2.0770     4.8890
 2126.5896    10.0730     2.0770     4.7370
 2126.7420    10.0600     2.0770     5.1200
 2126.8944    10.0800     2.0800     5.4120
 2127.0468    10.0620     2.0900     5.0620
 2127.1992    10.0650     2.1060     5.8310
 2127.3516    10.0330     2.1120     6.3610
 2127.5040    10.0250     2.1070     6.0700
 2127.6564    10.0270     2.1080     4.8210
 2127.8088    10.0410     2.1030     3.8780
 2127.9612    10.0740     2.0990     3.8190
 2128.1136    10.0550     2.1000     5.0480
 2128.2660    10.0660     2.1050     6.2020
 2128.4184    10.0730     2.1100     6.0120
 2128.5708    10.0200     2.1170     5.2480
 2128.7232    10.0130     2.1180     5.0410
 2128.8756    10.0440     2.1160     5.3380
 2129.0280    10.0690     2.1120     5.6840
 2129.1804    10.0630     2.1040     5.1070
 2129.3328    10.0470     2.1000     4.5310
 2129.4852    10.0490     2.1000     4.3720
 2129.6376    10.0690     2.1050     4.4160
 2129.7900    10.0730     2.1010     4.4380
 2129.9424    10.0690     2.1000     4.6420
 2130.0948    10.0710     2.1060     5.1280
 2130.2472    10.0760     2.1090     4.5820
 2130.3996    10.0850     2.1130     4.9620
 2130.5520    10.0980     2.1120     4.7690
 2130.7044    10.1120     2.1160     4.3740
 2130.8568    10.0510     2.1290     4.7480
 2131.0092    10.0600     2.1400     5.2490
 2131.1616    10.0970     2.1350     5.2070
 2131.3140    10.1130     2.1280     5.2030
 2131.4664    10.1130     2.1340     5.4690
 2131.6188    10.0840     2.1510     5.8270
 2131.7712    10.0660     2.1590     5.5160
 2131.9236    10.0730     2.1600     4.4790
 2132.0760    10.0870     2.1610     3.7700
 2132.2284    10.0970     2.1690     3.8670
 2132.3808    10.0940     2.1660     4.4890
 2132.5332    10.0840     2.1550     4.8800
 2132.6856    10.0910     2.1450     5.3140
 2132.8380    10.1090     2.1390     5.4900
 2132.9904    10.0910     2.1410     5.0150
 2133.1428    10.0920     2.1460     4.5730
 2133.2952    10.0970     2.1450     4.6010
 2133.4476    10.0950     2.1440     5.0110
 2133.6000    10.0890     2.1410     5.7450
 2133.7524    10.1010     2.1630     5.7240
 2133.9048    10.1140     2.1830     5.4970
 2134.0572    10.1070     2.1930     5.7940
 2134.2096    10.0890     2.1980     5.6280
 2134.3620    10.0910     2.1890     4.2960
 2134.5144    10.1110     2.1470     4.4660
 2134.6668    10.1350     2.1030     4.4600
 2134.8192    10.1390     2.1090     4.4110
 2134.9716    10.1210     2.1110     4.3180
 2135.1240    10.1140     2.1150     4.3050
 2135.2764    10.1210     2.1220     4.4080
 2135.4288    10.1360     2.1340     4.6380
 2135.5812    10.1390     2.1110     5.3800
 2135.7336    10.1170     2.0900     5.9150
 2135.8860    10.1170     2.0890     5.4700
 2136.0384    10.1320     2.0990     5.3450
 2136.1908    10.1370     2.1030     5.4270
 2136.3432    10.1130     2.1020     5.4110
 2136.4956    10.1130     2.1030     5.1410
 2136.6480    10.1180     2.1030     4.2830
 2136.8004    10.1260     2.1030     4.2940
 2136.9528    10.1280     2.1000     5.5940
 2137.1052    10.1220     2.0940     5.9700
 2137.2576    10.1210     2.0900     5.9100
 2137.4100    10.1210     2.0950     5.8620
 2137.5624    10.1220     2.1030     6.0450
 2137.7148    10.1290     2.1140     6.3610
 2137.8672    10.1080     2.1230     6.4400
 2138.0196    10.0750     2.1340     6.1870
 2138.1720    10.0800     2.1510     5.6030
 2138.3244    10.0830     2.1480     4.7970
 2138.4768    10.0790     2.1420     5.0420
 2138.6292    10.0960     2.1510     6.0220
 2138.7816    10.0970     2.1960     6.3180
 2138.9340    10.0680     2.2520     5.5820
 2139.0864    10.0220     2.3440     5.0790
 2139.2388     9.9760     2.4670     5.0780
 2139.3912     9.9590     2.6260     5.1290
 2139.5436     9.9560     2.7120     5.0950
 2139.6960     9.9530     2.8580     5.1280
 2139.8484     9.9560     2.8730     5.3440
 2140.0008     9.9610     2.8650     5.7270
 2140.1532     9.9710     2.8910     5.0030
 2140.3056     9.9840     2.9260     6.1200
 2140.4580    10.0020     2.9250     6.6820
 2140.6104    10.0200     2.9440     7.1820
 2140.7628    10.0350     2.9170     7.8060
 2140.9152    10.0540     2.9120     8.9510
 2141.0676    10.0710     2.8920    10.5180
 2141.2200    10.0630     2.8660    10.2180
 2141.3724    10.0570     2.8830     8.7210
 2141.5248    10.0580     2.9300     8.4900
 2141.6772    10.0700     2.9450     8.9030
 2141.8296    10.0910     2.9470     9.2940
 2141.9820    10.1080     2.9480     8.5650
 2142.1344    10.1220     2.9500     6.5770
 2142.2868    10.1250     2.9590     5.7100
 2142.4392    10.1140     2.9780     5.3210
 2142.5916    10.0940     2.9790     4.9550
 2142.7440    10.0890     2.9790     4.8840
 2142.8964    10.0890     2.9770     5.6170
 2143.0488    10.0960     2.9570     6.8660
 2143.2012    10.1010     2.9400     9.0190
 2143.3536    10.1060     2.9390    11.1030
 2143.5060    10.1130     2.9360    11.8470
 2143.6584    10.1090     2.9530     9.7350
 2143.8108    10.0930     2.9570     9.6310
 2143.9632    10.0690     2.9410     9.7240
 2144.1156    10.0530     2.9500    10.3740
 2144.2680    10.0420     2.9520    10.0820
 2144.4204    10.0420     2.9620     8.0240
 2144.5728    10.0500     2.9720     6.9490
 2144.7252    10.0620     2.9670     6.5320
 2144.8776    10.0670     2.9650     6.5000
 2145.0300    10.0680     2.9930     6.5280
 2145.1824    10.0590     3.0040     6.6690
 2145.3348    10.0500     2.9820     6.6560
 2145.4872    10.0410     2.9450     6.7970
 2145.6396    10.0330     2.9390     7.2040
 2145.7920    10.0330     2.9370     7.7440
 2145.9444    10.0330     2.9390     7.5640
 2146.0968    10.0330     2.9410     6.9570
 2146.2492    10.0380     2.9410     7.0670
 2146.4016    10.0510     2.9360     8.3060
 2146.5540    10.0560     2.9410     9.2060
 2146.7064    10.0570     2.9450     9.5230
 2146.8588    10.0560     2.9550     8.7780
 2147.0112    10.0490     2.9460     8.4600
 2147.1636    10.0380     2.9390     8.6850
 2147.3160    10.0260     2.9390     8.7560
 2147.4684    10.0140     2.9470     8.3130
 2147.6208    10.0090     2.9540     8.0750
 2147.7732    10.0120     2.9530     8.6870
 2147.9256    10.0170     2.9530     9.0610
 2148.0780    10.0100     2.9420     8.9390
 2148.2304     9.9980     2.9320     7.8630
 2148.3828     9.9930     2.9270     7.8600
 2148.5352    10.0050     2.9380     9.4480
 2148.6876    10.0160     2.9440     9.6000
 2148.8400    10.0330     2.9450     9.3690
 2148.9924    10.0430     2.9370     8.6600
 2149.1448    10.0490     2.9150     8.3780
 2149.2972    10.0510     2.8940     9.1620
 2149.4496    10.0440     2.8770    10.0870
