~VERSION INFORMATION
VERS.                                                 2.0:   CWLS Log ASCII Standard-VERSION 2.0
WRAP.                                                  NO:   One line per depth step
~Well Information Block
STRT.M                                           404.0124:   Top Depth
STOP.M                                          1403.9088:   Bottom Depth
STEP.M                                             .15240:   Depth Increment
NULL.                                            -999.250:   Null Value
FLD .                                          EEMSKANAAL:   Field Name
WELL.                                       EEMSKANAAL- 1:   NAME
EDF .m                                               5.58:   ELEV DRILL FLOOR
EPD .                                                   0:   ELEV PERM DATUM
EGL .m                                                -.9:   GROUND LEVEL
LMF .                                                  DF:   LOGS MEAS FROM
COMP.                                                 NAM:   OPERATOR
PDAT.                                                 NAP:   PERM DATUM
SPUD.                                          1970/11/08:   SPUD DATE
UWBI.                                      11000074112201:   UWBI
WELL.                                       EEMSKANAAL- 1:   HOLE NAME
~PARAMETER INFORMATION (log)
LNAM.                                RUN 01 RAW OH 14.75":   NAME
LTYP.                                                 01R:   LOG TYPE
LVSN.                                                   1:   LOG VERSION
BS  .3/4"                                              14:   BIT SIZE
BLI .M                                             1406.2:   BOTTOM DEPTH LOGGED
BHIS.                                            RCCCCCCC:   BRIEF HISTORY
FHIS.              RAW-TIGA/COPY/COPY/COPY/COPY/COPY/COPY:   FULL HISTORY
MRT .C                                                 50:   MAX REC TEMP
DFT .                                         CHALK WATER:   MUD TYPE
RMS .                                                1.44:   RM
MST .C                                                 11:   RM TEMP
RMCS.                                                1.93:   RMC
MCST.C                                                 19:   RMC TEMP
RMFS.                                               0.917:   RMF
MFST.C                                                 19:   RMF TEMP
TCS .                                                 N/A:   TIME SINCE CIRCLN
TLI .M                                              403.6:   TOP DEPTH LOGGED
~Curve Information Block
#MNEM.UNIT                                        API CODE    No Description
#=========                                        ========    == ===========
DEPT.M                                       00 001 00 00:     1  DEPTH
DILD.OHMM                                                :     2  DUAL INDUCTION LOG DEEP RESISTIVITY
SN.OHMM                                                  :     3  SHORT NORMAL
~ASCII
# ...
  922.4772      .3040      .7760
  922.6296      .3180      .7560
  922.7820      .3440      .7400
  922.9344      .3780      .7230
  923.0868      .4090      .7020
  923.2392      .4490      .6950
  923.3916      .4750      .6940
  923.5440      .4770      .6950
  923.6964      .4700      .7040
  923.8488      .4620      .7280
  924.0012      .4580      .7540
  924.1536      .4550      .7560
  924.3060      .4410      .7480
  924.4584      .4210      .7360
  924.6108      .4090      .7320
  924.7632      .4010      .7370
  924.9156      .3960      .7470
  925.0680      .3990      .7540
  925.2204      .4030      .7540
  925.3728      .4130      .7510
  925.5252      .4250      .7440
  925.6776      .4290      .7300
  925.8300      .4330      .7160
  925.9824      .4270      .7090
  926.1348      .4230      .7100
  926.2872      .4110      .7130
  926.4396      .4010      .7210
  926.5920      .3960      .7450
  926.7444      .3930      .7780
  926.8968      .3800      .7930
  927.0492      .3580      .7840
  927.2016      .3300      .7590
  927.3540      .3240      .7220
  927.5064      .3240      .6990
  927.6588      .3240      .6960
  927.8112      .3240      .7040
  927.9636      .3240      .7200
  928.1160      .3240      .7400
  928.2684      .3240      .7580
  928.4208      .3240      .7650
  928.5732      .3240      .7530
  928.7256      .3240      .7240
  928.8780      .3240      .7000
  929.0304      .3240      .6880
  929.1828      .3260      .6830
  929.3352      .3320      .6900
  929.4876      .3320      .6930
  929.6400      .3300      .6960
  929.7924      .3260      .7040
  929.9448      .3240      .7190
  930.0972      .3300      .7360
  930.2496      .3370      .7520
  930.4020      .3460      .7680
  930.5544      .3550      .7830
  930.7068      .3790      .7980
  930.8592      .3920      .8140
  931.0116      .3960      .8130
  931.1640      .3960      .7940
  931.3164      .3960      .7610
  931.4688      .3960      .7410
  931.6212      .3960      .7410
  931.7736      .3960      .7590
  931.9260      .4040      .7840
  932.0784      .4100      .8010
  932.2308      .4180      .8100
  932.3832      .4180      .8060
  932.5356      .4180      .7970
  932.6880      .4180      .7970
  932.8404      .4150      .8080
  932.9928      .4170      .8260
  933.1452      .4100      .8480
  933.2976      .4040      .8520
  933.4500      .3970      .8400
  933.6024      .3960      .8190
  933.7548      .3920      .7870
  933.9072      .3880      .7640
  934.0596      .3880      .7600
  934.2120      .3880      .7700
  934.3644      .3940      .8030
  934.5168      .3960      .8280
  934.6692      .3960      .8360
  934.8216      .3960      .8350
  934.9740      .3960      .8340
  935.1264      .3960      .8340
  935.2788      .3960      .8360
  935.4312      .4000      .8370
  935.5836      .4010      .8360
  935.7360      .4020      .8310
  935.8884      .4090      .8240
  936.0408      .4100      .8120
  936.1932      .4100      .7960
  936.3456      .4090      .7940
  936.4980      .4020      .8010
  936.6504      .4020      .8230
  936.8028      .4020      .8620
  936.9552      .3990      .8890
  937.1076      .4020      .9040
  937.2600      .4020      .9020
  937.4124      .4020      .8950
  937.5648      .4020      .8840
  937.7172      .4020      .8690
  937.8696      .4020      .8520
  938.0220      .4020      .8360
  938.1744      .4020      .8200
  938.3268      .4020      .8100
  938.4792      .4050      .8070
  938.6316      .4100      .8070
  938.7840      .4100      .7980
  938.9364      .4100      .7740
  939.0888      .4100      .7620
  939.2412      .4100      .7770
  939.3936      .4100      .8030
  939.5460      .4100      .8070
  939.6984      .4040      .7960
  939.8508      .4020      .7820
  940.0032      .4020      .8320
  940.1556      .4020      .8520
  940.3080      .4020      .8460
  940.4604      .4020      .8210
  940.6128      .4020      .7960
  940.7652      .4060      .7780
  940.9176      .4100      .7620
  941.0700      .4100      .7470
  941.2224      .4100      .7400
  941.3748      .4100      .7410
  941.5272      .4050      .7450
  941.6796      .4020      .7580
  941.8320      .4020      .7770
  941.9844      .3990      .7870
  942.1368      .3960      .7920
  942.2892      .3960      .7950
  942.4416      .3960      .7910
  942.5940      .3960      .7840
  942.7464      .3960      .7780
  942.8988      .3960      .7710
  943.0512      .3950      .7730
  943.2036      .3880      .7820
  943.3560      .3870      .8030
  943.5084      .3800      .8290
  943.6608      .3670      .8470
  943.8132      .3590      .8520
  943.9656      .3560      .8480
  944.1180      .3560      .8240
  944.2704      .3560      .8010
  944.4228      .3570      .7860
  944.5752      .3640      .7760
  944.7276      .3650      .7710
  944.8800      .3720      .7710
  945.0324      .3800      .7710
  945.1848      .3850      .7740
  945.3372      .3980      .7880
  945.4896      .4130      .8320
  945.6420      .4360      .8700
  945.7944      .4760      .8850
  945.9468      .4960      .8720
  946.0992      .5060      .8480
  946.2516      .5240      .8230
  946.4040      .5380      .8090
  946.5564      .5440      .8070
  946.7088      .5500      .8150
  946.8612      .5540      .8280
  947.0136      .5540      .8330
  947.1660      .5490      .8330
  947.3184      .5450      .8320
  947.4708      .5380      .8260
  947.6232      .5410      .8220
  947.7756      .5460      .8190
  947.9280      .5460      .8170
  948.0804      .5460      .8140
  948.2328      .5460      .8100
  948.3852      .5460      .8090
  948.5376      .5460      .8130
  948.6900      .5460      .8230
  948.8424      .5460      .8550
  948.9948      .5380      .9020
  949.1472      .5320      .9340
  949.2996      .5300      .9220
  949.4520      .5300      .8930
  949.6044      .5300      .8720
  949.7568      .5300      .8650
  949.9092      .5290      .8640
  950.0616      .5220      .8570
  950.2140      .5230      .8500
  950.3664      .5300      .8470
  950.5188      .5360      .8490
  950.6712      .5380      .8610
  950.8236      .5350      .8770
  950.9760      .5300      .8890
  951.1284      .5300      .8930
  951.2808      .5220      .8890
  951.4332      .5020      .8850
  951.5856      .4840      .8850
  951.7380      .4690      .8900
  951.8904      .4590      .8920
  952.0428      .4470      .8770
  952.1952      .4210      .8540
  952.3476      .3990      .8500
  952.5000      .3880      .8490
  952.6524      .3800      .8500
  952.8048      .3800      .8560
  952.9572      .3800      .8710
  953.1096      .3800      .8940
  953.2620      .3850      .9170
  953.4144      .3880      .9280
  953.5668      .3880      .9300
  953.7192      .3880      .9290
  953.8716      .3880      .9290
  954.0240      .3850      .9280
  954.1764      .3800      .9300
  954.3288      .3780      .9270
  954.4812      .3720      .9110
  954.6336      .3720      .8870
  954.7860      .3790      .8740
  954.9384      .2790      .8720
  955.0908      .3040      .8810
  955.2432      .3240      .8900
  955.3956      .3320      .8880
  955.5480      .3460      .8650
  955.7004      .3740      .8300
  955.8528      .3880      .8150
  956.0052      .3960      .8120
  956.1576      .3960      .8280
  956.3100      .3900      .8760
  956.4624      .3830      .9000
  956.6148      .3770      .9000
  956.7672      .3720      .8850
  956.9196      .3720      .8590
  957.0720      .3720      .8290
  957.2244      .3720      .8000
  957.3768      .3720      .7890
  957.5292      .3790      .8040
  957.6816      .3800      .8480
  957.8340      .3810      .8780
  957.9864      .3870      .8910
  958.1388      .3950      .8800
  958.2912      .4180      .8480
  958.4436      .4440      .8380
  958.5960      .4580      .8390
  958.7484      .4710      .8600
  958.9008      .4740      .8570
  959.0532      .4730      .8380
  959.2056      .4660      .8170
  959.3580      .4630      .8000
