~VERSION INFORMATION
VERS.                                                 2.0:   CWLS Log ASCII Standard-VERSION 2.0
WRAP.                                                  NO:   One line per depth step
~Well Information Block
STRT.M                                          1406.0424:   Top Depth
STOP.M                                          1903.9332:   Bottom Depth
STEP.M                                             .15240:   Depth Increment
NULL.                                            -999.250:   Null Value
FLD .                                          EEMSKANAAL:   Field Name
WELL.                                       EEMSKANAAL- 1:   NAME
EDF .m                                               5.58:   ELEV DRILL FLOOR
EPD .                                                   0:   ELEV PERM DATUM
EGL .m                                                -.9:   GROUND LEVEL
LMF .                                                  DF:   LOGS MEAS FROM
COMP.                                                 NAM:   OPERATOR
PDAT.                                                 NAP:   PERM DATUM
SPUD.                                          1970/11/08:   SPUD DATE
UWBI.                                      11000074112201:   UWBI
WELL.                                       EEMSKANAAL- 1:   HOLE NAME
~PARAMETER INFORMATION (log)
LNAM.                                RUN 07 RAW OH 9.625":   NAME
LTYP.                                                 07R:   LOG TYPE
LVSN.                                                   1:   LOG VERSION
BS  .5/8"                                               9:   BIT SIZE
BLI .M                                               2950:   BOTTOM DEPTH LOGGED
BHIS.                                            RCCCCCCC:   BRIEF HISTORY
FHIS.              RAW-TIGA/COPY/COPY/COPY/COPY/COPY/COPY:   FULL HISTORY
MRT .                                                    :   MAX REC TEMP
DFT .                                          SALT SPERS:   MUD TYPE
RMS .                                               0.074:   RM
MST .C                                                 26:   RM TEMP
RMCS.                                               0.144:   RMC
MCST.C                                                 17:   RMC TEMP
RMFS.                                               0.059:   RMF
MFST.C                                                 26:   RMF TEMP
TCS .                                                 N/A:   TIME SINCE CIRCLN
TLI .M                                             1406.5:   TOP DEPTH LOGGED
~Curve Information Block
#MNEM.UNIT                                        API CODE    No Description
#=========                                        ========    == ===========
DEPT.M                                       00 001 00 00:     1  DEPTH
LL9D.OHMM                                                :     2  Dual Laterolog 9 deep
LL9S.OHMM                                                :     3  Dual Laterolog 9 shallow
MSFL.OHMM                                                :     4  MICRO SPHERICALLY FOCUSSED LOG
~ASCII
# ...
 1489.2528     1.8970     1.6320     2.5900
 1489.4052     1.8020     1.4090     2.3860
 1489.5576     1.7950     1.4160     1.5330
 1489.7100     1.8650     1.5550      .7790
 1489.8624     2.1210     1.8190     2.3320
 1490.0148     2.1780     1.7970     2.5260
 1490.1672     2.1080     1.7200     2.4980
 1490.3196     2.0400     1.6490     2.3860
 1490.4720     1.9900     1.6110     2.2710
 1490.6244     1.9470     1.5880     2.2360
 1490.7768     1.9400     1.5830     2.2760
 1490.9292     2.0010     1.6010     2.2270
 1491.0816     2.0850     1.6690     2.2120
 1491.2340     2.1760     1.7420     2.2120
 1491.3864     2.2380     1.7990     2.2620
 1491.5388     2.2580     1.8290     2.5570
 1491.6912     2.2570     1.8370     2.4610
 1491.8436     2.2350     1.8410     2.6550
 1491.9960     2.2240     1.8330     2.4760
 1492.1484     2.2440     1.8360     2.7290
 1492.3008     2.2820     1.8590     2.5370
 1492.4532     2.4370     2.0600     2.3600
 1492.6056     2.7940     2.2750     2.4750
 1492.7580     3.2320     2.6030     2.6800
 1492.9104     3.3940     2.7100     3.1090
 1493.0628     3.3150     2.7160     2.6610
 1493.2152     3.1560     2.6560     3.0660
 1493.3676     3.0470     2.5800     3.2430
 1493.5200     3.0390     2.5510     3.4870
 1493.6724     3.0930     2.5640     3.2800
 1493.8248     3.2320     2.6200     3.1000
 1493.9772     3.3660     2.7530     3.2060
 1494.1296     3.4470     2.7940     3.4570
 1494.2820     3.4320     2.7670     3.7360
 1494.4344     3.3110     2.6890     3.8360
 1494.5868     2.9910     2.4580     2.8050
 1494.7392     2.4830     2.0330     1.5340
 1494.8916     1.9140     1.7210     4.0290
 1495.0440     1.5590     1.4860     3.2090
 1495.1964     1.3030     1.2520     1.7690
 1495.3488     1.1270     1.1220     1.5450
 1495.5012     1.0750     1.0710     1.4390
 1495.6536     1.0650     1.0610     1.2060
 1495.8060     1.0770     1.0740     1.0240
 1495.9584     1.1390     1.1720      .9800
 1496.1108     1.3890     1.4230     1.0170
 1496.2632     1.8050     1.8010     1.1170
 1496.4156     2.1530     2.4250     1.5110
 1496.5680     2.5480     2.7020     2.6300
 1496.7204     3.1830     3.0410     3.3060
 1496.8728     3.6230     3.3940     3.7680
 1497.0252     4.2800     3.8800     3.8730
 1497.1776     5.0070     4.1630     2.5460
 1497.3300     5.1460     4.2770     4.6290
 1497.4824     5.1030     4.2910     3.5960
 1497.6348     4.8150     4.1640     5.5100
 1497.7872     4.4830     3.9040     5.3890
 1497.9396     4.1320     3.7060     4.9240
 1498.0920     3.8850     3.5260     4.6250
 1498.2444     3.6530     3.3740     3.7170
 1498.3968     3.4290     3.2400     3.9550
 1498.5492     3.2580     3.1090     3.6750
 1498.7016     3.1870     3.0210     2.6410
 1498.8540     3.1790     2.9830     3.9140
 1499.0064     3.2320     3.0570     4.1120
 1499.1588     3.4520     3.2290     3.5050
 1499.3112     3.8080     3.4300     2.3530
 1499.4636     3.9780     3.6090     3.8150
 1499.6160     3.9470     3.6360     3.7880
 1499.7684     3.8080     3.6280     3.4060
 1499.9208     3.5650     3.6160     4.2340
 1500.0732     3.3240     3.4940     7.4530
 1500.2256     3.1760     3.2430     5.0920
 1500.3780     3.0280     2.9960     3.5290
 1500.5304     2.9670     2.8630     3.6600
 1500.6828     3.0440     2.9020     3.2710
 1500.8352     3.2780     3.2730     2.0300
 1500.9876     3.6760     3.7080     2.7670
 1501.1400     3.8080     3.6970     4.5220
 1501.2924     3.6290     3.4070     4.5260
 1501.4448     3.3810     3.1920     3.1340
 1501.5972     3.2690     3.1240     3.4750
 1501.7496     3.3210     3.1950     3.3310
 1501.9020     3.5690     3.4670     3.2120
 1502.0544     3.7920     3.7630     3.1610
 1502.2068     4.0290     4.0230     2.3250
 1502.3592     4.1490     4.0650     3.3750
 1502.5116     4.0440     3.9460     4.8790
 1502.6640     3.8270     3.6850     4.4750
 1502.8164     3.6710     3.5430     3.6790
 1502.9688     3.6380     3.4750     4.0470
 1503.1212     3.8270     3.5310     3.4520
 1503.2736     4.4140     3.9910     3.0410
 1503.4260     4.6130     4.2980     2.6910
 1503.5784     4.6310     4.4100     4.7060
 1503.7308     4.5480     4.4520     5.2460
 1503.8832     4.4850     4.4850     4.6670
 1504.0356     4.6580     4.5750     4.6070
 1504.1880     4.9470     4.7080     5.1530
 1504.3404     5.0740     4.8130     5.9400
 1504.4928     5.0710     4.8080     5.7430
 1504.6452     4.8840     4.6360     5.6090
 1504.7976     4.5370     4.3560     6.7010
 1504.9500     4.2070     4.0440     4.8400
 1505.1024     3.8910     3.7030     8.1680
 1505.2548     3.5820     3.4350     4.8020
 1505.4072     3.2490     3.1650     5.1100
 1505.5596     3.0270     3.0290     5.1070
 1505.7120     3.0020     2.9800     3.9790
 1505.8644     3.2040     3.1060     3.8630
 1506.0168     3.3610     3.3090     3.9040
 1506.1692     3.3760     3.3530     4.8450
 1506.3216     3.3640     3.3370     5.1740
 1506.4740     3.2960     3.2540     4.0090
 1506.6264     3.2130     3.1680     4.2230
 1506.7788     3.1640     3.1530     4.1240
 1506.9312     3.2480     3.1660     3.5560
 1507.0836     3.7320     3.3670     3.0010
 1507.2360     4.2400     3.7760     4.5130
 1507.3884     4.7210     4.0690     5.2240
 1507.5408     4.7400     4.1370     5.3100
 1507.6932     4.4090     4.1180     5.9290
 1507.8456     3.6610     3.6050     5.8560
 1507.9980     3.1180     3.0100     5.1950
 1508.1504     2.7340     2.4870     3.0480
 1508.3028     2.5830     2.3210     2.9880
 1508.4552     2.2770     2.1630     3.7610
 1508.6076     1.5570     1.8070     3.1120
 1508.7600     1.3840     1.3480     2.0790
 1508.9124     1.2980     1.1660     1.2940
 1509.0648     1.2550     1.1420      .9300
 1509.2172     1.2380     1.1380     1.1750
 1509.3696     1.2570     1.1560     1.3060
 1509.5220     1.3130     1.2050     1.2080
 1509.6744     1.4150     1.2800     1.0640
 1509.8268     1.4760     1.3100      .8860
 1509.9792     1.4270     1.2800     1.2740
 1510.1316     1.2010     1.0280     1.7580
 1510.2840      .9660      .8470     1.3280
 1510.4364      .9400      .8040      .5540
 1510.5888      .9770      .8320      .5020
 1510.7412     1.2790     1.0830      .5470
 1510.8936     1.6970     1.4230      .1720
 1511.0460     1.8700     1.6030      .8870
 1511.1984     2.0010     1.6740     1.7350
 1511.3508     2.1220     1.7600     1.3030
 1511.5032     2.2630     1.8470     1.2100
 1511.6556     2.3440     1.8810     1.2430
 1511.8080     2.3600     1.8450     1.2990
 1511.9604     2.3010     1.7950     2.8410
 1512.1128     2.2190     1.7300     2.6320
 1512.2652     2.1160     1.6360     2.9110
 1512.4176     2.0360     1.5840     2.6930
 1512.5700     2.0840     1.6120     1.9690
 1512.7224     2.1180     1.6560     1.6730
 1512.8748     2.0390     1.6510     1.7580
 1513.0272     1.9310     1.5680     1.9740
 1513.1796     1.7930     1.4380     2.0510
 1513.3320     1.6710     1.3630     1.7690
 1513.4844     1.5870     1.3110     1.3760
 1513.6368     1.5430     1.2790     1.5990
 1513.7892     1.5120     1.2620     1.3980
 1513.9416     1.4810     1.2610     1.4600
 1514.0940     1.4910     1.2740     1.6570
 1514.2464     1.6010     1.3370     1.5320
 1514.3988     1.7270     1.3990     1.4360
 1514.5512     1.8760     1.4210     1.7260
 1514.7036     1.9820     1.7570     1.8460
 1514.8560     2.0550     1.7950     1.8360
 1515.0084     2.0710     1.7530     1.8980
 1515.1608     2.0630     1.7360     2.3940
 1515.3132     2.0620     1.7420     2.2530
 1515.4656     2.1310     1.7650     1.7000
 1515.6180     2.3670     1.8120     1.5300
 1515.7704     2.6180     1.9520     1.9510
 1515.9228     2.7100     2.4540     1.8090
 1516.0752     2.6580     2.4870     2.6260
 1516.2276     2.4920     2.3850     3.3290
 1516.3800     2.4470     2.2720     3.3490
 1516.5324     2.5160     2.2560     2.8120
 1516.6848     2.7000     2.3180     2.0200
 1516.8372     3.0600     2.7580     2.9050
