~VERSION INFORMATION
VERS.                                                 2.0:   CWLS Log ASCII Standard-VERSION 2.0
WRAP.                                                  NO:   One line per depth step
~Well Information Block
STRT.M                                          1789.0236:   Top Depth
STOP.M                                          2779.9284:   Bottom Depth
STEP.M                                             .15240:   Depth Increment
NULL.                                            -999.250:   Null Value
FLD .                                          EEMSKANAAL:   Field Name
WELL.                                       EEMSKANAAL- 2:   NAME
APD .M                                               5.62:   ABOVE PERM DATUM
CTRY.                                                  NE:   COUNTRY
EDF .m                                               5.62:   ELEV DRILL FLOOR
EPD .                                                   0:   ELEV PERM DATUM
EGL .m                                              -1.06:   GROUND LEVEL
LMF .                                                  DF:   LOGS MEAS FROM
COMP.                                                 NAM:   OPERATOR
PDAT.                                                 NAP:   PERM DATUM
SPUD.                                          1971/03/17:   SPUD DATE
STAT.                                           Unknown m:   STATE
UWBI.                                      11000074112601:   UWBI
WELL.                                       EEMSKANAAL- 2:   HOLE NAME
~PARAMETER INFORMATION (log)
LNAM.                                RUN 01 RAW OH 9 5/8":   NAME
LTYP.                                                 01R:   LOG TYPE
LVSN.                                                   1:   LOG VERSION
BS  .5/8"                                               9:   BIT SIZE
BLI .M                                             2778.0:   BOTTOM DEPTH LOGGED
BHIS.                                                MCCC:   BRIEF HISTORY
FHIS.                                     MERGE/COPY/COPY:   FULL HISTORY
MRT .DEGC                                              84:   MAX REC TEMP
DFD .G/CC                                            1.54:   MUD DENSITY
DFT .                                   SALT SAT SPERSENE:   MUD TYPE
RMS .                                                    :   RM
MST .                                                    :   RM TEMP
RMCS.                                                    :   RMC
MCST.                                                    :   RMC TEMP
RMFS.                                                    :   RMF
MFST.                                                    :   RMF TEMP
TCS .                                                 N/A:   TIME SINCE CIRCLN
TLI .M                                             1800.0:   TOP DEPTH LOGGED
~Curve Information Block
#MNEM.UNIT                                        API CODE    No Description
#=========                                        ========    == ===========
DEPT.M                                       00 001 00 00:     1  DEPTH
CALF.IN                                                  :     2  CALIPER FROM FORMATION DENSITY LOG
FDC.G/C3                                                 :     3  Formation Density Log (Compensated Open
GR.API                                                   :     4  Gamma Ray
~ASCII
# ...
 2676.6012    10.0740     2.1550     6.1160
 2676.7536    10.0750     2.1410     5.5980
 2676.9060    10.0570     2.1230     5.3600
 2677.0584    10.0320     2.1180     5.3140
 2677.2108    10.0300     2.1240     4.7550
 2677.3632    10.0380     2.1320     4.9160
 2677.5156    10.0650     2.1210     5.0710
 2677.6680    10.1040     2.1040     4.7810
 2677.8204    10.1070     2.1010     4.7530
 2677.9728    10.0630     2.1230     5.3570
 2678.1252    10.0370     2.1400     5.7380
 2678.2776    10.0290     2.1430     5.3830
 2678.4300    10.0310     2.1380     4.4670
 2678.5824    10.0370     2.1420     4.9500
 2678.7348    10.0450     2.1380     4.8970
 2678.8872    10.0490     2.1430     4.7310
 2679.0396    10.0380     2.1540     5.1190
 2679.1920    10.0130     2.1660     5.7140
 2679.3444    10.0060     2.1770     6.7630
 2679.4968    10.0090     2.1680     7.8250
 2679.6492    10.0170     2.1540     7.6820
 2679.8016    10.0360     2.1510     6.1080
 2679.9540    10.0510     2.1610     5.0930
 2680.1064    10.0560     2.1630     4.4850
 2680.2588    10.0430     2.1520     4.5730
 2680.4112    10.0310     2.1410     4.7970
 2680.5636    10.0300     2.1440     5.1340
 2680.7160    10.0460     2.1530     5.4860
 2680.8684    10.0640     2.1540     5.9160
 2681.0208    10.0660     2.1460     5.9660
 2681.1732    10.0450     2.1410     5.2150
 2681.3256    10.0200     2.1510     5.5770
 2681.4780    10.0030     2.1490     5.0430
 2681.6304     9.9970     2.1390     4.8630
 2681.7828    10.0120     2.1370     4.9920
 2681.9352    10.0540     2.1580     5.2170
 2682.0876    10.0800     2.1860     4.9930
 2682.2400    10.0750     2.1850     4.2660
 2682.3924    10.0580     2.1750     4.1190
 2682.5448    10.0440     2.1720     4.5580
 2682.6972    10.0410     2.1740     4.4270
 2682.8496    10.0480     2.1670     4.6940
 2683.0020    10.0680     2.1610     4.4790
 2683.1544    10.0820     2.1550     4.1520
 2683.3068    10.0850     2.1510     4.2510
 2683.4592    10.0630     2.1630     4.4420
 2683.6116    10.0380     2.1690     4.6340
 2683.7640    10.0440     2.1670     4.8170
 2683.9164    10.0540     2.1720     5.1600
 2684.0688    10.0730     2.1580     5.3720
 2684.2212    10.0870     2.1480     5.3850
 2684.3736    10.0990     2.1440     4.8950
 2684.5260    10.0560     2.1430     4.6810
 2684.6784    10.0070     2.1550     4.9480
 2684.8308     9.9920     2.1650     5.5330
 2684.9832    10.0030     2.1720     5.8770
 2685.1356    10.0100     2.1610     5.3090
 2685.2880    10.0150     2.1540     5.2510
 2685.4404    10.0200     2.1610     6.2350
 2685.5928    10.0170     2.1690     7.0370
 2685.7452     9.9930     2.1730     7.0130
 2685.8976     9.9660     2.1780     7.5340
 2686.0500     9.9570     2.1760     7.1930
 2686.2024     9.9570     2.1720     6.0130
 2686.3548     9.9640     2.1620     5.1780
 2686.5072     9.9700     2.1730     5.4110
 2686.6596     9.9860     2.1850     6.5450
 2686.8120     9.9820     2.1970     6.7050
 2686.9644     9.9600     2.2080     6.8020
 2687.1168     9.9410     2.2020     7.1880
 2687.2692     9.9440     2.1910     7.3730
 2687.4216     9.9600     2.1770     6.5600
 2687.5740     9.9760     2.1680     5.7460
 2687.7264     9.9920     2.1590     5.2730
 2687.8788    10.0010     2.1440     4.8840
 2688.0312     9.9860     2.1430     4.4950
 2688.1836     9.9660     2.1460     3.7810
 2688.3360     9.9620     2.1450     4.0090
 2688.4884     9.9590     2.1520     5.2780
 2688.6408     9.9620     2.1630     6.7160
 2688.7932     9.9660     2.1600     8.0020
 2688.9456     9.9720     2.1720     8.8310
 2689.0980     9.9820     2.1620     9.0750
 2689.2504     9.9900     2.1450     7.7070
 2689.4028     9.9960     2.1450     7.1230
 2689.5552     9.9880     2.1860     7.1150
 2689.7076     9.9800     2.2120     7.2560
 2689.8600     9.9710     2.2290     7.5480
 2690.0124     9.9600     2.2350     7.9120
 2690.1648     9.9570     2.2090     8.3010
 2690.3172     9.9600     2.2050     8.4550
 2690.4696     9.9660     2.2030     8.3800
 2690.6220     9.9770     2.2050     7.7440
 2690.7744     9.9880     2.2170     7.1940
 2690.9268     9.9970     2.2110     6.9530
 2691.0792    10.0070     2.1960     6.5610
 2691.2316    10.0070     2.1880     6.2260
 2691.3840    10.0010     2.1860     6.3970
 2691.5364     9.9990     2.1850     6.9560
 2691.6888    10.0030     2.1820     7.4650
 2691.8412    10.0050     2.1980     7.8420
 2691.9936    10.0050     2.2080     7.9090
 2692.1460    10.0020     2.2060     7.8950
 2692.2984    10.0010     2.2230     9.0320
 2692.4508     9.9980     2.2240     7.6890
 2692.6032     9.9890     2.2140     6.7190
 2692.7556     9.9870     2.2150     6.0330
 2692.9080     9.9850     2.2180     5.6810
 2693.0604     9.9970     2.2170     5.5220
 2693.2128    10.0130     2.2040     5.4170
 2693.3652    10.0250     2.1930     5.3640
 2693.5176     9.9760     2.1960     5.3740
 2693.6700     9.9480     2.2070     5.3250
 2693.8224     9.9410     2.2140     5.2780
 2693.9748     9.9420     2.2170     5.0070
 2694.1272     9.9460     2.2040     4.4440
 2694.2796     9.9490     2.1900     4.7290
 2694.4320     9.9490     2.1850     5.7550
 2694.5844     9.9490     2.2000     5.8370
 2694.7368     9.9490     2.2140     4.4000
 2694.8892     9.9490     2.2120     3.3830
 2695.0416     9.9520     2.2150     2.7480
 2695.1940     9.9620     2.2120     2.5900
 2695.3464     9.9670     2.2000     3.6450
 2695.4988     9.9780     2.1760     4.6150
 2695.6512     9.9830     2.1840     4.5490
 2695.8036     9.9810     2.2000     4.1770
 2695.9560     9.9660     2.1900     3.9250
 2696.1084     9.9620     2.1950     3.9550
 2696.2608     9.9760     2.1920     4.2660
 2696.4132     9.9940     2.1900     4.6730
 2696.5656    10.0030     2.2120     4.8230
 2696.7180     9.9990     2.2210     5.3040
 2696.8704     9.9860     2.2110     5.5270
 2697.0228     9.9810     2.2020     4.6330
 2697.1752     9.9850     2.2030     3.8200
 2697.3276     9.9940     2.2070     3.4670
 2697.4800    10.0030     2.2060     4.0140
 2697.6324    10.0050     2.2030     4.6030
 2697.7848    10.0050     2.2000     4.7800
 2697.9372    10.0040     2.2000     5.2330
 2698.0896     9.9940     2.2000     4.8920
 2698.2420     9.9840     2.1810     3.8740
 2698.3944     9.9810     2.1690     3.6870
 2698.5468     9.9780     2.1660     4.7050
 2698.6992     9.9800     2.1800     5.1890
 2698.8516     9.9860     2.1790     4.6520
 2699.0040     9.9890     2.1810     4.4710
 2699.1564     9.9900     2.1890     5.0480
 2699.3088     9.9950     2.1940     5.3940
 2699.4612     9.9990     2.1930     5.3710
 2699.6136     9.9970     2.2090     4.9810
 2699.7660     9.9970     2.2120     4.8890
 2699.9184     9.9980     2.2020     5.3010
 2700.0708    10.0010     2.2070     5.2400
 2700.2232    10.0020     2.2070     5.0710
 2700.3756    10.0030     2.2000     5.1720
 2700.5280    10.0040     2.1990     5.5610
 2700.6804    10.0080     2.2010     5.4660
 2700.8328    10.0070     2.2100     5.3850
 2700.9852    10.0060     2.2210     5.4360
 2701.1376    10.0090     2.2290     5.5350
 2701.2900    10.0130     2.2260     5.6910
 2701.4424    10.0130     2.2260     5.6820
 2701.5948    10.0200     2.2130     4.6070
 2701.7472    10.0360     2.2000     4.2380
 2701.8996    10.0520     2.2020     4.3790
 2702.0520    10.0630     2.2100     4.7910
 2702.2044    10.0650     2.2170     5.2090
 2702.3568    10.0620     2.2040     5.9150
 2702.5092    10.0580     2.1920     5.0380
 2702.6616    10.0460     2.1890     3.8390
 2702.8140    10.0390     2.1960     3.5530
 2702.9664    10.0350     2.2120     3.7790
 2703.1188    10.0330     2.2320     4.1910
 2703.2712    10.0350     2.2590     4.5490
 2703.4236    10.0400     2.2770     4.8390
 2703.5760    10.0330     2.2610     5.0330
 2703.7284    10.0310     2.2480     3.8780
 2703.8808    10.0420     2.2430     3.6960
 2704.0332    10.0450     2.2510     4.2050
 2704.1856    10.0480     2.2650     4.4680
