~VERSION INFORMATION
VERS.                                                 2.0:   CWLS Log ASCII Standard-VERSION 2.0
WRAP.                                                  NO:   One line per depth step
~Well Information Block
STRT.M                                          1406.0424:   Top Depth
STOP.M                                          1903.9332:   Bottom Depth
STEP.M                                             .15240:   Depth Increment
NULL.                                            -999.250:   Null Value
FLD .                                          EEMSKANAAL:   Field Name
WELL.                                       EEMSKANAAL- 1:   NAME
EDF .m                                               5.58:   ELEV DRILL FLOOR
EPD .                                                   0:   ELEV PERM DATUM
EGL .m                                                -.9:   GROUND LEVEL
LMF .                                                  DF:   LOGS MEAS FROM
COMP.                                                 NAM:   OPERATOR
PDAT.                                                 NAP:   PERM DATUM
SPUD.                                          1970/11/08:   SPUD DATE
UWBI.                                      11000074112201:   UWBI
WELL.                                       EEMSKANAAL- 1:   HOLE NAME
~PARAMETER INFORMATION (log)
LNAM.                                RUN 07 RAW OH 9.625":   NAME
LTYP.                                                 07R:   LOG TYPE
LVSN.                                                   1:   LOG VERSION
BS  .5/8"                                               9:   BIT SIZE
BLI .M                                               2950:   BOTTOM DEPTH LOGGED
BHIS.                                            RCCCCCCC:   BRIEF HISTORY
FHIS.              RAW-TIGA/COPY/COPY/COPY/COPY/COPY/COPY:   FULL HISTORY
MRT .                                                    :   MAX REC TEMP
DFT .                                          SALT SPERS:   MUD TYPE
RMS .                                               0.074:   RM
MST .C                                                 26:   RM TEMP
RMCS.                                               0.144:   RMC
MCST.C                                                 17:   RMC TEMP
RMFS.                                               0.059:   RMF
MFST.C                                                 26:   RMF TEMP
TCS .                                                 N/A:   TIME SINCE CIRCLN
TLI .M                                             1406.5:   TOP DEPTH LOGGED
~Curve Information Block
#MNEM.UNIT                                        API CODE    No Description
#=========                                        ========    == ===========
DEPT.M                                       00 001 00 00:     1  DEPTH
LL9D.OHMM                                                :     2  Dual Laterolog 9 deep
LL9S.OHMM                                                :     3  Dual Laterolog 9 shallow
MSFL.OHMM                                                :     4  MICRO SPHERICALLY FOCUSSED LOG
~ASCII
# ...
 1433.7792     1.9070     1.3360     1.4280
 1433.9316     1.8420     1.2890     1.3600
 1434.0840     1.7400     1.2440     1.2560
 1434.2364     1.6540     1.1970      .7900
 1434.3888     1.6360     1.1790     1.3670
 1434.5412     1.7030     1.2400     1.4040
 1434.6936     1.8710     1.4220     1.0620
 1434.8460     2.1820     1.6640     1.3460
 1434.9984     2.4400     1.7040     1.6760
 1435.1508     2.2170     1.6200     1.6370
 1435.3032     1.9680     1.4630     2.3430
 1435.4556     1.9250     1.3470     2.3570
 1435.6080     1.9440     1.3480     1.7580
 1435.7604     2.0790     1.3820     1.5690
 1435.9128     2.4310     1.7200     1.4610
 1436.0652     2.8690     1.9110     2.2680
 1436.2176     2.8820     1.9460     2.6750
 1436.3700     2.5530     1.8890     2.5240
 1436.5224     2.1850     1.6980     2.1690
 1436.6748     1.9660     1.4520     2.2830
 1436.8272     1.8450     1.3290     1.9200
 1436.9796     1.7740     1.2950     1.5060
 1437.1320     1.7450     1.2920     1.1390
 1437.2844     1.7450     1.3010     1.4440
 1437.4368     1.7540     1.3170      .9130
 1437.5892     1.7820     1.3540      .3990
 1437.7416     1.9580     1.4230     1.6280
 1437.8940     2.3770     1.5680     1.4710
 1438.0464     2.7730     1.8870     2.5220
 1438.1988     2.8880     1.9120     2.7070
 1438.3512     2.5770     1.6520     2.6670
 1438.5036     2.0370     1.4240     2.8880
 1438.6560     1.9460     1.3840     2.2880
 1438.8084     2.0660     1.3810     1.0290
 1438.9608     2.5290     1.6170     1.8140
 1439.1132     2.5520     1.7910     2.6050
 1439.2656     2.3520     1.7060     2.5790
 1439.4180     1.6580     1.3010     2.9210
 1439.5704     1.6100     1.2820     1.3730
 1439.7228     1.7520     1.3180     1.3030
 1439.8752     2.0690     1.4030     1.4030
 1440.0276     2.2260     1.7000     1.5720
 1440.1800     2.5710     1.8300     1.9520
 1440.3324     2.3700     1.5980     2.3840
 1440.4848     2.1050     1.4430     2.5850
 1440.6372     2.0730     1.4210     2.0510
 1440.7896     2.1040     1.4890      .9030
 1440.9420     2.3510     1.6950     1.6410
 1441.0944     2.7280     1.9100     1.7640
 1441.2468     2.7730     1.9660     1.2880
 1441.3992     2.7130     1.8830     2.0730
 1441.5516     2.4470     1.6390     1.6620
 1441.7040     2.0220     1.3800     2.3810
 1441.8564     1.6550     1.2600     1.5490
 1442.0088     1.6250     1.2140      .7640
 1442.1612     1.7110     1.2260     1.1520
 1442.3136     1.8890     1.3610     1.5650
 1442.4660     2.3830     1.6740     1.5520
 1442.6184     2.8660     1.9510     1.3420
 1442.7708     2.8380     2.0110     2.1590
 1442.9232     2.4650     1.9190     2.1600
 1443.0756     2.0690     1.5520     2.2090
 1443.2280     1.9660     1.3980     2.3000
 1443.3804     1.9440     1.4610     1.1500
 1443.5328     2.1570     1.6630      .8970
 1443.6852     2.7640     1.9850     1.2990
 1443.8376     2.5840     2.0250     1.8660
 1443.9900     2.2630     1.7870     2.5830
 1444.1424     1.7930     1.4450     2.5120
 1444.2948     1.2950     1.1310     2.3600
 1444.4472     1.2780     1.0890      .5670
 1444.5996     1.4580     1.1070     1.1160
 1444.7520     1.6840     1.1830     1.0880
 1444.9044     1.8220     1.2770     1.4140
 1445.0568     1.8640     1.4050     1.7400
 1445.2092     1.9150     1.4310     2.1180
 1445.3616     2.0250     1.4770     1.1890
 1445.5140     2.2570     1.6610      .8760
 1445.6664     2.7660     1.9270     1.8440
 1445.8188     2.9970     2.0170     2.8260
 1445.9712     2.7210     1.9690     2.0670
 1446.1236     2.4880     1.8070     2.5230
 1446.2760     2.1590     1.6000     1.9140
 1446.4284     2.0690     1.5130     1.8080
 1446.5808     2.1210     1.5480     1.4030
 1446.7332     2.2960     1.8120     1.4920
 1446.8856     2.7160     1.8680     2.5880
 1447.0380     2.2970     1.7960     1.9810
 1447.1904     2.0100     1.5550     3.0590
 1447.3428     1.9050     1.3460     2.5150
 1447.4952     1.8420     1.3460     1.0940
 1447.6476     1.9460     1.4410     1.1190
 1447.8000     2.0690     1.5310     2.5110
 1447.9524     1.8210     1.4840     2.4250
 1448.1048     1.7960     1.4070     1.1770
 1448.2572     1.8470     1.3410     1.1780
 1448.4096     1.7300     1.2890     1.4060
 1448.5620     1.5830     1.2160     1.7930
 1448.7144     1.4900     1.1470      .6210
 1448.8668     1.4650     1.1580     1.1240
 1449.0192     1.5760     1.3160     1.5200
 1449.1716     1.8850     1.5720     1.6170
 1449.3240     2.1230     1.6020     1.6430
 1449.4764     1.9950     1.4270     1.7520
 1449.6288     1.7860     1.2990     2.2000
 1449.7812     1.6570     1.2870     1.3920
 1449.9336     1.6910     1.3170     1.0660
 1450.0860     1.8670     1.5080     1.1780
 1450.2384     2.1750     1.5790     1.2420
 1450.3908     2.2830     1.5780     1.8050
 1450.5432     2.1590     1.5050     1.9000
 1450.6956     1.9360     1.4250     2.0340
 1450.8480     1.8370     1.3820     1.6650
 1451.0004     1.8530     1.4630     1.3160
 1451.1528     2.1230     1.6030     1.5860
 1451.3052     2.3160     1.6680     1.4620
 1451.4576     2.3860     1.7180     1.9940
 1451.6100     2.4210     1.7360     1.8470
 1451.7624     2.3420     1.6950     1.7230
 1451.9148     2.1790     1.5910     1.5620
 1452.0672     2.0320     1.5190     2.0630
 1452.2196     1.9790     1.4870     2.0480
 1452.3720     2.0260     1.5010     1.6360
 1452.5244     2.1750     1.5750     1.5470
 1452.6768     2.3480     1.7190     1.9860
 1452.8292     2.4160     1.8120     1.8840
 1452.9816     2.4230     1.8160     2.0770
 1453.1340     2.2540     1.7450     1.9680
 1453.2864     1.9340     1.6170     1.8820
 1453.4388     1.8100     1.4430     1.6400
 1453.5912     1.7940     1.3830     1.7600
 1453.7436     1.8070     1.3930     1.0430
 1453.8960     1.8850     1.4570     1.3560
 1454.0484     2.0790     1.6510     1.4850
 1454.2008     2.3520     1.7520     1.3840
 1454.3532     2.3070     1.7500     1.8880
 1454.5056     2.1780     1.6790     1.8050
 1454.6580     2.1960     1.5770     1.9740
 1454.8104     2.0520     1.5130     2.0470
 1454.9628     1.9680     1.4820     1.5990
 1455.1152     1.9530     1.4750     1.2960
 1455.2676     1.9580     1.4800     1.8430
 1455.4200     1.9920     1.5030     1.7930
 1455.5724     2.0460     1.5270     1.5190
 1455.7248     2.0680     1.5440     1.5980
 1455.8772     2.0060     1.5560     1.9310
 1456.0296     1.9910     1.5530     1.8340
 1456.1820     2.0300     1.5430     1.8430
 1456.3344     2.0960     1.5580     1.8620
 1456.4868     2.1950     1.6190     1.7650
 1456.6392     2.3090     1.7310     1.7330
 1456.7916     2.3910     1.8120     1.8240
 1456.9440     2.4080     1.8270     1.9830
 1457.0964     2.3790     1.8190     2.0900
 1457.2488     2.2810     1.7790     2.0860
 1457.4012     2.1920     1.7000     2.0160
 1457.5536     2.1100     1.6210     1.9110
 1457.7060     1.9590     1.5650     1.8080
 1457.8584     1.8550     1.5130     1.7210
 1458.0108     1.8230     1.4960     1.6990
 1458.1632     1.8560     1.5200     1.7470
 1458.3156     1.9570     1.6160     1.8480
 1458.4680     2.1040     1.7750     1.9820
 1458.6204     2.2750     1.8790     2.1160
 1458.7728     2.3380     1.9370     2.2600
 1458.9252     2.3470     1.9720     2.1960
 1459.0776     2.3730     1.9860     2.2200
 1459.2300     2.4040     1.9930     2.0430
 1459.3824     2.4430     1.9930     1.7790
 1459.5348     2.5080     1.9960     2.2690
 1459.6872     2.5780     2.0000     2.1580
 1459.8396     2.5930     2.0100     2.4520
 1459.9920     2.5670     2.0320     2.3780
 1460.1444     2.5250     2.0570     2.3430
 1460.2968     2.4980     2.0800     2.3220
 1460.4492     2.4760     2.0880     2.2730
 1460.6016     2.4710     2.0770     2.2190
 1460.7540     2.3670     2.0560     2.2190
 1460.9064     2.2830     2.0190     2.1400
 1461.0588     2.2840     1.9840     2.2080
 1461.2112     2.3420     1.9710     2.6060
 1461.3636     2.4280     2.0260     2.1020
