~VERSION INFORMATION
VERS.                                                 2.0:   CWLS Log ASCII Standard-VERSION 2.0
WRAP.                                                  NO:   One line per depth step
~Well Information Block
STRT.M                                           836.5236:   Top Depth
STOP.M                                          2800.0452:   Bottom Depth
STEP.M                                             .15240:   Depth Increment
NULL.                                            -999.250:   Null Value
FLD .                                          EEMSKANAAL:   Field Name
WELL.                                       EEMSKANAAL- 2:   NAME
APD .M                                               5.62:   ABOVE PERM DATUM
CTRY.                                                  NE:   COUNTRY
EDF .m                                               5.62:   ELEV DRILL FLOOR
EPD .                                                   0:   ELEV PERM DATUM
EGL .m                                              -1.06:   GROUND LEVEL
LMF .                                                  DF:   LOGS MEAS FROM
COMP.                                                 NAM:   OPERATOR
PDAT.                                                 NAP:   PERM DATUM
SPUD.                                          1971/03/17:   SPUD DATE
STAT.                                           Unknown m:   STATE
UWBI.                                      11000074112601:   UWBI
WELL.                                       EEMSKANAAL- 2:   HOLE NAME
~PARAMETER INFORMATION (log)
LNAM.                              RUN 04 RAW CH OCT 2002:   NAME
LTYP.                                                 04R:   LOG TYPE
LVSN.                                                   1:   LOG VERSION
BHT .DEGC                                             101:   BH TEMP
BS  .IN                                             9.625:   BIT SIZE
BHS .                                                CASE:   BOREHOLE STATUS
BLI .M                                               2800:   BOTTOM DEPTH LOGGED
BHIS.                                                  RC:   BRIEF HISTORY
CS  .IN                                             7.625:   CASING SIZE
CSW .LB/F                                            52.3:   CASING WEIGHT
R1  .                                 Log correlated with:   COMMENT  1
R2  .       Compensated formation density log 1-April-197:   COMMENT  2
R4  .          Weight expendable tubing 18.6 lbs per foot:   COMMENT  4
R5  .              Weight 7 5/8" casing 33.7 lbs per foot:   COMMENT  5
R7  .                                      Set CSID 5.98":   COMMENT  7
R8  .                   Set CWEI 33.7 + 18.6  =  52.3 LBS:   COMMENT  8
R9  .                                    Set CSIZ 7.625 ":   COMMENT  9
DMF .                                                 ORT:   DRILL MEAS FROM
EDF .M                                               5.62:   ELEV DRILL FLOOR
ELZ .                                              5.62 M:   ELEVATION LOG ZERO
ENGI.                                         M. Riedeman:   ENGINEER
FHIS.                                            RAW-DLIS:   FULL HISTORY
HIDE.                                               RST-C:   HEADER ID
LCNM.                                        Schlumberger:   LOGGING CONTRACTOR
LMF .                                                 ORT:   LOGS MEAS FROM
MATR.                                                LIME:   MATRIX
MRT .DEGC                                             101:   MAX REC TEMP
DFT .                                                 gas:   MUD TYPE
CN  .                                                 NAM:   OPERATOR
RUN .                                                   1:   RUN
DATE.                                          2002/10/25:   RUN DATE
RW  .OHMM                                               1:   RW
STEM.DEGC                                              18:   SURFACE TEMPERATURE
TLAB.                                                1100:   TIME LOGGER ON BOT
TLI .M                                                840:   TOP DEPTH LOGGED
WITN.                           P van der Zee & S. Yntema:   WITNESS
~Curve Information Block
#MNEM.UNIT                                        API CODE    No Description
#=========                                        ========    == ===========
DEPT.M                                       00 001 00 00:     1  DEPTH
AIRB.                                                    :     2  RST Air Borehole Diagnostic
CIRF.                                                    :     3  RST Capture to Inelastic Ratio Far
CIRN.                                                    :     4  RST Capture to Inelastic Ratio Near
FBAC.CPS                                                 :     5  Far Background Count Rate
GR.API                                                   :     6  Gamma Ray
IRAT.                                                    :     7  RST Inelastic Ratio
NBAC.CPS                                                 :     8  Near Background Count Rate
SBNA.CU                                                  :     9  RST Sigma Borehole Near Apparent
SFNA.CU                                                  :    10  RST Sigma Formation Near Apparent
SIGM.CU                                                  :    11  Formation Sigma (Neutron Capture Cross S
TPHI.FRAC                                                :    12  Thermal Decay Porosity
~ASCII
# ...
 1617.4212     1.0000      .4573      .2829  3464.6914    60.8610      .8565  2042.6202    72.6544    41.1555    53.2358      .4786
 1617.5736     1.0000      .4413      .2817  3449.5930    64.7543      .8668  2061.3369    71.9588    40.5062    54.0929      .4783
 1617.7260     1.0000      .4647      .2771  3469.6467    64.0260      .8769  2092.2244    72.8694    41.7764    53.5887      .4718
 1617.8784     1.0000      .4721      .2861  3480.3420    64.5744      .8727  2102.2517    69.9532    42.2980    52.7171      .4677
 1618.0308     1.0000      .5100      .3076  3480.7515    64.0055      .8721  2122.9734    70.7549    37.9319    51.3954      .4556
 1618.1832     1.0000      .5025      .3088  3458.6924    64.4246      .8536  2164.6846    79.1499    39.9922    51.4712      .4538
 1618.3356     1.0000      .5091      .2955  3469.3875    62.4936      .8552  2193.2686    74.5106    41.0299    51.7779      .4433
 1618.4880     1.0000      .5178      .3136  3437.1448    62.7612      .8485  2182.5732    76.0015    39.8283    51.7707      .4399
 1618.6404     1.0000      .5196      .3014  3442.3367    61.9576      .8566  2175.2205    79.0312    40.3402    51.9241      .4447
 1618.7928     1.0000      .5252      .3166  3462.5154    62.7049      .8573  2193.2686    68.4107    38.8175    52.0035      .4502
 1618.9452     1.0000      .5204      .3203  3451.6865    64.9645      .8643  2180.3005    72.6246    37.7793    52.0175      .4516
 1619.0976     1.0000      .5245      .3066  3467.2173    65.8565      .8596  2168.9424    77.0601    39.2966    51.4622      .4428
 1619.2500     1.0000      .5372      .3183  3487.6633    64.4293      .8622  2148.8889    71.0793    39.1941    51.8306      .4389
 1619.4024     1.0000      .5344      .3209  3458.9197    64.2386      .8627  2143.6697    75.0479    39.4248    52.2038      .4426
 1619.5548     1.0000      .5268      .3179  3452.0789    63.1797      .8650  2145.1670    75.1159    38.1895    51.8431      .4282
 1619.7072     1.0000      .5379      .3214  3471.9907    60.0427      .8581  2164.5518    80.3863    38.5887    51.9650      .4352
 1619.8596     1.0000      .5252      .3102  3465.3064    60.6819      .8551  2139.4182    74.5590    38.9294    52.1679      .4429
 1620.0120     1.0000      .5035      .3204  3517.9802    61.9505      .8556  2127.5457    74.3741    40.0740    52.0497      .4527
 1620.1644     1.0000      .5177      .3034  3518.5383    64.5521      .8558  2112.3049    77.5423    38.8341    52.3461      .4534
 1620.3168     1.0000      .5206      .3042  3489.9509    66.9490      .8586  2120.7275    70.0319    39.3571    51.7644      .4447
 1620.4692     1.0000      .5119      .3159  3509.1807    66.7706      .8606  2106.0215    74.9069    40.1536    51.6175      .4511
 1620.6216     1.0000      .5280      .3168  3505.9727    64.6276      .8657  2131.4226    75.4008    38.0949    50.9004      .4432
 1620.7740     1.0000      .5385      .3320  3513.9937    64.6078      .8667  2126.2031    74.6882    39.2785    50.6950      .4504
 1620.9264     1.0000      .5324      .3209  3485.1165    65.0543      .8680  2150.9358    72.4010    37.7127    50.9161      .4409
 1621.0788     1.0000      .5048      .3119  3490.4646    64.4299      .8579  2170.1873    76.1568    39.2529    51.5746      .4428
 1621.2312     1.0000      .5219      .2928  3479.2568    65.1158      .8487  2154.8127    71.5733    39.0119    52.2171      .4258
 1621.3836     1.0000      .5218      .2899  3483.7798    66.4412      .8469  2140.7756    74.0681    40.3647    52.5048      .4262
 1621.5360     1.0000      .5003      .2938  3518.1382    63.1408      .8518  2157.3267    72.1081    41.5175    52.2492      .4135
 1621.6884     1.0000      .5230      .3075  3465.3306    60.6279      .8547  2159.3320    79.8656    39.7262    52.3975      .4119
 1621.8408     1.0000      .5258      .3116  3458.3787    62.0699      .8539  2162.0059    78.7739    38.9467    52.0564      .4063
 1621.9932     1.0000      .5461      .3096  3454.3682    63.5248      .8609  2158.1345    74.7776    41.2178    51.2601      .3946
 1622.1456     1.0000      .5318      .3142  3403.0525    60.4136      .8647  2142.7603    78.4351    38.8176    51.3854      .4021
 1622.2980     1.0000      .5549      .3206  3407.0632    61.9788      .8651  2114.0166    72.2093    38.6117    51.0253      .3981
 1622.4504     1.0000      .5479      .3201  3383.6672    61.5450      .8615  2111.8779    76.8428    38.4605    51.9117      .4187
 1622.6028     1.0000      .5393      .3200  3381.6157    60.2821      .8637  2119.4983    74.5782    37.5486    51.6396      .4232
 1622.7552     1.0000      .5293      .3198  3392.4446    59.6709      .8694  2100.2468    72.5635    39.1153    52.3441      .4284
 1622.9076     1.0000      .5181      .3018  3396.4548    61.6225      .8691  2118.4287    76.4565    38.4139    52.2723      .4238
 1623.0600     1.0000      .5213      .3008  3405.9697    61.2695      .8774  2121.1025    70.0883    40.1601    51.8679      .4042
 1623.2124     1.0000      .5291      .3142  3379.7659    60.7518      .8735  2119.0972    78.5295    39.1254    51.7275      .4144
 1623.3648     1.0000      .5438      .3128  3394.3162    56.1214      .8488  2126.0488    69.8638    39.8394    51.5773      .4083
 1623.5172     1.0000      .5108      .2832  3426.2681    55.2162      .8276  2122.7065    78.7250    39.4911    51.1753      .4258
 1623.6696     1.0000      .4448      .2554  3437.8992    57.5506      .8249  2126.1768    77.8938    40.3014    51.6128      .4343
 1623.8220     1.0000      .4289      .2740  3437.8992    58.6577      .8461  2153.7168    73.0911    39.8530    52.2351      .4549
 1623.9744     1.0000      .4668      .2819  3428.5405    59.1322      .8595  2163.5835    76.6653    42.1950    53.5771      .4642
 1624.1268     1.0000      .4763      .2830  3452.4797    61.9778      .8589  2173.6104    75.0347    39.4580    53.2987      .4527
 1624.2792     1.0000      .5129      .3028  3457.9846    61.8886      .8626  2146.3376    73.0137    39.2463    52.7045      .4393
 1624.4316     1.0000      .5323      .3174  3458.5195    56.8613      .8621  2149.0115    75.1916    39.2177    51.4590      .4318
 1624.5840     1.0000      .5453      .3209  3457.5837    54.8918      .8548  2124.8135    74.6929    35.8191    51.2879      .4431
 1624.7364     1.0000      .5453      .3223  3437.3735    57.2566      .8492  2115.4604    70.6547    39.2304    51.5977      .4537
 1624.8888     1.0000      .5157      .3096  3439.5127    57.5635      .8518  2110.9412    73.2878    39.6678    51.2333      .4595
 1625.0412     1.0000      .5167      .3078  3425.6313    59.4508      .8471  2100.2458    71.7949    37.5933    50.2877      .4466
 1625.1936     1.0000      .5444      .3114  3400.2302    63.3199      .8480  2121.6365    74.9166    37.7249    50.3525      .4405
 1625.3460     1.0000      .5336      .3239  3403.4390    64.6650      .8502  2122.9731    74.8281    38.8303    51.2420      .4299
 1625.4984     1.0000      .5026      .3044  3428.1711    65.8258      .8557  2116.5562    80.6315    40.0747    51.9051      .4410
 1625.6508     1.0000      .4990      .2906  3434.1875    70.8709      .8482  2101.3420    71.8987    40.5017    52.4873      .4561
 1625.8032     1.0000      .4975      .2905  3437.5205    75.3168      .8593  2098.6682    67.4060    39.2730    52.4609      .4715
 1625.9556     1.0000      .4667      .3106  3458.3992    76.1178      .8664  2093.8555    77.7534    40.3953    52.7591      .4727
 1626.1080     1.0000      .4815      .3051  3471.7686    77.1890      .8712  2095.1924    78.2493    38.1639    51.9064      .4711
 1626.2604     1.0000      .5056      .2988  3460.0039    72.9029      .8599  2095.6997    69.3480    38.9142    51.5836      .4747
 1626.4128     1.0000      .5223      .3207  3489.7056    67.7294      .8547  2107.0583    67.6339    41.4203    50.5131      .4717
 1626.5652     1.0000      .5556      .3377  3505.9937    63.1968      .8537  2089.5449    71.9101    36.1242    50.1841      .4653
