~VERSION INFORMATION
VERS.                                                 2.0:   CWLS Log ASCII Standard-VERSION 2.0
WRAP.                                                  NO:   One line per depth step
~Well Information Block
STRT.M                                          2687.1168:   Top Depth
STOP.M                                          3063.8496:   Bottom Depth
STEP.M                                             .15240:   Depth Increment
NULL.                                            -999.250:   Null Value
FLD .                                          EEMSKANAAL:   Field Name
WELL.                                       EEMSKANAAL- 1:   NAME
EDF .m                                               5.58:   ELEV DRILL FLOOR
EPD .                                                   0:   ELEV PERM DATUM
EGL .m                                                -.9:   GROUND LEVEL
LMF .                                                  DF:   LOGS MEAS FROM
COMP.                                                 NAM:   OPERATOR
PDAT.                                                 NAP:   PERM DATUM
SPUD.                                          1970/11/08:   SPUD DATE
UWBI.                                      11000074112201:   UWBI
WELL.                                       EEMSKANAAL- 1:   HOLE NAME
~PARAMETER INFORMATION (log)
LNAM.                                RUN 05 RAW OH 9.625":   NAME
LTYP.                                                 05R:   LOG TYPE
LVSN.                                                   1:   LOG VERSION
BS  .5/8"                                               9:   BIT SIZE
BLI .M                                               3063:   BOTTOM DEPTH LOGGED
BHIS.                                            RCCCCCCC:   BRIEF HISTORY
FHIS.              RAW-TIGA/COPY/COPY/COPY/COPY/COPY/COPY:   FULL HISTORY
MRT .C                                                 89:   MAX REC TEMP
DFT .                                          SALT SPERS:   MUD TYPE
RMS .                                               0.074:   RM
MST .C                                                 26:   RM TEMP
RMCS.                                               0.144:   RMC
MCST.C                                                 17:   RMC TEMP
RMFS.                                               0.059:   RMF
MFST.C                                                 26:   RMF TEMP
TCS .                                               5 HRS:   TIME SINCE CIRCLN
TLI .M                                               2690:   TOP DEPTH LOGGED
~Curve Information Block
#MNEM.UNIT                                        API CODE    No Description
#=========                                        ========    == ===========
DEPT.M                                       00 001 00 00:     1  DEPTH
LL7.OHMM                                                 :     2  LATEROLOG 7
SP.MV                                                    :     3  Spontaneous potential
~ASCII
# ...
 2909.3160     8.1680   -56.8500
 2909.4684     8.9210   -56.8500
 2909.6208     9.2910   -56.8100
 2909.7732    10.9240   -56.8100
 2909.9256    11.7260   -56.8000
 2910.0780     9.2840   -56.7700
 2910.2304     8.2930   -56.7820
 2910.3828     8.4140   -56.8100
 2910.5352     8.5470   -56.8100
 2910.6876     6.7130   -56.8280
 2910.8400     6.2890   -56.8500
 2910.9924     6.8830   -56.8500
 2911.1448    10.5580   -56.8160
 2911.2972     5.4210   -56.8100
 2911.4496     5.6300   -56.7900
 2911.6020     6.1190   -56.7700
 2911.7544     6.1100   -56.8140
 2911.9068     6.0820   -56.7720
 2912.0592     6.1720   -56.8530
 2912.2116     6.4650   -56.8900
 2912.3640     6.9820   -56.8640
 2912.5164     7.7260   -56.5030
 2912.6688     8.7800   -56.8310
 2912.8212     9.5600   -57.1300
 2912.9736    10.3930   -57.1010
 2913.1260    11.0710   -56.9310
 2913.2784    11.5370   -56.6870
 2913.4308    11.6830   -56.5180
 2913.5832    11.6900   -56.4570
 2913.7356    11.6830   -56.4500
 2913.8880    11.2520   -56.4500
 2914.0404    10.9490   -56.4500
 2914.1928    12.3310   -56.4500
 2914.3452    14.8650   -55.6190
 2914.4976     9.5690   -54.6150
 2914.6500    11.4420   -53.6700
 2914.8024    14.1740   -53.3580
 2914.9548    15.1050   -53.2480
 2915.1072    15.8910   -53.1470
 2915.2596    16.8830   -53.0860
 2915.4120    18.0510   -53.0030
 2915.5644    20.0110   -52.9050
 2915.7168    21.5660   -52.8230
 2915.8692    22.6680   -52.7900
 2916.0216    22.9330   -52.7990
 2916.1740    22.4830   -52.5780
 2916.3264    21.6210   -51.4690
 2916.4788    18.9130   -50.7600
 2916.6312    14.9260   -50.3870
 2916.7836    17.8960   -50.2120
 2916.9360    21.9370   -50.1660
 2917.0884    23.4930   -50.1600
 2917.2408    24.6450   -50.1600
 2917.3932    24.4940   -50.1970
 2917.5456    19.3170   -50.2180
 2917.6980    13.7130   -50.2990
 2917.8504    10.2650   -50.4610
 2918.0028     9.5530   -50.6530
 2918.1552     9.6120   -50.7880
 2918.3076    10.2240   -50.8400
 2918.4600    12.5090   -50.8400
 2918.6124    16.4430   -50.8400
 2918.7648    20.0950   -50.8920
 2918.9172    18.0370   -51.1820
 2919.0696    16.7580   -51.5780
 2919.2220    16.7460   -51.6870
 2919.3744    16.3070   -51.7180
 2919.5268    14.3970   -51.7660
 2919.6792    12.7100   -51.8580
 2919.8316    12.0040   -51.9100
 2919.9840    11.7070   -51.9100
 2920.1364    11.7670   -51.7950
 2920.2888    13.3520   -51.6110
 2920.4412    16.3170   -51.4640
 2920.5936    20.4510   -51.4400
 2920.7460    23.4400   -51.4400
 2920.8984    23.8900   -51.4790
 2921.0508    23.9130   -51.5600
 2921.2032    24.0500   -51.6420
 2921.3556    22.1080   -51.7710
 2921.5080    19.9710   -51.9530
 2921.6604    19.6350   -52.0380
 2921.8128    19.6720   -52.1730
 2921.9652    20.0140   -52.3190
 2922.1176    21.8390   -52.4370
 2922.2700    31.7360   -52.4980
 2922.4224    34.0640   -52.6100
 2922.5748    24.9200   -52.7470
 2922.7272    21.0720   -52.9030
 2922.8796    18.2240   -53.0220
 2923.0320    11.3030   -52.9480
 2923.1844     9.6780   -52.6320
 2923.3368    10.3100   -52.2930
 2923.4892     9.3520   -52.0440
 2923.6416     8.9690   -51.9900
 2923.7940     8.9640   -51.9900
 2923.9464     9.2340   -52.0390
 2924.0988     9.4740   -52.1090
 2924.2512     9.6670   -52.2970
 2924.4036     9.8010   -52.4300
 2924.5560    10.2440   -52.4300
 2924.7084    11.2220   -52.4300
 2924.8608    11.6520   -52.4060
 2925.0132    11.5040   -52.3380
 2925.1656     9.5430   -52.1810
 2925.3180     6.6750   -51.9490
 2925.4704     5.5140   -51.7040
 2925.6228     5.0380   -51.6070
 2925.7752     4.9420   -51.6680
 2925.9276     5.0150   -51.7020
 2926.0800     5.4580   -51.7840
 2926.2324     7.0750   -51.8830
 2926.3848     8.6350   -51.9610
 2926.5372     9.8370   -52.1120
 2926.6896     9.8250   -52.1500
 2926.8420     9.3700   -52.1270
 2926.9944     8.6480   -52.0720
 2927.1468     7.3160   -51.9710
 2927.2992     6.7220   -51.8610
 2927.4516     8.1400   -51.6050
 2927.6040     6.5710   -51.2060
 2927.7564     6.6060   -51.0860
 2927.9088     6.4080   -51.0330
 2928.0612     6.2290   -50.9360
 2928.2136     6.0870   -50.9200
 2928.3660     6.0490   -50.9200
 2928.5184     6.1470   -50.9130
 2928.6708     6.3610   -50.8800
 2928.8232     6.4860   -50.8800
 2928.9756     6.5180   -50.9100
 2929.1280     6.3520   -50.9310
 2929.2804     6.1290   -50.9600
 2929.4328     5.9580   -50.9800
 2929.5852     5.7820   -51.1480
 2929.7376     5.6890   -51.2400
 2929.8900     5.7650   -51.2400
 2930.0424     6.2690   -51.4350
 2930.1948     6.2110   -51.8820
 2930.3472     6.2110   -52.2650
 2930.4996     6.4590   -52.5390
 2930.6520     6.5650   -52.6820
 2930.8044     6.5140   -52.8940
 2930.9568     6.2750   -53.0360
 2931.1092     6.0080   -53.0700
 2931.2616     5.7570   -53.0950
 2931.4140     5.5080   -53.2350
 2931.5664     5.2520   -53.4430
 2931.7188     4.9700   -53.6280
 2931.8712     4.7310   -53.6600
 2932.0236     4.4980   -53.6510
 2932.1760     4.3400   -53.6130
 2932.3284     4.2490   -53.5800
 2932.4808     4.2340   -53.5800
 2932.6332     4.1510   -53.6200
 2932.7856     3.9460   -53.6540
 2932.9380     3.7350   -53.7300
 2933.0904     3.5540   -53.8250
 2933.2428     3.4730   -53.9690
 2933.3952     3.4660   -54.4980
 2933.5476     3.6580   -55.1080
 2933.7000     3.8890   -55.2200
 2933.8524     4.0200   -55.2410
 2934.0048     3.9530   -55.2960
 2934.1572     3.6300   -55.4560
 2934.3096     4.6430   -55.5220
 2934.4620     5.0820   -55.7040
 2934.6144     5.1610   -55.8820
 2934.7668     7.3480   -56.2710
 2934.9192     8.8810   -56.6170
 2935.0716     9.4060   -56.7590
 2935.2240     9.8890   -56.8940
 2935.3764     9.8270   -57.0010
 2935.5288     8.8270   -57.0800
 2935.6812     5.9030   -57.1300
 2935.8336     5.7380   -57.1540
 2935.9860     4.8820   -57.5960
 2936.1384     4.9930   -58.2340
 2936.2908     5.5660   -58.8400
 2936.4432     9.5930   -58.9630
 2936.5956    13.4560   -59.0280
 2936.7480    14.6830   -59.1210
 2936.9004    15.3130   -59.7020
 2937.0528    15.3750   -60.3290
 2937.2052    14.2330   -60.7850
 2937.3576    10.2000   -61.1640
 2937.5100     7.0200   -61.4130
 2937.6624     6.0030   -61.6170
 2937.8148     5.6750   -61.8280
 2937.9672     5.4860   -61.9900
 2938.1196     5.8030   -62.0440
 2938.2720     6.9960   -62.0600
 2938.4244     7.9780   -62.0970
 2938.5768     8.5980   -62.2120
 2938.7292     8.5360   -62.4170
 2938.8816     8.0570   -62.5460
 2939.0340     6.7000   -62.5840
 2939.1864     9.0970   -62.7140
 2939.3388    11.4790   -62.8290
 2939.4912     9.4630   -63.2980
 2939.6436     8.1480   -63.9230
 2939.7960     6.1660   -64.4770
 2939.9484     6.0480   -65.0090
 2940.1008     6.0680   -65.5520
 2940.2532     5.5970   -65.8970
 2940.4056     5.3060   -66.1120
 2940.5580     9.0970   -66.2200
 2940.7104    15.5940   -66.3700
 2940.8628     8.7760   -66.5730
 2941.0152     6.4070   -66.7500
 2941.1676     7.8700   -66.7500
 2941.3200     7.7080   -66.7340
 2941.4724     6.3300   -66.6010
 2941.6248     5.8270   -66.3280
 2941.7772     5.4740   -65.8390
 2941.9296     5.0240   -64.8130
 2942.0820     4.3250   -63.4770
 2942.2344     4.1750   -62.7570
 2942.3868     4.9920   -62.5110
 2942.5392     5.1290   -62.2260
 2942.6916     5.4720   -61.9910
 2942.8440     5.8340   -62.0020
 2942.9964     5.9650   -62.1650
 2943.1488     6.1140   -62.2200
 2943.3012     6.3080   -62.2510
 2943.4536     6.0260   -62.2630
 2943.6060     4.8850   -62.2180
 2943.7584     6.9240   -62.1800
 2943.9108     9.1470   -62.2200
 2944.0632     9.4380   -62.2450
 2944.2156     9.7420   -62.2920
 2944.3680    10.6010   -62.3410
 2944.5204    15.1460   -63.0200
 2944.6728    12.6760   -63.6760
 2944.8252    10.9120   -64.0600
 2944.9776     8.5990   -64.0900
 2945.1300     7.5320   -63.9580
 2945.2824     8.6160   -63.8640
 2945.4348     9.1480   -63.6000
 2945.5872     7.6580   -63.4880
 2945.7396     8.9850   -63.5180
 2945.8920     8.5470   -63.5280
 2946.0444     8.2120   -63.5300
 2946.1968     8.4840   -63.6080
