~VERSION INFORMATION
VERS.                                                 2.0:   CWLS Log ASCII Standard-VERSION 2.0
WRAP.                                                  NO:   One line per depth step
~Well Information Block
STRT.M                                           836.5236:   Top Depth
STOP.M                                          2800.0452:   Bottom Depth
STEP.M                                             .15240:   Depth Increment
NULL.                                            -999.250:   Null Value
FLD .                                          EEMSKANAAL:   Field Name
WELL.                                       EEMSKANAAL- 2:   NAME
APD .M                                               5.62:   ABOVE PERM DATUM
CTRY.                                                  NE:   COUNTRY
EDF .m                                               5.62:   ELEV DRILL FLOOR
EPD .                                                   0:   ELEV PERM DATUM
EGL .m                                              -1.06:   GROUND LEVEL
LMF .                                                  DF:   LOGS MEAS FROM
COMP.                                                 NAM:   OPERATOR
PDAT.                                                 NAP:   PERM DATUM
SPUD.                                          1971/03/17:   SPUD DATE
STAT.                                           Unknown m:   STATE
UWBI.                                      11000074112601:   UWBI
WELL.                                       EEMSKANAAL- 2:   HOLE NAME
~PARAMETER INFORMATION (log)
LNAM.                              RUN 04 RAW CH OCT 2002:   NAME
LTYP.                                                 04R:   LOG TYPE
LVSN.                                                   1:   LOG VERSION
BHT .DEGC                                             101:   BH TEMP
BS  .IN                                             9.625:   BIT SIZE
BHS .                                                CASE:   BOREHOLE STATUS
BLI .M                                               2800:   BOTTOM DEPTH LOGGED
BHIS.                                                  RC:   BRIEF HISTORY
CS  .IN                                             7.625:   CASING SIZE
CSW .LB/F                                            52.3:   CASING WEIGHT
R1  .                                 Log correlated with:   COMMENT  1
R2  .       Compensated formation density log 1-April-197:   COMMENT  2
R4  .          Weight expendable tubing 18.6 lbs per foot:   COMMENT  4
R5  .              Weight 7 5/8" casing 33.7 lbs per foot:   COMMENT  5
R7  .                                      Set CSID 5.98":   COMMENT  7
R8  .                   Set CWEI 33.7 + 18.6  =  52.3 LBS:   COMMENT  8
R9  .                                    Set CSIZ 7.625 ":   COMMENT  9
DMF .                                                 ORT:   DRILL MEAS FROM
EDF .M                                               5.62:   ELEV DRILL FLOOR
ELZ .                                              5.62 M:   ELEVATION LOG ZERO
ENGI.                                         M. Riedeman:   ENGINEER
FHIS.                                            RAW-DLIS:   FULL HISTORY
HIDE.                                               RST-C:   HEADER ID
LCNM.                                        Schlumberger:   LOGGING CONTRACTOR
LMF .                                                 ORT:   LOGS MEAS FROM
MATR.                                                LIME:   MATRIX
MRT .DEGC                                             101:   MAX REC TEMP
DFT .                                                 gas:   MUD TYPE
CN  .                                                 NAM:   OPERATOR
RUN .                                                   1:   RUN
DATE.                                          2002/10/25:   RUN DATE
RW  .OHMM                                               1:   RW
STEM.DEGC                                              18:   SURFACE TEMPERATURE
TLAB.                                                1100:   TIME LOGGER ON BOT
TLI .M                                                840:   TOP DEPTH LOGGED
WITN.                           P van der Zee & S. Yntema:   WITNESS
~Curve Information Block
#MNEM.UNIT                                        API CODE    No Description
#=========                                        ========    == ===========
DEPT.M                                       00 001 00 00:     1  DEPTH
AIRB.                                                    :     2  RST Air Borehole Diagnostic
CIRF.                                                    :     3  RST Capture to Inelastic Ratio Far
CIRN.                                                    :     4  RST Capture to Inelastic Ratio Near
FBAC.CPS                                                 :     5  Far Background Count Rate
GR.API                                                   :     6  Gamma Ray
IRAT.                                                    :     7  RST Inelastic Ratio
NBAC.CPS                                                 :     8  Near Background Count Rate
SBNA.CU                                                  :     9  RST Sigma Borehole Near Apparent
SFNA.CU                                                  :    10  RST Sigma Formation Near Apparent
SIGM.CU                                                  :    11  Formation Sigma (Neutron Capture Cross S
TPHI.FRAC                                                :    12  Thermal Decay Porosity
~ASCII
  836.5236     1.0000      .7203      .5215  3505.8823    57.2081      .9710  2158.8235    58.5354    36.5879    42.8875      .5029
  836.6760     1.0000      .7203      .5215  3505.8821    56.3382      .9710  2158.8235    58.5354    36.5879    42.8875      .5029
  836.8284     1.0000      .7203      .5215  3505.8823    54.4837      .9710  2158.8235    58.5354    36.5879    42.8860      .5028
  836.9808     1.0000      .7203      .5215  3505.8826    54.0046      .9711  2158.8235    58.5354    36.5879    42.8807      .5025
  837.1332     1.0000      .7214      .5210  3486.8662    54.0974      .9711  2168.2793    58.5512    36.6126    42.7501      .5023
  837.2856     1.0000      .7214      .5211  3488.0593    55.1488      .9711  2166.0254    58.5475    36.6067    42.5939      .5028
  837.4380     1.0000      .7211      .5213  3491.8025    54.8351      .9634  2162.8169    58.5421    36.5983    42.8560      .5033
  837.5904     1.0000      .7244      .5209  3505.9922    55.8894      .9596  2169.2341    58.5528    36.6151    43.1734      .5054
  837.7428     1.0000      .7052      .4977  3492.0884    54.4307      .9574  2158.5388    56.8577    35.7151    43.2658      .5064
  837.8952     1.0000      .7063      .5097  3496.4556    54.4307      .9579  2159.4802    56.4833    37.0967    43.6910      .5089
  838.0476     1.0000      .7014      .5020  3494.8513    53.7028      .9593  2172.5642    57.3305    37.5772    43.4256      .5090
  838.2000     1.0000      .6898      .5020  3490.5732    54.0950      .9607  2178.9812    59.1363    37.4649    43.6314      .5112
  838.3524     1.0000      .6977      .5150  3488.9685    53.4480      .9716  2176.5854    56.4228    36.7227    43.5727      .5125
  838.5048     1.0000      .6878      .5137  3480.8728    52.6422      .9698  2177.6545    56.5072    36.8457    43.5933      .5124
  838.6572     1.0000      .6841      .4980  3509.3408    53.5318      .9678  2170.3245    60.0920    37.3757    43.8464      .5127
  838.8096     1.0000      .6878      .5027  3523.4587    52.9558      .9573  2174.0679    56.5345    37.3240    43.7769      .5087
  838.9620     1.0000      .6947      .4960  3524.5876    54.3390      .9537  2206.9556    60.4782    36.4192    43.8668      .5069
  839.1144     1.0000      .7034      .4858  3534.0603    52.5765      .9545  2225.5830    59.7916    37.0070    43.5918      .5030
  839.2668     1.0000      .6982      .5083  3515.8093    53.6928      .9508  2231.8474    60.4856    37.7026    43.7421      .5066
  839.4192     1.0000      .6974      .4909  3532.9978    53.2558      .9557  2237.9436    55.2388    38.0873    43.7914      .5077
  839.5716     1.0000      .6938      .5038  3526.4783    52.3500      .9558  2234.7874    58.9394    36.6259    43.3838      .5101
  839.7240     1.0000      .7058      .5091  3539.5803    50.7306      .9558  2225.5994    56.5437    37.4252    43.1492      .5076
  839.8764     1.0000      .7088      .5039  3557.8728    52.8064      .9561  2208.3088    57.4318    36.3591    43.0275      .5072
  840.0288     1.0000      .7008      .5037  3561.3167    52.5797      .9534  2200.9451    60.2849    36.7707    42.9944      .5055
  840.1812     1.0000      .7121      .5060  3578.9641    50.3050      .9625  2206.5845    58.7551    37.3181    42.9349      .5047
  840.3336     1.0000      .7124      .5160  3565.5947    50.9780      .9586  2215.2693    57.1518    36.9652    42.8286      .5059
  840.4860     1.0000      .7252      .5034  3567.1104    51.6848      .9548  2219.0120    55.0352    36.6183    42.5419      .5065
  840.6384     1.0000      .7454      .5149  3544.0562    50.8167      .9539  2202.1672    54.0577    36.5989    42.5897      .5068
  840.7908     1.0000      .7355      .5225  3508.0889    51.2110      .9580  2187.2830    56.0154    36.5224    42.7729      .5056
  840.9432     1.0000      .7249      .5182  3519.1025    50.9757      .9592  2177.5430    56.3250    36.3503    42.6689      .5029
  841.0956     1.0000      .7344      .5062  3523.7141    49.3582      .9585  2178.9329    58.7765    36.6684    42.4911      .5012
  841.2480     1.0000      .7311      .5159  3525.3313    45.7416      .9478  2176.8704    57.9234    37.0891    42.0089      .5011
  841.4004     1.0000      .7293      .5097  3526.1338    44.6790      .9416  2188.4827    57.3406    36.5671    41.7914      .5029
  841.5528     1.0000      .7423      .5199  3521.2095    43.3142      .9427  2200.2974    56.3922    36.6870    41.9491      .5049
  841.7052     1.0000      .7423      .5225  3530.0657    44.8764      .9457  2207.9177    56.9410    36.0489    42.2455      .5051
  841.8576     1.0000      .7306      .5220  3546.5193    45.9369      .9571  2196.3960    58.9663    36.2677    42.5738      .5072
  842.0100     1.0000      .7188      .5272  3554.5405    47.5458      .9601  2194.7915    56.0963    35.2929    42.9750      .5095
  842.1624     1.0000      .7307      .5266  3566.8398    47.8693      .9597  2194.7915    55.9186    35.9450    42.9205      .5099
  842.3148     1.0000      .7234      .5180  3569.5134    48.3546      .9583  2186.2354    57.8065    36.4362    42.7998      .5068
  842.4672     1.0000      .7396      .5267  3610.8562    46.5043      .9499  2193.7222    58.2988    36.4621    42.5033      .5026
  842.6196     1.0000      .7345      .5092  3590.5354    46.3868      .9518  2197.7327    58.2562    37.5070    41.8715      .4973
  842.7720     1.0000      .7387      .5264  3609.2524    45.9101      .9537  2190.7810    61.9396    36.0904    41.5565      .4973
  842.9244     1.0000      .7461      .5156  3627.3101    45.1014      .9537  2193.9895    55.3958    35.9653    41.9280      .4965
  843.0768     1.0000      .7571      .5299  3611.6772    42.6100      .9486  2195.5938    60.4117    35.9425    42.5034      .5009
  843.2292     1.0000      .7432      .5284  3598.8430    43.9869      .9423  2190.9092    60.0272    35.7272    43.0565      .5027
  843.3816     1.0000      .7380      .5233  3599.3779    45.0600      .9413  2191.9785    57.8389    35.8782    43.3280      .5063
  843.5340     1.0000      .7484      .5234  3595.7585    44.5637      .9451  2189.8396    56.2830    36.2515    43.2457      .5069
  843.6864     1.0000      .7250      .5118  3596.8281    45.8763      .9408  2168.9841    58.5323    36.5921    43.1624      .5061
  843.8388     1.0000      .7401      .5216  3576.9170    46.4253      .9475  2171.6580    57.2282    36.0745    43.4041      .5052
  843.9912     1.0000      .7395      .5223  3597.2375    42.3738      .9466  2168.9839    58.2903    36.8173    43.0742      .5044
  844.1436     1.0000      .7500      .5361  3599.3459    39.1579      .9535  2166.8447    60.1600    36.6096    43.0123      .5080
  844.2960     1.0000      .7598      .5464  3615.3882    37.8244      .9627  2146.1228    53.1957    36.3129    42.8624      .5057
  844.4484     1.0000      .7486      .5443  3619.5420    35.9457      .9683  2165.3743    61.8801    37.2910    42.7883      .5050
  844.6008     1.0000      .7325      .5271  3619.1318    36.0169      .9668  2180.3474    61.2496    35.9703    42.7180      .5048
  844.7532     1.0000      .7409      .5344  3637.3140    37.4299      .9542  2166.9785    54.3763    36.7526    42.7585      .5070
  844.9056     1.0000      .7626      .5412  3643.6062    38.0560      .9519  2171.1284    60.4483    35.8675    42.6980      .5086
  845.0580     1.0000      .7413      .5380  3630.6470    39.4005      .9489  2160.3049    58.8968    36.7563    42.6192      .5064
  845.2104     1.0000      .7501      .5286  3610.4375    39.4005      .9498  2163.5132    57.1869    37.2898    42.9390      .5090
  845.3628     1.0000      .7383      .5240  3615.5366    38.9372      .9416  2171.8020    54.1639    35.5512    42.7006      .5095
  845.5152     1.0000      .7540      .5229  3601.6321    39.7058      .9455  2179.2888    56.5793    36.2089    42.0331      .5101
  845.6676     1.0000      .7455      .5309  3591.4717    38.8237      .9424  2174.4761    54.8876    36.7093    41.7267      .5073
